Cut?,Counts,eventNumber,runNumber
Raw,2.15355755e+05,0,351
Raw,2.33958618e+05,1,351
Raw,1.08347619e+05,1,351
Raw,2.35845354e+05,3,351
Raw,3.19159806e+05,4,351
Raw,1.23659306e+05,5,351
Raw,2.53680363e+05,6,351
Raw,2.00507491e+05,7,351
Raw,1.24136467e+05,8,351
Raw,2.2237813e+05,9,351
Raw,2.22832007e+05,10,351
Raw,2.32586927e+05,11,351
Raw,2.3700671e+05,12,351
Raw,2.87935974e+05,13,351
Raw,3.44070346e+05,14,351
Raw,2.50959952e+05,15,351
Raw,2.88263724e+05,16,351
Raw,2.6721482e+05,18,351
Raw,2.93445414e+05,19,351
Raw,2.49795314e+05,20,351
Raw,2.94785232e+05,21,351
Raw,3.00692463e+05,22,351
Raw,1.64843526e+05,23,351
Raw,2.62062026e+05,24,351
Raw,2.70353952e+05,25,351
Raw,2.75305376e+05,26,351
Raw,2.23242683e+05,27,351
Raw,1.79728502e+05,28,351
Raw,7.14067274e+05,29,351
Raw,2.28989142e+05,30,351
Raw,2.97110787e+05,31,351
Raw,2.58798658e+05,32,351
Raw,3.07602992e+05,34,351
Raw,2.73768623e+05,35,351
Raw,2.68681592e+05,36,351
Raw,1.96578053e+05,37,351
Raw,1.14821002e+05,38,351
Raw,2.89714233e+05,39,351
Raw,2.04695347e+05,40,351
Raw,2.28551144e+05,41,351
Raw,2.36533695e+05,42,351
Raw,2.64420445e+05,43,351
Raw,68164.435,44,351
Raw,3.14285435e+05,45,351
Raw,2.29323682e+05,46,351
Raw,2.67457797e+05,47,351
Raw,2.5379963e+05,48,351
Raw,2.46146159e+05,49,351
Raw,1.45568328e+05,50,351
Raw,1.33679929e+05,51,351
Raw,3.09647159e+05,52,351
Raw,1.56557103e+05,53,351
Raw,2.63038633e+05,54,351
Raw,2.18906705e+05,55,351
Raw,2.42966605e+05,56,351
Raw,2.35472206e+05,57,351
Raw,5.54439908e+05,58,351
Raw,1.64681207e+05,59,351
Raw,2.99260475e+05,60,351
Raw,3.21714091e+05,61,351
Raw,2.52541647e+05,62,351
Raw,3.79969042e+05,63,351
Raw,2.15071642e+05,64,351
Raw,2.38743672e+05,65,351
Raw,3.15448353e+05,66,351
Raw,1.95218161e+05,67,351
Raw,1.75732561e+05,68,351
Raw,1.92509019e+05,69,351
Raw,2.59489791e+05,71,351
Raw,2.66702431e+05,72,351
Raw,3.14083649e+05,73,351
Raw,3.49152654e+05,74,351
Raw,1.84864597e+05,75,351
Raw,2.98532778e+05,76,351
Raw,2.48993307e+05,77,351
Raw,3.14255364e+05,78,351
Raw,2.91908683e+05,79,351
Raw,3.17062778e+05,80,351
Raw,2.33994625e+05,81,351
Raw,2.23815489e+05,82,351
Raw,3.06890456e+05,83,351
Raw,2.21965525e+05,84,351
Raw,2.16220438e+05,85,351
Raw,1.40094303e+05,86,351
Raw,2.45143682e+05,87,351
Raw,2.6890384e+05,88,351
Raw,3.51911446e+05,89,351
Raw,2.96406065e+05,90,351
Raw,28844.846,90,351
Raw,2.39659594e+05,91,351
Raw,3.32693776e+05,92,351
Raw,2.42944012e+05,93,351
Raw,2.77386336e+05,94,351
Raw,2.57061477e+05,95,351
Raw,1.22849566e+05,96,351
Raw,3.36462903e+05,97,351
Raw,2.87131382e+05,98,351
Raw,2.947537e+05,99,351
Raw,4.45820475e+05,100,351
Raw,2.69484491e+05,101,351
Raw,2.5883662e+05,102,351
Raw,2.71600627e+05,103,351
Raw,3.97491985e+05,105,351
Raw,2.38357131e+05,106,351
Raw,3.26753967e+05,108,351
Raw,3.27800741e+05,109,351
Raw,2.75902467e+05,110,351
Raw,3.01330499e+05,111,351
Raw,2.72532158e+05,112,351
Raw,3.45146453e+05,113,351
Raw,2.33439562e+05,114,351
Raw,2.57307079e+05,115,351
Raw,84293.792,116,351
Raw,2.64283634e+05,117,351
Raw,2.31830798e+05,118,351
Raw,63951.736,118,351
Raw,2.40592483e+05,119,351
Raw,1.36228835e+05,120,351
Raw,2.74460763e+05,121,351
Raw,2.10452878e+05,122,351
Raw,4.98049329e+05,123,351
Raw,2.80474871e+05,124,351
Raw,1.99496087e+05,125,351
Raw,1.20958158e+05,126,351
Raw,2.6729075e+05,127,351
Raw,1.52740572e+05,129,351
Raw,3.8634709e+05,130,351
Raw,2.89909484e+05,131,351
Raw,3.14016289e+05,132,351
Raw,2.40920535e+05,133,351
Raw,2.86245909e+05,134,351
Raw,3.04851316e+05,135,351
Raw,1.23958402e+05,136,351
Raw,75170.746,136,351
Raw,3.04762587e+05,137,351
Raw,2.63387671e+05,138,351
Raw,2.99743188e+05,139,351
Raw,2.61684483e+05,140,351
Raw,2.56632265e+05,141,351
Raw,2.85456948e+05,142,351
Raw,2.88563889e+05,143,351
Raw,2.62361777e+05,144,351
Raw,2.08871007e+05,145,351
Raw,1.95672592e+05,146,351
Raw,2.60849413e+05,147,351
Raw,2.4663871e+05,148,351
Raw,3.81488885e+05,149,351
Raw,2.7425126e+05,150,351
Raw,2.44050712e+05,152,351
Raw,6.67850838e+05,153,351
Raw,1.83380626e+05,154,351
Raw,2.48272279e+05,155,351
Raw,1.67407538e+05,156,351
Raw,2.88324108e+05,157,351
Raw,2.20041821e+05,158,351
Raw,2.60274026e+05,159,351
Raw,2.00015114e+05,160,351
Raw,2.97201483e+05,161,351
Raw,2.47739826e+05,162,351
Raw,2.2765912e+05,163,351
Raw,3.05572032e+05,164,351
Raw,2.22807137e+05,165,351
Raw,2.83190883e+05,166,351
Raw,2.98754621e+05,167,351
Raw,2.62668774e+05,168,351
Raw,2.54948732e+05,169,351
Raw,2.54787907e+05,170,351
Raw,2.69265644e+05,171,351
Raw,2.89456002e+05,172,351
Raw,3.33942818e+05,173,351
Raw,2.29015978e+05,174,351
Raw,2.93998652e+05,175,351
Raw,2.74138221e+05,176,351
Raw,2.68328813e+05,177,351
Raw,2.47446674e+05,178,351
Raw,3.3883278e+05,179,351
Raw,3.09009445e+05,180,351
Raw,2.35717184e+05,181,351
Raw,3.05986804e+05,182,351
Raw,2.86111278e+05,183,351
Raw,2.77509383e+05,184,351
Raw,2.43582386e+05,185,351
Raw,2.38810065e+05,186,351
Raw,1.61933348e+05,187,351
Raw,2.49794219e+05,188,351
Raw,3.10313336e+05,189,351
Raw,2.79447549e+05,190,351
Raw,2.65059066e+05,191,351
Raw,2.41643999e+05,192,351
Raw,2.48280975e+05,193,351
Raw,2.03419662e+05,194,351
Raw,2.43160153e+05,195,351
Raw,2.95283841e+05,196,351
Raw,2.51470646e+05,197,351
Raw,1.64607365e+05,198,351
Raw,2.62707185e+05,199,351
Raw,2.69220938e+05,200,351
Raw,2.5029593e+05,201,351
Raw,2.86242119e+05,202,351
Raw,2.68694119e+05,203,351
Raw,3.04878048e+05,204,351
Raw,2.17416472e+05,205,351
Raw,4.64306354e+05,206,351
Raw,2.18364843e+05,207,351
Raw,2.48158631e+05,208,351
Raw,2.59824063e+05,209,351
Raw,3.07383127e+05,210,351
Raw,1.78107838e+05,211,351
Raw,2.53099544e+05,212,351
Raw,2.06719534e+05,213,351
Raw,2.42769289e+05,214,351
Raw,1.32373049e+05,215,351
Raw,1.4479682e+05,216,351
Raw,2.39645744e+05,217,351
Raw,3.20163539e+05,218,351
Raw,13006.926,218,351
Raw,1.24680001e+05,219,351
Raw,2.24720679e+05,220,351
Raw,2.68391535e+05,221,351
Raw,2.94021019e+05,222,351
Raw,2.65616774e+05,223,351
Raw,2.35295228e+05,224,351
Raw,2.29770041e+05,225,351
Raw,3.00961683e+05,226,351
Raw,2.80288969e+05,227,351
Raw,4.90912492e+05,228,351
Raw,2.05964624e+05,229,351
Raw,2.41920328e+05,230,351
Raw,22155.412,230,351
Raw,3.067045e+05,231,351
Raw,2.47824469e+05,232,351
Raw,2.94166498e+05,233,351
Raw,1.53316574e+05,234,351
Raw,4.49647653e+05,235,351
Raw,1.73615047e+05,236,351
Raw,2.7562941e+05,237,351
Raw,2.86525339e+05,238,351
Raw,1.66197791e+05,239,351
Raw,2.27992604e+05,240,351
Raw,2.86000393e+05,241,351
Raw,2.11018477e+05,242,351
Raw,2.59791699e+05,243,351
Raw,1.89582113e+05,244,351
Raw,3.18377931e+05,245,351
Raw,2.5604699e+05,246,351
Raw,2.48094277e+05,247,351
Raw,1.53282072e+05,248,351
Raw,2.74361365e+05,250,351
Raw,2.69669579e+05,252,351
Raw,94796.091,253,351
Raw,2.18815765e+05,254,351
Raw,2.69789641e+05,255,351
Raw,3.13129509e+05,256,351
Raw,1.9315926e+05,257,351
Raw,2.27237023e+05,258,351
Raw,20142.006,259,351
Raw,1.68637293e+05,259,351
Raw,3.0492439e+05,260,351
Raw,2.12272573e+05,261,351
Raw,2.11409943e+05,262,351
Raw,2.9972155e+05,263,351
Raw,2.82989871e+05,264,351
Raw,3.48523975e+05,265,351
Raw,2.95864957e+05,266,351
Raw,2.79992138e+05,267,351
Raw,2.08386974e+05,268,351
Raw,2.57493502e+05,269,351
Raw,1.69177369e+05,269,351
Raw,2.11723518e+05,270,351
Raw,2.81370212e+05,271,351
Raw,1.60005971e+05,272,351
Raw,2.36399836e+05,274,351
Raw,2.87314117e+05,275,351
Raw,2.48130825e+05,276,351
Raw,2.64604411e+05,277,351
Raw,2.62902789e+05,278,351
Raw,4.55957424e+05,281,351
Raw,1.00185876e+05,281,351
Raw,1.43844861e+05,282,351
Raw,2.59028927e+05,283,351
Raw,2.31674993e+05,284,351
Raw,2.4053141e+05,285,351
Raw,2.77719749e+05,286,351
Raw,2.89366151e+05,287,351
Raw,2.81209833e+05,288,351
Raw,1.90683262e+05,289,351
Raw,2.93681399e+05,290,351
Raw,3.00831215e+05,291,351
Raw,3.30321703e+05,292,351
Raw,1.89329847e+05,293,351
Raw,2.06321249e+05,294,351
Raw,2.96074808e+05,295,351
Raw,2.64655299e+05,296,351
Raw,3.53864154e+05,297,351
Raw,1.50874922e+05,298,351
Raw,2.27994591e+05,299,351
Raw,3.10558645e+05,301,351
Raw,2.7049691e+05,302,351
Raw,2.44517861e+05,303,351
Raw,2.77937954e+05,304,351
Raw,2.20932493e+05,305,351
Raw,2.13671768e+05,306,351
Raw,3.12522997e+05,307,351
Raw,2.27672375e+05,308,351
Raw,6.25289829e+05,309,351
Raw,2.31429519e+05,310,351
Raw,2.80627398e+05,311,351
Raw,2.85696326e+05,312,351
Raw,3.66243012e+05,313,351
Raw,3.03552404e+05,314,351
Raw,6.37314834e+05,315,351
Raw,2.38408314e+05,316,351
Raw,2.17568138e+05,317,351
Raw,2.9463182e+05,318,351
Raw,2.29048637e+05,319,351
Raw,3.01924956e+05,320,351
Raw,3.01056246e+05,321,351
Raw,2.56153651e+05,322,351
Raw,2.75095542e+05,323,351
Raw,1.90546984e+05,324,351
Raw,3.32878699e+05,325,351
Raw,2.78413966e+05,326,351
Raw,3.24926494e+05,327,351
Raw,1.9489904e+05,328,351
Raw,2.22822423e+05,329,351
Raw,2.2963731e+05,330,351
Raw,92418.277,330,351
Raw,3.41390043e+05,331,351
Raw,2.63696772e+05,332,351
Raw,2.65299881e+05,333,351
Raw,2.83372488e+05,334,351
Raw,3.11157205e+05,336,351
Raw,2.74280533e+05,338,351
Raw,2.98144809e+05,339,351
Raw,2.72840842e+05,340,351
Raw,3.10236535e+05,341,351
Raw,2.17828047e+05,342,351
Raw,2.86090905e+05,343,351
Raw,5.24258309e+05,344,351
Raw,2.49927569e+05,345,351
Raw,2.69287114e+05,346,351
Raw,1.49194631e+05,347,351
Raw,2.05091515e+05,348,351
Raw,5.15289522e+05,349,351
Raw,3.02910531e+05,350,351
Raw,2.43146096e+05,351,351
Raw,2.11499382e+05,352,351
Raw,2.44804615e+05,354,351
Raw,3.18385322e+05,355,351
Raw,2.43946223e+05,356,351
Raw,1.40963804e+05,357,351
Raw,3.10967423e+05,358,351
Raw,1.97314972e+05,359,351
Raw,1.26090758e+05,360,351
Raw,2.88524908e+05,361,351
Raw,2.86896997e+05,362,351
Raw,2.39515682e+05,363,351
Raw,3.04626394e+05,364,351
Raw,2.78184048e+05,365,351
Raw,5.91343844e+05,366,351
Raw,2.0823034e+05,366,351
Raw,2.43201592e+05,368,351
Raw,79181.936,369,351
Raw,3.29275128e+05,370,351
Raw,2.69433808e+05,371,351
Raw,2.97747178e+05,372,351
Raw,3.35035697e+05,373,351
Raw,2.49966192e+05,374,351
Raw,23606.572,374,351
Raw,2.12259469e+05,375,351
Raw,2.37134233e+05,377,351
Raw,2.11316779e+05,378,351
Raw,2.27346402e+05,379,351
Raw,1.820459e+05,380,351
Raw,3.58670298e+05,381,351
Raw,1.43727388e+05,382,351
Raw,1.84942378e+05,383,351
Raw,3.03650262e+05,384,351
Raw,2.80849871e+05,385,351
Raw,3.62797751e+05,386,351
Raw,2.29425427e+05,387,351
Raw,2.10677714e+05,388,351
Raw,2.76107245e+05,389,351
Raw,4.06153508e+05,390,351
Raw,2.76790878e+05,391,351
Raw,2.07876849e+05,392,351
Raw,2.53967051e+05,393,351
Raw,2.77334087e+05,394,351
Raw,3.04530997e+05,396,351
Raw,2.81451206e+05,397,351
Raw,38170.718,397,351
Raw,2.94938403e+05,398,351
Raw,1.71914337e+05,399,351
Raw,2.80287795e+05,400,351
Raw,2.31961182e+05,401,351
Raw,1.30317836e+05,402,351
Raw,2.53756076e+05,403,351
Raw,2.52959049e+05,404,351
Raw,2.42082602e+05,405,351
Raw,2.24114e+05,406,351
Raw,2.66647365e+05,407,351
Raw,2.63322801e+05,408,351
Raw,1.7501928e+05,409,351
Raw,2.86549823e+05,410,351
Raw,2.41277063e+05,411,351
Raw,1.00305794e+05,411,351
Raw,2.20607706e+05,412,351
Raw,3.30976599e+05,414,351
Raw,1.62617756e+05,415,351
Raw,2.80953252e+05,416,351
Raw,2.74177765e+05,417,351
Raw,2.43783926e+05,419,351
Raw,2.68942504e+05,420,351
Raw,2.55142053e+05,421,351
Raw,2.38610094e+05,422,351
Raw,2.37213524e+05,423,351
Raw,2.79187054e+05,424,351
Raw,2.31142712e+05,425,351
Raw,1.85518807e+05,426,351
Raw,3.03603053e+05,427,351
Raw,2.91979208e+05,429,351
Raw,2.5442767e+05,430,351
Raw,2.83222233e+05,431,351
Raw,2.593646e+05,432,351
Raw,1.70025518e+05,433,351
Raw,2.03195992e+05,434,351
Raw,1.99422767e+05,435,351
Raw,2.59280885e+05,436,351
Raw,1.35250778e+05,437,351
Raw,2.97732293e+05,438,351
Raw,44340.708,438,351
Raw,2.1233779e+05,439,351
Raw,2.57054485e+05,440,351
Raw,1.59230005e+05,441,351
Raw,62974.912,442,351
Raw,2.52628833e+05,443,351
Raw,2.25642469e+05,444,351
Raw,1.81268135e+05,445,351
Raw,2.33214822e+05,446,351
Raw,2.09068382e+05,447,351
Raw,2.49306518e+05,448,351
Raw,1.66101947e+05,449,351
Raw,2.50584711e+05,450,351
Raw,3.4281112e+05,451,351
Raw,2.33048198e+05,452,351
Raw,1.8197883e+05,453,351
Raw,3.61019648e+05,454,351
Raw,3.23467219e+05,455,351
Raw,2.88278426e+05,456,351
Raw,2.24485289e+05,457,351
Raw,3.17244909e+05,458,351
Raw,4.80212023e+05,459,351
Raw,2.53033368e+05,460,351
Raw,3.05573856e+05,461,351
Raw,2.09701133e+05,462,351
Raw,2.30992965e+05,464,351
Raw,1.42850094e+05,465,351
Raw,2.51401198e+05,466,351
Raw,2.33845716e+05,467,351
Raw,2.08940962e+05,468,351
Raw,1.48858784e+05,469,351
Raw,2.28725792e+05,471,351
Raw,2.96597609e+05,472,351
Raw,2.52111358e+05,474,351
Raw,2.59614905e+05,475,351
Raw,2.37397777e+05,475,351
Raw,2.06505832e+05,476,351
Raw,2.06844057e+05,477,351
Raw,1.17332695e+05,478,351
Raw,3.49069476e+05,479,351
Raw,2.48638955e+05,479,351
Raw,3.68484489e+05,480,351
Raw,3.08306173e+05,481,351
Raw,2.29492378e+05,482,351
Raw,2.22039501e+05,483,351
Raw,70102.704,484,351
Raw,2.3178401e+05,484,351
Raw,2.59099799e+05,485,351
Raw,2.91248294e+05,486,351
Raw,2.64323409e+05,487,351
Raw,1.7296565e+05,488,351
Raw,2.40371089e+05,488,351
Raw,3.13488828e+05,489,351
Raw,2.49915993e+05,490,351
Raw,1.26263138e+05,491,351
Raw,2.59102678e+05,492,351
Raw,2.72445423e+05,493,351
Raw,3.44637281e+05,495,351
Raw,2.62401216e+05,496,351
Raw,2.51552325e+05,497,351
Raw,3.63003882e+05,498,351
Raw,2.87907443e+05,500,351
Raw,1.99315325e+05,501,351
Raw,2.99370863e+05,502,351
Raw,2.9858764e+05,503,351
Raw,1.85529844e+05,504,351
Raw,3.1696866e+05,505,351
Raw,3.42668306e+05,506,351
Raw,2.27261319e+05,507,351
Raw,2.3301672e+05,508,351
Raw,3.03883276e+05,509,351
Raw,2.31517013e+05,510,351
Raw,2.13309399e+05,511,351
Raw,2.98879794e+05,512,351
Raw,3.05891393e+05,513,351
Raw,2.89048134e+05,514,351
Raw,3.19355174e+05,515,351
Raw,2.06539639e+05,516,351
Raw,1.77324569e+05,517,351
Raw,3.70856175e+05,518,351
Raw,3.25407211e+05,519,351
Raw,2.9129028e+05,520,351
Raw,3.04810043e+05,521,351
Raw,2.45292345e+05,522,351
Raw,2.98769496e+05,523,351
Raw,2.67155842e+05,524,351
Raw,1.75339152e+05,525,351
Raw,2.44989637e+05,526,351
Raw,3.25962059e+05,527,351
Raw,2.6852581e+05,528,351
Raw,2.89867595e+05,529,351
Raw,2.90048824e+05,530,351
Raw,12600.193,530,351
Raw,2.97922635e+05,531,351
Raw,2.98711932e+05,532,351
Raw,6.75585956e+05,533,351
Raw,1.35214134e+05,535,351
Raw,2.16417074e+05,536,351
Raw,2.64322947e+05,537,351
Raw,2.59408378e+05,538,351
Raw,2.3363644e+05,539,351
Raw,6.93742591e+05,540,351
Raw,5.0052342e+05,540,351
Raw,1.97012818e+05,541,351
Raw,2.3360592e+05,542,351
Raw,2.46876739e+05,543,351
Raw,2.26519736e+05,544,351
Raw,3.01370959e+05,545,351
Raw,2.18824468e+05,546,351
Raw,5.16890362e+05,547,351
Raw,2.51285686e+05,548,351
Raw,2.62801357e+05,549,351
Raw,1.79647237e+05,550,351
Raw,1.61746522e+05,551,351
Raw,2.86095563e+05,552,351
Raw,2.44249578e+05,553,351
Raw,2.38259685e+05,554,351
Raw,3.92382658e+05,555,351
Raw,1.68612652e+05,556,351
Raw,2.428649e+05,557,351
Raw,2.13996762e+05,559,351
Raw,1.04587814e+05,559,351
Raw,2.760674e+05,560,351
Raw,3.34973114e+05,561,351
Raw,2.50866276e+05,562,351
Raw,2.61342257e+05,563,351
Raw,2.52352308e+05,564,351
Raw,2.27160503e+05,565,351
Raw,2.28125475e+05,566,351
Raw,72278.901,566,351
Raw,2.49855615e+05,567,351
Raw,2.39018459e+05,570,351
Raw,2.17022294e+05,571,351
Raw,1.63395728e+05,573,351
Raw,2.85032924e+05,574,351
Raw,3.23142005e+05,575,351
Raw,2.05717152e+05,576,351
Raw,2.94220876e+05,578,351
Raw,2.21126043e+05,579,351
Raw,1.9796758e+05,580,351
Raw,2.98817381e+05,581,351
Raw,2.8168911e+05,582,351
Raw,2.29440603e+05,583,351
Raw,2.18536297e+05,584,351
Raw,2.43304262e+05,585,351
Raw,2.91339264e+05,586,351
Raw,2.48168452e+05,587,351
Raw,4.71784096e+05,588,351
Raw,2.23552732e+05,589,351
Raw,3.09936481e+05,590,351
Raw,2.76357158e+05,591,351
Raw,2.28150392e+05,592,351
Raw,2.63843797e+05,593,351
Raw,2.36035659e+05,594,351
Raw,3.48177996e+05,596,351
Raw,2.60342742e+05,597,351
Raw,2.64607512e+05,599,351
Raw,2.07597325e+05,600,351
Raw,2.36355719e+05,601,351
Raw,2.32926826e+05,602,351
Raw,1.01914561e+05,602,351
Raw,2.78609888e+05,603,351
Raw,3.07437588e+05,604,351
Raw,2.47978092e+05,605,351
Raw,2.57499712e+05,606,351
Raw,3.09213391e+05,607,351
Raw,1.33860411e+05,608,351
Raw,2.587543e+05,609,351
Raw,2.54948285e+05,610,351
Raw,2.30680476e+05,611,351
Raw,2.44826832e+05,612,351
Raw,2.05868635e+05,613,351
Raw,2.82760338e+05,614,351
Raw,2.37695402e+05,615,351
Raw,2.42387671e+05,616,351
Raw,2.71119937e+05,617,351
Raw,2.20640288e+05,618,351
Raw,2.856498e+05,619,351
Raw,2.25975669e+05,620,351
Raw,2.94309789e+05,621,351
Raw,2.4296694e+05,623,351
Raw,2.18272601e+05,624,351
Raw,2.76088262e+05,625,351
Raw,11053.627,625,351
Raw,2.61739667e+05,626,351
Raw,93659.803,626,351
Raw,3.16191234e+05,627,351
Raw,2.89885515e+05,628,351
Raw,3.18882507e+05,629,351
Raw,2.40456286e+05,630,351
Raw,1.67967844e+05,631,351
Raw,2.41034636e+05,632,351
Raw,2.05204429e+05,633,351
Raw,2.3462396e+05,634,351
Raw,2.44872405e+05,635,351
Raw,1.58872509e+05,636,351
Raw,2.68292421e+05,637,351
Raw,2.38951224e+05,638,351
Raw,2.68673657e+05,639,351
Raw,1.24442955e+05,640,351
Raw,2.03002718e+05,641,351
Raw,1.93977736e+05,642,351
Raw,1.95837966e+05,643,351
Raw,3.24654341e+05,644,351
Raw,3.01395062e+05,645,351
Raw,1.52240544e+05,646,351
Raw,1.84594403e+05,648,351
Raw,2.35932001e+05,649,351
Raw,5.05507004e+05,652,351
Raw,6.3896396e+05,652,351
Raw,3.09916427e+05,653,351
Raw,1.9307888e+05,654,351
Raw,3.05964709e+05,655,351
Raw,2.50852998e+05,656,351
Raw,3.02302972e+05,657,351
Raw,3.81807281e+05,658,351
Raw,2.17115629e+05,659,351
Raw,2.26623693e+05,660,351
Raw,2.24735828e+05,661,351
Raw,3.92157551e+05,662,351
Raw,2.06106522e+05,663,351
Raw,2.82510544e+05,664,351
Raw,2.61973315e+05,665,351
Raw,3.14637089e+05,666,351
Raw,2.66703329e+05,667,351
Raw,2.26556051e+05,668,351
Raw,2.62524514e+05,669,351
Raw,52385.263,670,351
Raw,1.72529589e+05,671,351
Raw,2.09726201e+05,672,351
Raw,2.25478098e+05,673,351
Raw,1.79989541e+05,675,351
Raw,2.78630568e+05,676,351
Raw,2.61963539e+05,677,351
Raw,1.2226135e+05,678,351
Raw,1.45560973e+05,679,351
Raw,3.90002791e+05,680,351
Raw,2.44764323e+05,681,351
Raw,2.56733e+05,681,351
Raw,1.11835004e+05,681,351
Raw,3.0481256e+05,682,351
Raw,2.48217497e+05,683,351
Raw,2.22767985e+05,684,351
Raw,2.49003046e+05,685,351
Raw,1.4791455e+05,686,351
Raw,2.32411014e+05,688,351
Raw,3.15671378e+05,689,351
Raw,2.03827459e+05,690,351
Raw,2.32539699e+05,691,351
Raw,2.82520098e+05,692,351
Raw,2.68142901e+05,693,351
Raw,2.55086267e+05,694,351
Raw,3.99421236e+05,695,351
Raw,4.31607927e+05,696,351
Raw,2.83935053e+05,697,351
Raw,2.76631914e+05,698,351
Raw,2.55539663e+05,699,351
Raw,1.25797642e+05,700,351
Raw,2.1419609e+05,701,351
Raw,2.29237666e+05,702,351
Raw,2.51132257e+05,703,351
Raw,3.86371072e+05,704,351
Raw,2.8066238e+05,705,351
Raw,2.51767536e+05,706,351
Raw,2.66330477e+05,707,351
Raw,2.5372471e+05,708,351
Raw,2.38734702e+05,709,351
Raw,2.71573165e+05,710,351
Raw,2.55708207e+05,711,351
Raw,2.42722959e+05,713,351
Raw,2.49957358e+05,714,351
Raw,2.21972234e+05,715,351
Raw,2.28290144e+05,716,351
Raw,2.99894075e+05,717,351
Raw,1.82218111e+05,718,351
Raw,2.54221865e+05,719,351
Raw,3.68116675e+05,720,351
Raw,2.43788219e+05,721,351
Raw,2.52980493e+05,722,351
Raw,4.91758035e+05,723,351
Raw,2.50568544e+05,724,351
Raw,2.84493384e+05,725,351
Raw,2.64674075e+05,727,351
Raw,2.40371002e+05,728,351
Raw,3.36799216e+05,729,351
Raw,2.48284501e+05,731,351
Raw,4.37279261e+05,732,351
Raw,2.79672528e+05,733,351
Raw,3.14842551e+05,734,351
Raw,2.54942422e+05,735,351
Raw,2.79054142e+05,736,351
Raw,3.06293346e+05,738,351
Raw,1.75692842e+05,739,351
Raw,34072.195,740,351
Raw,7.23766676e+05,741,351
Raw,3.04358845e+05,742,351
Raw,25104.278,742,351
Raw,2.34155259e+05,743,351
Raw,2.07004848e+05,744,351
Raw,2.8238402e+05,745,351
Raw,2.79853114e+05,746,351
Raw,2.6331375e+05,747,351
Raw,2.57005288e+05,748,351
Raw,1.81144411e+05,749,351
Raw,2.19675341e+05,751,351
Raw,63487.227,751,351
Raw,2.38928104e+05,752,351
Raw,2.19535881e+05,753,351
Raw,1.77485758e+05,754,351
Raw,2.61348501e+05,755,351
Raw,1.98217913e+05,756,351
Raw,1.14217998e+05,757,351
Raw,74497.796,757,351
Raw,2.73148631e+05,758,351
Raw,2.43968549e+05,759,351
Raw,2.91199968e+05,761,351
Raw,2.51268175e+05,762,351
Raw,2.60845496e+05,764,351
Raw,2.82518409e+05,765,351
Raw,2.71228719e+05,766,351
Raw,2.55434816e+05,767,351
Raw,3.4060603e+05,769,351
Raw,2.2578836e+05,770,351
Raw,2.92162124e+05,771,351
Raw,4.93662797e+05,772,351
Raw,2.2875737e+05,773,351
Raw,1.88120719e+05,774,351
Raw,2.35834288e+05,775,351
Raw,2.15005978e+05,776,351
Raw,2.30652648e+05,777,351
Raw,2.47518555e+05,778,351
Raw,2.66889347e+05,779,351
Raw,1.90862213e+05,780,351
Raw,5.33460504e+05,781,351
Raw,1.38847021e+05,781,351
Raw,2.75279556e+05,782,351
Raw,1.80466343e+05,783,351
Raw,1.86481666e+05,784,351
Raw,18635.401,785,351
Raw,1.86369036e+05,785,351
Raw,3.67015351e+05,786,351
Raw,2.13867118e+05,787,351
Raw,2.48826605e+05,788,351
Raw,2.50879539e+05,789,351
Raw,1.95255585e+05,790,351
Raw,2.20937289e+05,791,351
Raw,2.75955078e+05,792,351
Raw,2.40486669e+05,793,351
Raw,2.68467803e+05,794,351
Raw,2.56899469e+05,795,351
Raw,2.57964874e+05,796,351
Raw,2.31629966e+05,797,351
Raw,2.49817712e+05,798,351
Raw,5792.8517,798,351
Raw,16365.992,798,351
Raw,2.04003955e+05,799,351
Raw,2.68924739e+05,800,351
Raw,2.63148011e+05,801,351
Raw,2.44484045e+05,802,351
Raw,2.56840655e+05,803,351
Raw,3.29818161e+05,804,351
Raw,1.16108995e+05,805,351
Raw,1.78196718e+05,806,351
Raw,3.0150408e+05,807,351
Raw,2.2903155e+05,808,351
Raw,2.70142981e+05,809,351
Raw,2.94832758e+05,810,351
Raw,1.8781393e+05,811,351
Raw,1.88292386e+05,812,351
Raw,1.28393198e+05,813,351
Raw,2.7798659e+05,814,351
Raw,3.62175735e+05,815,351
Raw,2.67443131e+05,816,351
Raw,2.91114406e+05,817,351
Raw,2.12858747e+05,818,351
Raw,3.49330061e+05,819,351
Raw,3.01257516e+05,820,351
Raw,2.05428501e+05,821,351
Raw,2.25684361e+05,822,351
Raw,2.88893079e+05,823,351
Raw,2.30844413e+05,824,351
Raw,3.06323903e+05,826,351
Raw,2.40087041e+05,827,351
Raw,88142.042,828,351
Raw,2.08306157e+05,829,351
Raw,3.07728177e+05,830,351
Raw,1.98163655e+05,831,351
Raw,3.36498681e+05,832,351
Raw,3.12253444e+05,833,351
Raw,1.81010395e+05,834,351
Raw,1.93691727e+05,835,351
Raw,2.20496395e+05,836,351
Raw,1.470211e+05,837,351
Raw,2.22768842e+05,838,351
Raw,2.41922812e+05,839,351
Raw,2.62914393e+05,841,351
Raw,2.45570517e+05,842,351
Raw,1.88200127e+05,843,351
Raw,2.69222827e+05,845,351
Raw,1.21990681e+05,847,351
Raw,95267.912,847,351
Raw,2.43948451e+05,849,351
Raw,31885.793,849,351
Raw,2.62808989e+05,850,351
Raw,2.82088006e+05,851,351
Raw,2.44882969e+05,852,351
Raw,2.65685799e+05,853,351
Raw,2.79088304e+05,854,351
Raw,2.34474728e+05,855,351
Raw,1.16463713e+05,856,351
Raw,2.25983254e+05,857,351
Raw,1.8772216e+05,858,351
Raw,2.66206843e+05,859,351
Raw,2.55568129e+05,860,351
Raw,2.526996e+05,861,351
Raw,85232.602,862,351
Raw,1.6792947e+05,862,351
Raw,2.93131419e+05,863,351
Raw,2.66183666e+05,864,351
Raw,2.89353801e+05,865,351
Raw,2.71659474e+05,866,351
Raw,2.55199727e+05,867,351
Raw,2.26833563e+05,868,351
Raw,2.92356946e+05,869,351
Raw,5.89366999e+05,870,351
Raw,2.49873021e+05,871,351
Raw,2.52974024e+05,872,351
Raw,3.08242941e+05,873,351
Raw,3.78457196e+05,874,351
Raw,2.74996928e+05,875,351
Raw,1.9270822e+05,876,351
Raw,2.28835745e+05,877,351
Raw,2.80071102e+05,878,351
Raw,1.47797309e+05,879,351
Raw,3.85918091e+05,880,351
Raw,2.47822337e+05,881,351
Raw,2.26773379e+05,882,351
Raw,3.03141078e+05,883,351
Raw,2.66127982e+05,884,351
Raw,2.39188421e+05,885,351
Raw,2.35182192e+05,886,351
Raw,2.41478742e+05,887,351
Raw,4.41231701e+05,888,351
Raw,2.66649858e+05,889,351
Raw,44701.93,889,351
Raw,1.90845289e+05,890,351
Raw,2.27068051e+05,891,351
Raw,3.23425653e+05,892,351
Raw,2.26281149e+05,893,351
Raw,2.65711922e+05,894,351
Raw,2.50236852e+05,895,351
Raw,2.21440304e+05,895,351
Raw,1.31574065e+05,896,351
Raw,2.59189835e+05,897,351
Raw,2.64098421e+05,898,351
Raw,1.98654286e+05,899,351
Raw,3.24792397e+05,900,351
Raw,2.67868371e+05,901,351
Raw,2.89664567e+05,902,351
Raw,2.81542098e+05,903,351
Raw,2.81310448e+05,904,351
Raw,2.01984059e+05,905,351
Raw,3.27063862e+05,906,351
Raw,2.71200721e+05,907,351
Raw,2.51593062e+05,908,351
Raw,1.94895025e+05,909,351
Raw,2.99114879e+05,910,351
Raw,2.91357898e+05,911,351
Raw,2.37620896e+05,912,351
Raw,1.18646895e+05,913,351
Raw,2.90590884e+05,914,351
Raw,96400.363,915,351
Raw,4.05413469e+05,916,351
Raw,1.53304699e+05,917,351
Raw,2.64406586e+05,918,351
Raw,2.76855642e+05,919,351
Raw,2.39534849e+05,920,351
Raw,3.6767022e+05,921,351
Raw,2.27213667e+05,922,351
Raw,2.81171783e+05,923,351
Raw,3.06890116e+05,925,351
Raw,2.97909996e+05,926,351
Raw,2.71836295e+05,927,351
Raw,2.56961054e+05,928,351
Raw,2.36396389e+05,929,351
Raw,3.13153857e+05,930,351
Raw,2.92521046e+05,931,351
Raw,2.23447603e+05,932,351
Raw,2.22824071e+05,933,351
Raw,2.48047997e+05,934,351
Raw,2.36994366e+05,935,351
Raw,2.59045891e+05,936,351
Raw,2.09560514e+05,937,351
Raw,2.19637931e+05,938,351
Raw,56829.67,938,351
Raw,2.68549106e+05,939,351
Raw,2.73665439e+05,940,351
Raw,2.64544249e+05,941,351
Raw,2.78268178e+05,942,351
Raw,2.72136636e+05,943,351
Raw,2.62771586e+05,944,351
Raw,2.60828342e+05,945,351
Raw,2.38571236e+05,946,351
Raw,1.87951427e+05,947,351
Raw,2.4927011e+05,948,351
Raw,2.74540552e+05,949,351
Raw,2.55693948e+05,949,351
Raw,2.12546663e+05,950,351
Raw,2.25191954e+05,951,351
Raw,2.11437565e+05,952,351
Raw,2.1880083e+05,953,351
Raw,2.47838172e+05,955,351
Raw,1.12688294e+05,956,351
Raw,2.39394118e+05,957,351
Raw,2.02552473e+05,958,351
Raw,2.39317475e+05,959,351
Raw,1.33656624e+05,960,351
Raw,2.32171223e+05,961,351
Raw,2.55996667e+05,962,351
Raw,1.86729842e+05,963,351
Raw,3.48330052e+05,964,351
Raw,2.61897557e+05,965,351
Raw,2.98346145e+05,966,351
Raw,2.89016985e+05,967,351
Raw,2.72242355e+05,968,351
Raw,2.5720307e+05,969,351
Raw,2.89151564e+05,970,351
Raw,4.3426396e+05,971,351
Raw,2.53042953e+05,972,351
Raw,2.32417628e+05,973,351
Raw,2.42209827e+05,974,351
Raw,2.53426782e+05,975,351
Raw,7.51739397e+05,976,351
Raw,3.63700372e+05,976,351
Raw,1.86056355e+05,977,351
Raw,2.35082006e+05,978,351
Raw,3740.7199,979,351
Raw,2.8678562e+05,980,351
Raw,2.01079496e+05,980,351
Raw,5.51956622e+05,981,351
Raw,3.42769074e+05,982,351
Raw,2.93931667e+05,983,351
Raw,2.76777663e+05,984,351
Raw,2.18406499e+05,985,351
Raw,1.91774438e+05,986,351
Raw,1.45427757e+05,988,351
Raw,1.49313247e+05,989,351
Raw,2.47391764e+05,991,351
Raw,2.77967344e+05,992,351
Raw,2.31816667e+05,995,351
Raw,5.08401735e+05,996,351
Raw,3.77135077e+05,997,351
Raw,4.05528749e+05,998,351
Raw,2.21141077e+05,998,351
Raw,2.88079995e+05,999,351
Raw,1.91801105e+05,1000,351
Raw,2.39225898e+05,1001,351
Raw,5.35356685e+05,1002,351
Raw,2.79746857e+05,1003,351
Raw,2.89663459e+05,1004,351
Raw,30697.844,1004,351
Raw,2.10668903e+05,1005,351
Raw,3.72916163e+05,1007,351
Raw,71017.241,1007,351
Raw,2.04380638e+05,1009,351
Raw,2.06910955e+05,1010,351
Raw,2.33367374e+05,1011,351
Raw,2.36637974e+05,1012,351
Raw,2.21664526e+05,1013,351
Raw,2.55972834e+05,1014,351
Raw,2.73667263e+05,1015,351
Raw,2.39159902e+05,1016,351
Raw,1.37073608e+05,1017,351
Raw,2.59933686e+05,1018,351
Raw,3.15201988e+05,1019,351
Raw,2.1789824e+05,1020,351
Raw,2.90040123e+05,1022,351
Raw,2.89109272e+05,1023,351
Raw,1.47420514e+05,1024,351
Raw,1.81837039e+05,1025,351
Raw,2.9219504e+05,1026,351
Raw,3.09457065e+05,1027,351
Raw,2.15430845e+05,1028,351
Raw,2.21875889e+05,1029,351
Raw,3.24939218e+05,1030,351
Raw,1.67762682e+05,1031,351
Raw,1.98773646e+05,1032,351
Raw,19185.348,1033,351
Raw,14927.123,1033,351
Raw,2.9859196e+05,1034,351
Raw,2.99056497e+05,1035,351
Raw,2.87502227e+05,1036,351
Raw,2.68034803e+05,1037,351
Raw,2.40670421e+05,1039,351
Raw,2.43405542e+05,1040,351
Raw,2.790093e+05,1041,351
Raw,3.50083572e+05,1042,351
Raw,2.6196205e+05,1043,351
Raw,2.96592806e+05,1045,351
Raw,2.56547254e+05,1046,351
Raw,3.2359711e+05,1047,351
Raw,2.47129821e+05,1048,351
Raw,2.86422856e+05,1049,351
Raw,2.47944171e+05,1050,351
Raw,2.69024596e+05,1051,351
Raw,2.18710786e+05,1052,351
Raw,3.09869492e+05,1053,351
Raw,2.31730461e+05,1054,351
Raw,2.46107626e+05,1055,351
Raw,2.93853134e+05,1056,351
Raw,2.68455702e+05,1057,351
Raw,3.04075816e+05,1058,351
Raw,2.92248917e+05,1059,351
Raw,2.62122591e+05,1060,351
Raw,2.236248e+05,1061,351
Raw,5.17312441e+05,1063,351
Raw,1.13942919e+05,1064,351
Raw,2.23435172e+05,1065,351
Raw,2.47011011e+05,1066,351
Raw,3.02950035e+05,1067,351
Raw,3.17301203e+05,1068,351
Raw,2.269055e+05,1069,351
Raw,2.73770996e+05,1070,351
Raw,2.07758739e+05,1071,351
Raw,3.53307637e+05,1072,351
Raw,2.95589181e+05,1073,351
Raw,2.56655771e+05,1075,351
Raw,2.21620524e+05,1076,351
Raw,2.6003262e+05,1077,351
Raw,1.59644727e+05,1078,351
Raw,2.19829615e+05,1079,351
Raw,2.66022597e+05,1080,351
Raw,2.04218446e+05,1081,351
Raw,2.47442246e+05,1082,351
Raw,2.61286133e+05,1083,351
Raw,23507.832,1084,351
Raw,1.77563106e+05,1085,351
Raw,2.44912662e+05,1086,351
Raw,2.98935571e+05,1088,351
Raw,2.77629661e+05,1089,351
Raw,2.44348185e+05,1090,351
Raw,3.48208094e+05,1091,351
Raw,3.09894388e+05,1092,351
Raw,2.24858005e+05,1094,351
Raw,3.18347498e+05,1095,351
Raw,2.14363732e+05,1096,351
Raw,2.31849213e+05,1097,351
Raw,2.23972485e+05,1098,351
Raw,3.30019707e+05,1099,351
Raw,2.51436159e+05,1100,351
Raw,2.26846708e+05,1101,351
Raw,2.35277535e+05,1102,351
Raw,5.58575469e+05,1103,351
Raw,2.77737686e+05,1104,351
Raw,2.40735799e+05,1105,351
Raw,1.93899554e+05,1106,351
Raw,1.18121671e+05,1108,351
Raw,2.31713789e+05,1109,351
Raw,2.92840684e+05,1110,351
Raw,2.93700556e+05,1111,351
Raw,1.07617006e+05,1112,351
Raw,2.94902762e+05,1113,351
Raw,20711.059,1113,351
Raw,2.99688954e+05,1115,351
Raw,1.98700849e+05,1116,351
Raw,2.68836008e+05,1117,351
Raw,1.90382641e+05,1118,351
Raw,2.42722827e+05,1119,351
Raw,2.5162857e+05,1120,351
Raw,2.84659219e+05,1121,351
Raw,3.49680079e+05,1122,351
Raw,2.72127127e+05,1123,351
Raw,2.30276815e+05,1124,351
Raw,5.8601849e+05,1125,351
Raw,2.04372827e+05,1126,351
Raw,2.74976769e+05,1128,351
Raw,2.33912355e+05,1129,351
Raw,2.51918304e+05,1130,351
Raw,2.29225486e+05,1131,351
Raw,3.16932877e+05,1132,351
Raw,3.40421449e+05,1134,351
Raw,2.80978001e+05,1135,351
Raw,3.20768233e+05,1136,351
Raw,5.28554433e+05,1137,351
Raw,3.79606803e+05,1138,351
Raw,2.86564435e+05,1139,351
Raw,2.68198911e+05,1140,351
Raw,2.40290117e+05,1141,351
Raw,85339.848,1141,351
Raw,2.50909538e+05,1142,351
Raw,6.15668274e+05,1143,351
Raw,2.08710347e+05,1144,351
Raw,2.54369086e+05,1145,351
Raw,2.97869479e+05,1146,351
Raw,5.59491872e+05,1147,351
Raw,2.20855708e+05,1149,351
Raw,1.64147855e+05,1150,351
Raw,3.72991535e+05,1151,351
Raw,1.32820918e+05,1152,351
Raw,2.64589633e+05,1153,351
Raw,2.92639866e+05,1154,351
Raw,1.13958074e+05,1155,351
Raw,2.73843218e+05,1156,351
Raw,1.86327361e+05,1157,351
Raw,1.29068824e+05,1158,351
Raw,2.05814611e+05,1158,351
Raw,2.84043538e+05,1159,351
Raw,2.76927122e+05,1160,351
Raw,2.83379328e+05,1161,351
Raw,44067.009,1161,351
Raw,2.68352796e+05,1162,351
Raw,2.54305098e+05,1163,351
Raw,2.32661189e+05,1164,351
Raw,1.79074765e+05,1165,351
Raw,2.68963797e+05,1166,351
Raw,2.49382088e+05,1167,351
Raw,3.07550609e+05,1168,351
Raw,2.42230813e+05,1171,351
Raw,1.82944908e+05,1172,351
Raw,2.3662766e+05,1173,351
Raw,2.92458584e+05,1174,351
Raw,2.90646986e+05,1175,351
Raw,3.26091827e+05,1176,351
Raw,3.48636465e+05,1177,351
Raw,2.96510649e+05,1178,351
Raw,2.5397689e+05,1179,351
Raw,3.10618931e+05,1180,351
Raw,1.75147282e+05,1181,351
Raw,2.36648034e+05,1183,351
Raw,2.33433509e+05,1184,351
Raw,2.54189626e+05,1185,351
Raw,2.26213471e+05,1188,351
Raw,2.19262909e+05,1189,351
Raw,3.02806742e+05,1190,351
Raw,1.77242621e+05,1191,351
Raw,2.64265274e+05,1192,351
Raw,2.74451838e+05,1193,351
Raw,2.0807741e+05,1194,351
Raw,2.28401806e+05,1195,351
Raw,5.14310535e+05,1197,351
Raw,1.30094268e+05,1198,351
Raw,2.91632485e+05,1199,351
Raw,2.98287857e+05,1200,351
Raw,2.72765631e+05,1201,351
Raw,36884.493,1201,351
Raw,2.00968598e+05,1202,351
Raw,3.23590617e+05,1203,351
Raw,1.90804266e+05,1205,351
Raw,3.04622357e+05,1206,351
Raw,4.89880952e+05,1207,351
Raw,3.33304284e+05,1208,351
Raw,4.43977078e+05,1209,351
Raw,3.25562565e+05,1210,351
Raw,45533.917,1210,351
Raw,2.58952401e+05,1211,351
Raw,1.18875897e+05,1211,351
Raw,2.58731611e+05,1212,351
Raw,2.45003888e+05,1213,351
Raw,3.95643177e+05,1214,351
Raw,1.75097279e+05,1215,351
Raw,2.72768152e+05,1216,351
Raw,2.35982048e+05,1217,351
Raw,4.61560958e+05,1218,351
Raw,1.62864315e+05,1219,351
Raw,2.05051777e+05,1220,351
Raw,9051.6168,1221,351
Raw,3.01324064e+05,1222,351
Raw,2.89867034e+05,1223,351
Raw,2.21708964e+05,1224,351
Raw,2.67976064e+05,1225,351
Raw,5.04365478e+05,1226,351
Raw,1.67396583e+05,1228,351
Raw,1.52775211e+05,1229,351
Raw,2.38207353e+05,1230,351
Raw,63144.937,1230,351
Raw,2.69725591e+05,1231,351
Raw,1.81978851e+05,1232,351
Raw,2.87236648e+05,1233,351
Raw,17230.407,1233,351
Raw,2.10675974e+05,1234,351
Raw,2.73744989e+05,1235,351
Raw,2.6248277e+05,1237,351
Raw,1.87104837e+05,1238,351
Raw,2.43454067e+05,1239,351
Raw,2.03073568e+05,1240,351
Raw,2.20405902e+05,1241,351
Raw,2.41946504e+05,1242,351
Raw,2.95855729e+05,1243,351
Raw,2.60687417e+05,1244,351
Raw,2.54520633e+05,1245,351
Raw,7308.09,1245,351
Raw,2.1555927e+05,1246,351
Raw,2.9986847e+05,1247,351
Raw,2.67242659e+05,1248,351
Raw,2.5911396e+05,1249,351
Raw,54418.213,1250,351
Raw,3.21119351e+05,1251,351
Raw,3.06600573e+05,1253,351
Raw,2.48261591e+05,1254,351
Raw,4.06115256e+05,1255,351
Raw,2.37610235e+05,1256,351
Raw,2.0596805e+05,1257,351
Raw,2.38870074e+05,1258,351
Raw,2.14221976e+05,1259,351
Raw,2.72902441e+05,1260,351
Raw,7.38595867e+05,1261,351
Raw,2.9484434e+05,1262,351
Raw,2.53178419e+05,1263,351
Raw,1.70357641e+05,1264,351
Raw,2.48971764e+05,1265,351
Raw,71682.279,1265,351
Raw,2.53041275e+05,1266,351
Raw,1.68358014e+05,1268,351
Raw,2.63613747e+05,1269,351
Raw,3.66981285e+05,1270,351
Raw,2.1266239e+05,1271,351
Raw,2.67155776e+05,1272,351
Raw,2.58623345e+05,1273,351
Raw,2.49635815e+05,1274,351
Raw,2.41156857e+05,1275,351
Raw,2.61792888e+05,1276,351
Raw,1.70622949e+05,1277,351
Raw,2.39558362e+05,1278,351
Raw,3.15861515e+05,1279,351
Raw,2.53067637e+05,1280,351
Raw,2.16249011e+05,1281,351
Raw,2.18378275e+05,1282,351
Raw,2.92397458e+05,1283,351
Raw,3.62924678e+05,1284,351
Raw,2.59396522e+05,1285,351
Raw,2.71249947e+05,1286,351
Raw,2.79169046e+05,1287,351
Raw,2.81716674e+05,1288,351
Raw,2.4750576e+05,1289,351
Raw,86443.891,1290,351
Raw,2.73778091e+05,1291,351
Raw,2.60552148e+05,1292,351
Raw,2.32895838e+05,1293,351
Raw,2.51629694e+05,1294,351
Raw,4.71688961e+05,1296,351
Raw,3.17574817e+05,1297,351
Raw,2.59029731e+05,1298,351
Raw,2.37319527e+05,1299,351
Raw,2.81723161e+05,1300,351
Raw,2.619944e+05,1301,351
Raw,2.35805972e+05,1302,351
Raw,4.51982912e+05,1303,351
Raw,3.17323324e+05,1304,351
Raw,3.01793428e+05,1305,351
Raw,2.78266596e+05,1306,351
Raw,2.23189953e+05,1307,351
Raw,1.94439564e+05,1308,351
Raw,48999.702,1310,351
Raw,3.51391953e+05,1311,351
Raw,3.01227211e+05,1312,351
Raw,2.69235591e+05,1313,351
Raw,3.20831021e+05,1314,351
Raw,2.82993744e+05,1315,351
Raw,2.5434185e+05,1316,351
Raw,2.88613704e+05,1317,351
Raw,2.92487729e+05,1318,351
Raw,2.68186965e+05,1319,351
Raw,2.96699833e+05,1320,351
Raw,2.42263475e+05,1321,351
Raw,2.90457348e+05,1322,351
Raw,1.38767971e+05,1323,351
Raw,2.54948302e+05,1324,351
Raw,4.49206485e+05,1325,351
Raw,3.31473764e+05,1326,351
Raw,4.84166012e+05,1327,351
Raw,1.82298838e+05,1328,351
Raw,2.33686517e+05,1329,351
Raw,1.64860653e+05,1330,351
Raw,2.57566554e+05,1332,351
Raw,2.91526829e+05,1333,351
Raw,3.99684771e+05,1334,351
Raw,2.9125385e+05,1335,351
Raw,2.4883735e+05,1336,351
Raw,2.04944199e+05,1338,351
Raw,1.76356242e+05,1339,351
Raw,2.87646052e+05,1341,351
Raw,2.88909262e+05,1342,351
Raw,1.87429194e+05,1343,351
Raw,2.37351153e+05,1344,351
Raw,3.15147216e+05,1345,351
Raw,1.41210656e+05,1346,351
Raw,2.71939185e+05,1346,351
Raw,2.57139253e+05,1347,351
Raw,2.26723394e+05,1348,351
Raw,2.19725518e+05,1349,351
Raw,2.70281719e+05,1350,351
Raw,4.82401206e+05,1351,351
Raw,2.3139117e+05,1352,351
Raw,2.26362191e+05,1353,351
Raw,3.02976589e+05,1354,351
Raw,1.70290439e+05,1355,351
Raw,2.54864153e+05,1356,351
Raw,3.10765749e+05,1357,351
Raw,3.37798135e+05,1358,351
Raw,4.55097186e+05,1359,351
Raw,2.59034328e+05,1360,351
Raw,2.51926453e+05,1361,351
Raw,2.49998954e+05,1362,351
Raw,1.75473691e+05,1363,351
Raw,2.70631786e+05,1364,351
Raw,2.90225464e+05,1365,351
Raw,2.66527341e+05,1366,351
Raw,2.95709356e+05,1368,351
Raw,2.23075373e+05,1369,351
Raw,3.26820584e+05,1372,351
Raw,2.91131087e+05,1373,351
Raw,1.9068627e+05,1375,351
Raw,2.85883689e+05,1376,351
Raw,2.92461209e+05,1377,351
Raw,2.36590903e+05,1378,351
Raw,2.89231907e+05,1379,351
Raw,2.77883448e+05,1380,351
Raw,2.70601422e+05,1381,351
Raw,2.48640631e+05,1382,351
Raw,1.56080794e+05,1383,351
Raw,2.90554127e+05,1384,351
Raw,2.32348992e+05,1386,351
Raw,2.8542686e+05,1387,351
Raw,2.76466718e+05,1388,351
Raw,4.19333669e+05,1389,351
Raw,3.39624131e+05,1390,351
Raw,4.64554419e+05,1392,351
Raw,2.61051277e+05,1393,351
Raw,2.48056416e+05,1394,351
Raw,1.99990139e+05,1395,351
Raw,3.11210142e+05,1396,351
Raw,2.95367328e+05,1398,351
Raw,19646.53,1398,351
Raw,1.84497411e+05,1399,351
Raw,2.88295914e+05,1400,351
Raw,2.53666714e+05,1401,351
Raw,2.77723413e+05,1402,351
Raw,2.53096798e+05,1403,351
Raw,1.46978855e+05,1404,351
Raw,2.44419164e+05,1405,351
Raw,2.09684103e+05,1406,351
Raw,3.42414758e+05,1407,351
Raw,2.67290945e+05,1408,351
Raw,2.33950336e+05,1409,351
Raw,2.90518743e+05,1410,351
Raw,2.39292992e+05,1411,351
Raw,2.92510426e+05,1412,351
Raw,1.90885229e+05,1413,351
Raw,3.9654495e+05,1414,351
Raw,1.45124322e+05,1415,351
Raw,1.45843263e+05,1416,351
Raw,2.5967994e+05,1417,351
Raw,2.91782853e+05,1418,351
Raw,3.1943738e+05,1419,351
Raw,3.16592646e+05,1420,351
Raw,2.03653972e+05,1421,351
Raw,2.24753496e+05,1422,351
Raw,2.22415776e+05,1423,351
Raw,2.02283737e+05,1424,351
Raw,2.06484459e+05,1425,351
Raw,2.85278248e+05,1426,351
Raw,2.61113436e+05,1427,351
Raw,4.16175481e+05,1429,351
Raw,2.64922256e+05,1430,351
Raw,2.67019845e+05,1432,351
Raw,2.16670302e+05,1433,351
Raw,3.35906893e+05,1434,351
Raw,2.95335521e+05,1435,351
Raw,2.51191726e+05,1436,351
Raw,2.63930226e+05,1437,351
Raw,2.72161545e+05,1439,351
Raw,3.33729368e+05,1440,351
Raw,1.70693636e+05,1441,351
Raw,2.14252702e+05,1442,351
Raw,2.72367619e+05,1443,351
Raw,1.38345764e+05,1444,351
Raw,3.56253431e+05,1445,351
Raw,2.08907408e+05,1446,351
Raw,3.46819609e+05,1447,351
Raw,46496.573,1448,351
Raw,23984.128,1449,351
Raw,2.46456956e+05,1451,351
Raw,2.56281706e+05,1453,351
Raw,2.2710002e+05,1454,351
Raw,2.83961719e+05,1455,351
Raw,2.33064787e+05,1456,351
Raw,2.78933995e+05,1457,351
Raw,2.69950347e+05,1458,351
Raw,2.3143385e+05,1460,351
Raw,2.89228167e+05,1462,351
Raw,2.32481866e+05,1463,351
Raw,2.30311459e+05,1464,351
Raw,2.72983832e+05,1465,351
Raw,2.63605543e+05,1466,351
Raw,2.68524348e+05,1467,351
Raw,1.93927632e+05,1468,351
Raw,5.11550608e+05,1469,351
Raw,1.40890227e+05,1470,351
Raw,2.46652958e+05,1471,351
Raw,3.54565609e+05,1472,351
Raw,2.86071522e+05,1473,351
Raw,2.08169103e+05,1474,351
Raw,2.61275434e+05,1476,351
Raw,3.12876404e+05,1477,351
Raw,2.42340614e+05,1478,351
Raw,3.06139706e+05,1479,351
Raw,2.65726162e+05,1480,351
Raw,3.18031717e+05,1481,351
Raw,1.06478225e+05,1482,351
Raw,2.37887319e+05,1482,351
Raw,3.2720494e+05,1483,351
Raw,2.4269354e+05,1484,351
Raw,2.55333672e+05,1486,351
Raw,2.51916539e+05,1487,351
Raw,2.26657991e+05,1488,351
Raw,2.18900359e+05,1489,351
Raw,1.70697977e+05,1490,351
Raw,2.66978382e+05,1491,351
Raw,2.75356749e+05,1492,351
Raw,2.75401762e+05,1493,351
Raw,2.50931585e+05,1494,351
Raw,4.62023734e+05,1495,351
Raw,2.52849955e+05,1496,351
Raw,2.81049793e+05,1497,351
Raw,3.16772373e+05,1498,351
Raw,4.97057579e+05,1499,351
Raw,2.74879562e+05,1500,351
Raw,2.86490707e+05,1501,351
Raw,2.83247306e+05,1502,351
Raw,2.58470837e+05,1503,351
Raw,2.39939302e+05,1504,351
Raw,2.05467663e+05,1505,351
Raw,2.72761031e+05,1506,351
Raw,2.53773407e+05,1507,351
Raw,4.18344072e+05,1508,351
Raw,2.67500317e+05,1509,351
Raw,3.10718885e+05,1510,351
Raw,2.40015639e+05,1512,351
Raw,2.0814384e+05,1513,351
Raw,1.97848367e+05,1514,351
Raw,3.23864428e+05,1515,351
Raw,2.97158602e+05,1516,351
Raw,2.89907523e+05,1517,351
Raw,3.86194872e+05,1518,351
Raw,2.27935044e+05,1519,351
Raw,2.21699473e+05,1520,351
Raw,2.17529068e+05,1521,351
Raw,2.94900017e+05,1522,351
Raw,23512.695,1522,351
Raw,4.83696831e+05,1523,351
Raw,5.45600436e+05,1525,351
Raw,2.92916589e+05,1526,351
Raw,1.62696174e+05,1527,351
Raw,1.18444655e+05,1528,351
Raw,1.90634837e+05,1529,351
Raw,2.33001495e+05,1530,351
Raw,2.25449189e+05,1531,351
Raw,2.98886185e+05,1532,351
Raw,3.15305354e+05,1533,351
Raw,2.86707909e+05,1536,351
Raw,3.04893033e+05,1537,351
Raw,2.93364092e+05,1538,351
Raw,2.4447666e+05,1539,351
Raw,4.93748308e+05,1540,351
Raw,1.06578641e+05,1541,351
Raw,4.25655796e+05,1542,351
Raw,1.02594487e+05,1543,351
Raw,2.85017324e+05,1544,351
Raw,2.21197513e+05,1545,351
Raw,90920.82,1546,351
Raw,1.81526695e+05,1546,351
Raw,2.89708186e+05,1547,351
Raw,2.09209877e+05,1548,351
Raw,2.25659002e+05,1549,351
Raw,2.95228251e+05,1550,351
Raw,2.39829508e+05,1551,351
Raw,2.38932394e+05,1552,351
Raw,2.12716836e+05,1553,351
Raw,3.14948616e+05,1554,351
Raw,2.47671204e+05,1555,351
Raw,2.34466896e+05,1555,351
Raw,2.64824838e+05,1556,351
Raw,2.95967776e+05,1557,351
Raw,3.02318307e+05,1558,351
Raw,2.2417507e+05,1559,351
Raw,2.01920507e+05,1560,351
Raw,2.02261738e+05,1561,351
Raw,2.97225233e+05,1562,351
Raw,2.56713288e+05,1563,351
Raw,3.47406427e+05,1564,351
Raw,3.14464241e+05,1565,351
Raw,2.48809289e+05,1566,351
Raw,3.11522401e+05,1567,351
Raw,27716.884,1568,351
Raw,2.62854604e+05,1569,351
Raw,2.36008118e+05,1570,351
Raw,2.27531861e+05,1571,351
Raw,2.52517651e+05,1572,351
Raw,3.4440638e+05,1573,351
Raw,2.82243786e+05,1574,351
Raw,2.76756842e+05,1575,351
Raw,2.98149239e+05,1576,351
Raw,3.1456938e+05,1577,351
Raw,3.33845285e+05,1578,351
Raw,1.59831749e+05,1579,351
Raw,2.44679223e+05,1581,351
Raw,2.07267628e+05,1582,351
Raw,3.65897201e+05,1583,351
Raw,2.21898965e+05,1584,351
Raw,2.79928261e+05,1585,351
Raw,2.45638155e+05,1586,351
Raw,2.44409225e+05,1587,351
Raw,29836.046,1588,351
Raw,2.69596159e+05,1588,351
Raw,2.86881771e+05,1589,351
Raw,2.46607392e+05,1590,351
Raw,2.54069814e+05,1591,351
Raw,2.28253309e+05,1593,351
Raw,4.6332019e+05,1594,351
Raw,1.15777208e+05,1595,351
Raw,3.16118175e+05,1597,351
Raw,44511.178,1598,351
Raw,3.95481118e+05,1600,351
Raw,2.43645935e+05,1602,351
Raw,2.29721309e+05,1603,351
Raw,2.68676698e+05,1604,351
Raw,2.80506986e+05,1605,351
Raw,3.14890823e+05,1606,351
Raw,2.53959338e+05,1608,351
Raw,3.08594726e+05,1609,351
Raw,1.95378426e+05,1610,351
Raw,2.77437089e+05,1611,351
Raw,95428.176,1611,351
Raw,2.69193853e+05,1612,351
Raw,2.99098124e+05,1615,351
Raw,2.81383904e+05,1617,351
Raw,2.09397557e+05,1618,351
Raw,2.0751667e+05,1619,351
Raw,2.38620732e+05,1620,351
Raw,3.1616979e+05,1621,351
Raw,2.23502626e+05,1622,351
Raw,2.12292311e+05,1623,351
Raw,39069.541,1624,351
Raw,2.87264159e+05,1625,351
Raw,2.63377155e+05,1626,351
Raw,2.88489599e+05,1627,351
Raw,1.78292429e+05,1628,351
Raw,2.53825936e+05,1629,351
Raw,2.36006981e+05,1630,351
Raw,2.67513832e+05,1631,351
Raw,1.50840484e+05,1632,351
Raw,2.28164155e+05,1633,351
Raw,63815.673,1634,351
Raw,2.73213263e+05,1634,351
Raw,2.46883682e+05,1635,351
Raw,1.60985319e+05,1636,351
Raw,2.06229074e+05,1637,351
Raw,2.87643641e+05,1638,351
Raw,2.57272865e+05,1639,351
Raw,2.67662189e+05,1640,351
Raw,2.19193167e+05,1641,351
Raw,2.27251544e+05,1642,351
Raw,2.06665668e+05,1643,351
Raw,3.03525107e+05,1644,351
Raw,3.22004059e+05,1645,351
Raw,4.37419678e+05,1646,351
Raw,2.61192068e+05,1646,351
Raw,2.49135878e+05,1647,351
Raw,18671.798,1649,351
Raw,2.59083833e+05,1650,351
Raw,2.25156644e+05,1651,351
Raw,3.45527343e+05,1652,351
Raw,2.3339466e+05,1653,351
Raw,2.76629493e+05,1654,351
Raw,1.7890768e+05,1655,351
Raw,2.55213707e+05,1656,351
Raw,1.6192886e+05,1657,351
Raw,1.99926289e+05,1658,351
Raw,3.46436881e+05,1659,351
Raw,2.20724873e+05,1660,351
Raw,2.95611977e+05,1661,351
Raw,2.97625413e+05,1662,351
Raw,2.77242393e+05,1663,351
Raw,4.3415091e+05,1664,351
Raw,2.51399384e+05,1665,351
Raw,3.75350956e+05,1666,351
Raw,1.9206282e+05,1667,351
Raw,2.72999833e+05,1668,351
Raw,2.48358595e+05,1669,351
Raw,22608.01,1669,351
Raw,3.27743431e+05,1670,351
Raw,2.73944698e+05,1671,351
Raw,3.14147433e+05,1672,351
Raw,1.90401697e+05,1673,351
Raw,3.43535483e+05,1674,351
Raw,2.17864063e+05,1675,351
Raw,2.42798499e+05,1676,351
Raw,2.43712507e+05,1677,351
Raw,2.73457497e+05,1678,351
Raw,2.72711237e+05,1679,351
Raw,2.89699531e+05,1680,351
Raw,2.80330307e+05,1681,351
Raw,3.4424981e+05,1682,351
Raw,2.39604653e+05,1683,351
Raw,1.86188932e+05,1684,351
Raw,1.51591349e+05,1685,351
Raw,2.85312436e+05,1686,351
Raw,1.67990365e+05,1687,351
Raw,2.64870547e+05,1688,351
Raw,2.47756846e+05,1689,351
Raw,56011.988,1689,351
Raw,3.06095697e+05,1691,351
Raw,3.23196891e+05,1692,351
Raw,3.3382574e+05,1693,351
Raw,2.40435874e+05,1694,351
Raw,2.66025794e+05,1695,351
Raw,2.55538837e+05,1696,351
Raw,2.04817667e+05,1697,351
Raw,2.34541338e+05,1698,351
Raw,2.69045044e+05,1700,351
Raw,2.64726058e+05,1701,351
Raw,23135.073,1702,351
Raw,80074.835,1702,351
Raw,2.5369688e+05,1703,351
Raw,2.12191452e+05,1704,351
Raw,2.73410564e+05,1706,351
Raw,2.05771968e+05,1707,351
Raw,2.40239361e+05,1708,351
Raw,1.5086526e+05,1709,351
Raw,2.22473079e+05,1710,351
Raw,4.56989067e+05,1711,351
Raw,2.59500151e+05,1712,351
Raw,1.97154804e+05,1714,351
Raw,2.78492726e+05,1715,351
Raw,1.75295759e+05,1716,351
Raw,1.55526913e+05,1717,351
Raw,2.39736606e+05,1718,351
Raw,3.02806058e+05,1719,351
Raw,3.46950872e+05,1720,351
Raw,2.54363611e+05,1721,351
Raw,2.52974404e+05,1722,351
Raw,2.8512398e+05,1723,351
Raw,2.55644715e+05,1724,351
Raw,1.79089613e+05,1725,351
Raw,1.38455027e+05,1726,351
Raw,2.14138475e+05,1728,351
Raw,3.38250404e+05,1729,351
Raw,2.55674363e+05,1730,351
Raw,2.13073476e+05,1731,351
Raw,6.22512759e+05,1732,351
Raw,45697.333,1733,351
Raw,1.54044882e+05,1733,351
Raw,2.51964302e+05,1734,351
Raw,2.87114308e+05,1735,351
Raw,2.70027797e+05,1736,351
Raw,2.34595254e+05,1737,351
Raw,3.37344067e+05,1738,351
Raw,2.60332105e+05,1739,351
Raw,41401.381,1740,351
Raw,2.5658997e+05,1741,351
Raw,3.08768526e+05,1742,351
Raw,2.03859654e+05,1744,351
Raw,2.93970277e+05,1745,351
Raw,2.33209534e+05,1746,351
Raw,1.68121374e+05,1748,351
Raw,2.48385312e+05,1749,351
Raw,3.0208569e+05,1750,351
Raw,1.17086324e+05,1750,351
Raw,3.22959728e+05,1751,351
Raw,2.24671851e+05,1752,351
Raw,4.3638898e+05,1753,351
Raw,2.11860185e+05,1754,351
Raw,2.51242981e+05,1755,351
Raw,2.47701633e+05,1756,351
Raw,2.7056438e+05,1757,351
Raw,4.34914344e+05,1758,351
Raw,2.15938643e+05,1760,351
Raw,4.80917079e+05,1761,351
Raw,2.25532486e+05,1762,351
Raw,2.36526041e+05,1763,351
Raw,2.27109726e+05,1764,351
Raw,2.63258824e+05,1765,351
Raw,2.39485711e+05,1766,351
Raw,2.70745636e+05,1767,351
Raw,2.21778904e+05,1768,351
Raw,2.88352408e+05,1769,351
Raw,5.20243428e+05,1770,351
Raw,3.00541622e+05,1771,351
Raw,2.58324896e+05,1772,351
Raw,2.73107679e+05,1774,351
Raw,1.0404065e+05,1775,351
Raw,2.01807395e+05,1776,351
Raw,3.04435768e+05,1777,351
Raw,2.17486902e+05,1778,351
Raw,2.07147162e+05,1779,351
Raw,2.47192628e+05,1780,351
Raw,1.84032796e+05,1781,351
Raw,2.79133044e+05,1782,351
Raw,2.05221191e+05,1783,351
Raw,24144.904,1784,351
Raw,2.84936872e+05,1784,351
Raw,7.21463233e+05,1785,351
Raw,3.47086934e+05,1786,351
Raw,4.818754e+05,1787,351
Raw,2.45167007e+05,1788,351
Raw,2.35935632e+05,1789,351
Raw,3.31276607e+05,1791,351
Raw,3.12506157e+05,1792,351
Raw,2.44946613e+05,1793,351
Raw,2.84223694e+05,1794,351
Raw,2.96442595e+05,1795,351
Raw,2.82079515e+05,1796,351
Raw,22386.807,1796,351
Raw,2.07090409e+05,1797,351
Raw,2.33352196e+05,1798,351
Raw,5.47850779e+05,1799,351
Raw,2.82854851e+05,1800,351
Raw,4.84605252e+05,1802,351
Raw,6782.7297,1802,351
Raw,1.88219943e+05,1803,351
Raw,2.85758883e+05,1804,351
Raw,2.45082719e+05,1805,351
Raw,15056.267,1805,351
Raw,4.09152304e+05,1806,351
Raw,35698.438,1806,351
Raw,3.09398364e+05,1807,351
Raw,2.63113581e+05,1808,351
Raw,2.23259535e+05,1809,351
Raw,2.01805585e+05,1810,351
Raw,3.44172641e+05,1811,351
Raw,2.18298434e+05,1812,351
Raw,2.49756139e+05,1813,351
Raw,2.67656188e+05,1814,351
Raw,2.08098381e+05,1816,351
Raw,1.31712807e+05,1817,351
Raw,2.85893751e+05,1818,351
Raw,2.35938047e+05,1819,351
Raw,2.89566304e+05,1820,351
Raw,2.41054888e+05,1821,351
Raw,2.24981517e+05,1822,351
Raw,2.58689976e+05,1823,351
Raw,3.3845516e+05,1824,351
Raw,2.68966358e+05,1825,351
Raw,4.27425677e+05,1826,351
Raw,1.25765804e+05,1828,351
Raw,2.51128179e+05,1829,351
Raw,1.23132141e+05,1830,351
Raw,2.71554863e+05,1831,351
Raw,3.01052235e+05,1832,351
Raw,1.72692643e+05,1833,351
Raw,2.31120847e+05,1833,351
Raw,2.46729801e+05,1834,351
Raw,2.54722435e+05,1835,351
Raw,1.7327152e+05,1836,351
Raw,2.2757777e+05,1837,351
Raw,2.13160087e+05,1838,351
Raw,23195.005,1838,351
Raw,2.12598803e+05,1839,351
Raw,2.03516928e+05,1840,351
Raw,2.47978068e+05,1841,351
Raw,2.46623234e+05,1842,351
Raw,2.99994683e+05,1843,351
Raw,2.65169519e+05,1844,351
Raw,1.9482517e+05,1846,351
Raw,2.78550573e+05,1847,351
Raw,2.02443696e+05,1848,351
Raw,2.84600891e+05,1848,351
Raw,2.63469943e+05,1849,351
Raw,2.56516795e+05,1850,351
Raw,2.57996809e+05,1851,351
Raw,1.72365881e+05,1852,351
Raw,2.99694614e+05,1853,351
Raw,3.74722579e+05,1854,351
Raw,2.17941055e+05,1855,351
Raw,2.8409265e+05,1856,351
Raw,3.10406577e+05,1857,351
Raw,1.97018445e+05,1858,351
Raw,3.7342442e+05,1859,351
Raw,2.32884222e+05,1860,351
Raw,1.88690189e+05,1861,351
Raw,2.76279018e+05,1862,351
Raw,1.69104721e+05,1863,351
Raw,2.50988767e+05,1864,351
Raw,1.69009374e+05,1865,351
Raw,4.93031403e+05,1866,351
Raw,3.24820897e+05,1867,351
Raw,2.75590786e+05,1868,351
Raw,2.6509254e+05,1869,351
Raw,2.20800758e+05,1870,351
Raw,3.23205826e+05,1871,351
Raw,1.72045578e+05,1872,351
Raw,2.31697803e+05,1873,351
Raw,2.38539663e+05,1875,351
Raw,2.50716962e+05,1876,351
Raw,2.06730184e+05,1878,351
Raw,2.82163231e+05,1879,351
Raw,40410.493,1880,351
Raw,26657.793,1880,351
Raw,2.71945921e+05,1881,351
Raw,2.65087935e+05,1882,351
Raw,4.02631323e+05,1883,351
Raw,2.60184738e+05,1884,351
Raw,2.39648489e+05,1885,351
Raw,2.44558427e+05,1886,351
Raw,47144.347,1886,351
Raw,4.48104226e+05,1887,351
Raw,3.30806577e+05,1889,351
Raw,2.52032191e+05,1890,351
Raw,2.80905267e+05,1891,351
Raw,2.57198271e+05,1892,351
Raw,1.48636397e+05,1893,351
Raw,1.92598215e+05,1894,351
Raw,2.50265085e+05,1895,351
Raw,2.69979845e+05,1897,351
Raw,2.41392611e+05,1898,351
Raw,3.38688835e+05,1899,351
Raw,1.93961676e+05,1900,351
Raw,19496.077,1901,351
Raw,1.89603442e+05,1902,351
Raw,4.57165757e+05,1903,351
Raw,2.16522831e+05,1904,351
Raw,2.39426337e+05,1905,351
Raw,4.20774267e+05,1906,351
Raw,2.33351296e+05,1907,351
Raw,1.69040756e+05,1908,351
Raw,1.38928236e+05,1909,351
Raw,1.59817667e+05,1910,351
Raw,1.52493632e+05,1911,351
Raw,57411.804,1912,351
Raw,1.96809667e+05,1913,351
Raw,1.70099186e+05,1914,351
Raw,2.18847304e+05,1915,351
Raw,2.39607907e+05,1916,351
Raw,2.27849036e+05,1917,351
Raw,2.27569047e+05,1918,351
Raw,2.40207613e+05,1919,351
Raw,2.83259143e+05,1920,351
Raw,3.03761714e+05,1921,351
Raw,2.54139224e+05,1922,351
Raw,2.81426582e+05,1923,351
Raw,1.8055997e+05,1924,351
Raw,2.74055271e+05,1925,351
Raw,1.94900841e+05,1926,351
Raw,2.92095085e+05,1927,351
Raw,2.25107168e+05,1928,351
Raw,1.93109958e+05,1929,351
Raw,4.04913564e+05,1930,351
Raw,3.38367797e+05,1931,351
Raw,5.29986642e+05,1932,351
Raw,3.04831856e+05,1934,351
Raw,2.3619073e+05,1935,351
Raw,4.705839e+05,1936,351
Raw,2.47181748e+05,1937,351
Raw,2.88485871e+05,1938,351
Raw,2.53796628e+05,1939,351
Raw,1.09895876e+05,1940,351
Raw,3.26475206e+05,1941,351
Raw,1.38273176e+05,1942,351
Raw,2.67976766e+05,1943,351
Raw,3.01613582e+05,1944,351
Raw,3.0743858e+05,1945,351
Raw,35379.032,1945,351
Raw,2.6019e+05,1946,351
Raw,2.5958997e+05,1947,351
Raw,2.55331054e+05,1948,351
Raw,7.05191495e+05,1949,351
Raw,2.81925498e+05,1949,351
Raw,1.67349921e+05,1949,351
Raw,2.63319384e+05,1950,351
Raw,2.50156938e+05,1951,351
Raw,2.47111114e+05,1952,351
Raw,2.11739715e+05,1953,351
Raw,2.99828715e+05,1954,351
Raw,2.6709888e+05,1955,351
Raw,1.39276437e+05,1957,351
Raw,4.88270993e+05,1958,351
Raw,2.21483385e+05,1959,351
Raw,1.95178928e+05,1960,351
Raw,11766.272,1960,351
Raw,4.47687654e+05,1961,351
Raw,1.86152452e+05,1962,351
Raw,2.3652123e+05,1963,351
Raw,31316.96,1963,351
Raw,2.65578861e+05,1964,351
Raw,3.43629222e+05,1965,351
Raw,2.92173849e+05,1966,351
Raw,1.93020543e+05,1967,351
Raw,23140.744,1968,351
Raw,2.29696017e+05,1969,351
Raw,2.59073257e+05,1970,351
Raw,2.74816917e+05,1971,351
Raw,3.21444378e+05,1972,351
Raw,2.73941919e+05,1974,351
Raw,2.45281925e+05,1975,351
Raw,2.91149568e+05,1976,351
Raw,1.93872969e+05,1977,351
Raw,2.50331106e+05,1978,351
Raw,2.75367996e+05,1980,351
Raw,2.73696142e+05,1981,351
Raw,1.4636622e+05,1982,351
Raw,1.655287e+05,1983,351
Raw,2.92059209e+05,1984,351
Raw,2.30241039e+05,1985,351
Raw,2.71344809e+05,1986,351
Raw,3.31117263e+05,1987,351
Raw,2.41962759e+05,1988,351
Raw,3.05128221e+05,1989,351
Raw,2.80071177e+05,1990,351
Raw,2.55913064e+05,1991,351
Raw,7.4190334e+05,1992,351
Raw,3.15275449e+05,1993,351
Raw,2.47801916e+05,1994,351
Raw,2.75537739e+05,1995,351
Raw,2.41118999e+05,1996,351
Raw,3.35738622e+05,1997,351
Raw,2.36177894e+05,1998,351
Raw,4.00566885e+05,1999,351
Raw,2.4652744e+05,2000,351
Raw,2.81635495e+05,2001,351
Raw,2.16414584e+05,2002,351
Raw,2.3868063e+05,2003,351
Raw,75279.261,2004,351
Raw,1.24712128e+05,2004,351
Raw,9778.4196,2005,351
Raw,2.25857265e+05,2006,351
Raw,33990.346,2006,351
Raw,2.22616093e+05,2007,351
Raw,2.46287733e+05,2008,351
Raw,3.05806269e+05,2009,351
Raw,3.05611645e+05,2010,351
Raw,2.31489529e+05,2011,351
Raw,2.40428076e+05,2012,351
Raw,2.04223869e+05,2013,351
Raw,1.44991133e+05,2014,351
Raw,3.11683734e+05,2015,351
Raw,2.66331427e+05,2016,351
Raw,1.80691215e+05,2017,351
Raw,5.21338694e+05,2018,351
Raw,2.79953086e+05,2019,351
Raw,2.62732507e+05,2020,351
Raw,3.13584392e+05,2021,351
Raw,3.10197814e+05,2022,351
Raw,2.27258173e+05,2023,351
Raw,2.53515355e+05,2024,351
Raw,3.37339689e+05,2025,351
Raw,2.41306608e+05,2026,351
Raw,2.64755377e+05,2027,351
Raw,2.43540684e+05,2028,351
Raw,1.81170987e+05,2029,351
Raw,2.24070251e+05,2030,351
Raw,2.04246146e+05,2031,351
Raw,2.88012482e+05,2032,351
Raw,2.16717021e+05,2033,351
Raw,1.23829139e+05,2034,351
Raw,2.67433652e+05,2035,351
Raw,2.07564854e+05,2036,351
Raw,3.03536822e+05,2037,351
Raw,1.90534811e+05,2038,351
Raw,2.49296995e+05,2039,351
Raw,3.61871639e+05,2041,351
Raw,2.53584885e+05,2042,351
Raw,2.268002e+05,2043,351
Raw,1.87180497e+05,2044,351
Raw,4.367765e+05,2045,351
Raw,2.61394507e+05,2046,351
Raw,2.48325364e+05,2047,351
Raw,2.57992123e+05,2048,351
Raw,3.04224248e+05,2049,351
Raw,2.78830598e+05,2050,351
Raw,3.14107593e+05,2051,351
Raw,2.39186088e+05,2053,351
Raw,3.02000963e+05,2054,351
Raw,2.50432056e+05,2055,351
Raw,94394.017,2055,351
Raw,12720.613,2055,351
Raw,2.26228992e+05,2056,351
Raw,2.16089204e+05,2057,351
Raw,2.29616062e+05,2058,351
Raw,2.5463289e+05,2059,351
Raw,2.72146224e+05,2060,351
Raw,1.98447183e+05,2062,351
Raw,2.76928299e+05,2063,351
Raw,1.25024936e+05,2064,351
Raw,2.11281095e+05,2065,351
Raw,2.28125489e+05,2066,351
Raw,2.39031032e+05,2067,351
Raw,3.03562632e+05,2068,351
Raw,2.35279711e+05,2069,351
Raw,2.89401546e+05,2070,351
Raw,2.4558865e+05,2071,351
Raw,2.691851e+05,2072,351
Raw,2.76858441e+05,2073,351
Raw,2.88065724e+05,2074,351
Raw,1.8033706e+05,2075,351
Raw,2.32218303e+05,2076,351
Raw,3.12352037e+05,2077,351
Raw,5.61834124e+05,2078,351
Raw,4.0163152e+05,2079,351
Raw,2.64452059e+05,2080,351
Raw,3.65221935e+05,2081,351
Raw,2.88940167e+05,2082,351
Raw,2.53084904e+05,2083,351
Raw,2.31223558e+05,2084,351
Raw,5.32610152e+05,2085,351
Raw,2.24734411e+05,2085,351
Raw,2.16037511e+05,2087,351
Raw,2.64285135e+05,2088,351
Raw,2.38505133e+05,2089,351
Raw,2.45600073e+05,2090,351
Raw,2.30857534e+05,2091,351
Raw,2.07776874e+05,2092,351
Raw,2.42393066e+05,2093,351
Raw,2.53199347e+05,2094,351
Raw,2.30502308e+05,2095,351
Raw,2.77386242e+05,2096,351
Raw,2.79250031e+05,2097,351
Raw,3.76475313e+05,2098,351
Raw,2.51180502e+05,2099,351
Raw,2.11610838e+05,2100,351
Raw,2.54541486e+05,2101,351
Raw,2.7763505e+05,2102,351
Raw,2.57354657e+05,2103,351
Raw,2.81337751e+05,2104,351
Raw,2.88507339e+05,2105,351
Raw,2.53018143e+05,2106,351
Raw,2.95064384e+05,2107,351
Raw,2.29813295e+05,2107,351
Raw,2.12667583e+05,2108,351
Raw,2.42045962e+05,2109,351
Raw,2.48335865e+05,2110,351
Raw,2.6935204e+05,2111,351
Raw,2.64318494e+05,2112,351
Raw,2.22015601e+05,2113,351
Raw,2.33334233e+05,2114,351
Raw,2.34771232e+05,2115,351
Raw,99219.01,2116,351
Raw,2.44709443e+05,2117,351
Raw,3.31940467e+05,2118,351
Raw,3.05762042e+05,2119,351
Raw,2.90296152e+05,2120,351
Raw,3.10551556e+05,2121,351
Raw,2.45668622e+05,2122,351
Raw,2.83352217e+05,2124,351
Raw,3.87290178e+05,2125,351
Raw,2.69293618e+05,2126,351
Raw,2.27858201e+05,2127,351
Raw,2.27104467e+05,2128,351
Raw,49590.419,2128,351
Raw,3.01361335e+05,2129,351
Raw,3.13947447e+05,2130,351
Raw,3.42913187e+05,2131,351
Raw,2.4720412e+05,2132,351
Raw,3.33328366e+05,2133,351
Raw,3.04792657e+05,2134,351
Raw,1.76560812e+05,2135,351
Raw,2.82802121e+05,2137,351
Raw,2.87980936e+05,2138,351
Raw,2.57596332e+05,2139,351
Raw,2.02277792e+05,2140,351
Raw,3.06158499e+05,2141,351
Raw,2.7508791e+05,2142,351
Raw,2.96669462e+05,2143,351
Raw,2.68913471e+05,2144,351
Raw,1.8181513e+05,2145,351
Raw,2.56151632e+05,2146,351
Raw,2.6940159e+05,2147,351
Raw,3.23187857e+05,2148,351
Raw,2.45383914e+05,2149,351
Raw,4.82793303e+05,2150,351
Raw,2.26211397e+05,2151,351
Raw,2.76008374e+05,2152,351
Raw,4.44470057e+05,2153,351
Raw,2.59440957e+05,2154,351
Raw,2.09198335e+05,2155,351
Raw,2.35191865e+05,2156,351
Raw,2.86373196e+05,2157,351
Raw,3.01465264e+05,2158,351
Raw,2.13137683e+05,2159,351
Raw,3.48040656e+05,2160,351
Raw,3.09208645e+05,2161,351
Raw,2.33798686e+05,2162,351
Raw,2.38417572e+05,2163,351
Raw,3.12062906e+05,2165,351
Raw,1.46819408e+05,2166,351
Raw,3.22600413e+05,2167,351
Raw,3.26005418e+05,2168,351
Raw,2.74353409e+05,2169,351
Raw,2.74747399e+05,2170,351
Raw,15804.789,2170,351
Raw,3.09547096e+05,2171,351
Raw,3.47994093e+05,2172,351
Raw,2.84732759e+05,2173,351
Raw,2.03681998e+05,2174,351
Raw,1.68664397e+05,2175,351
Raw,32676.605,2176,351
Raw,1.83099821e+05,2177,351
Raw,2.95579473e+05,2179,351
Raw,2.54631043e+05,2181,351
Raw,1.41188614e+05,2182,351
Raw,2.87638858e+05,2183,351
Raw,2.77277854e+05,2184,351
Raw,2.91457961e+05,2185,351
Raw,36352.698,2185,351
Raw,2.74120849e+05,2186,351
Raw,3.02319322e+05,2187,351
Raw,3.33818379e+05,2188,351
Raw,2.51507617e+05,2189,351
Raw,2.6582198e+05,2191,351
Raw,3.07315211e+05,2192,351
Raw,1.92123893e+05,2193,351
Raw,2.45371838e+05,2194,351
Raw,4.60906232e+05,2195,351
Raw,2.54731022e+05,2196,351
Raw,2.89506627e+05,2197,351
Raw,2.349015e+05,2198,351
Raw,70165.554,2199,351
Raw,26960.602,2199,351
Raw,1.60818534e+05,2200,351
Raw,2.69402019e+05,2201,351
Raw,1.80249362e+05,2202,351
Raw,3.42465878e+05,2203,351
Raw,2.47246736e+05,2204,351
Raw,2.3424644e+05,2205,351
Raw,1.89632705e+05,2206,351
Raw,2.85570356e+05,2207,351
Raw,1.98308251e+05,2209,351
Raw,2.61944442e+05,2210,351
Raw,5.89919654e+05,2211,351
Raw,3.00996213e+05,2212,351
Raw,2.77193003e+05,2213,351
Raw,2.77120465e+05,2214,351
Raw,2.44520789e+05,2215,351
Raw,2.08079828e+05,2216,351
Raw,2.72008002e+05,2218,351
Raw,1.84921466e+05,2219,351
Raw,2.84328986e+05,2220,351
Raw,3.00569509e+05,2221,351
Raw,3.48560933e+05,2222,351
Raw,2.70402493e+05,2223,351
Raw,2.83845181e+05,2224,351
Raw,2.38773478e+05,2225,351
Raw,2.45410131e+05,2226,351
Raw,1.81161868e+05,2227,351
Raw,2.70095805e+05,2228,351
Raw,2.23245991e+05,2229,351
Raw,4.61861612e+05,2231,351
Raw,2.7195387e+05,2232,351
Raw,2.24268536e+05,2233,351
Raw,78717.956,2233,351
Raw,2.42575625e+05,2234,351
Raw,2.579781e+05,2235,351
Raw,2.66736489e+05,2236,351
Raw,28715.301,2236,351
Raw,3.23317799e+05,2237,351
Raw,72298.242,2237,351
Raw,2.8764676e+05,2238,351
Raw,1.95111448e+05,2240,351
Raw,2.71845247e+05,2241,351
Raw,3.05181627e+05,2242,351
Raw,2.42735529e+05,2243,351
Raw,2.1923832e+05,2245,351
Raw,2.90938862e+05,2250,351
Raw,2.86567174e+05,2251,351
Raw,2.38309445e+05,2252,351
Raw,2.22814652e+05,2253,351
Raw,2.96296995e+05,2254,351
Raw,3.08699844e+05,2255,351
Raw,3.27936183e+05,2256,351
Raw,3.54133229e+05,2257,351
Raw,5.01004062e+05,2259,351
Raw,2.46770299e+05,2260,351
Raw,3.11870818e+05,2261,351
Raw,3.03145786e+05,2261,351
Raw,2.94192793e+05,2262,351
Raw,2.73650966e+05,2263,351
Raw,2.34199224e+05,2264,351
