Cut?,Counts,eventNumber,runNumber
Raw,2.91248219e+05,6,328
Raw,5.91566595e+05,8,328
Raw,3.27921193e+05,9,328
Raw,4.34552773e+05,12,328
Raw,91151.565,18,328
Raw,1.60173692e+05,20,328
Raw,5.05545551e+05,22,328
Raw,3.00608763e+05,23,328
Raw,2.44452435e+05,24,328
Raw,2.74681495e+05,25,328
Raw,2.97996907e+05,26,328
Raw,2.99901875e+05,29,328
Raw,7664.5177,30,328
Raw,95563.639,33,328
Raw,3.4426278e+05,37,328
Raw,3.13299596e+05,38,328
Raw,2.79612842e+05,39,328
Raw,2.71309077e+05,41,328
Raw,2.76294576e+05,43,328
Raw,3.38911618e+05,44,328
Raw,3.11796586e+05,47,328
Raw,3.20336297e+05,48,328
Raw,1.8839752e+05,51,328
Raw,2.83741585e+05,53,328
Raw,3.58726333e+05,54,328
Raw,3.34120419e+05,56,328
Raw,1.33763535e+05,57,328
Raw,2.37720609e+05,59,328
Raw,4.98336785e+05,60,328
Raw,1.39755579e+05,61,328
Raw,3.32051798e+05,63,328
Raw,95371.978,63,328
Raw,2.71984893e+05,64,328
Raw,3.49488307e+05,67,328
Raw,3.26037408e+05,70,328
Raw,3.10435989e+05,72,328
Raw,4.80881686e+05,73,328
Raw,3.22041958e+05,78,328
Raw,70770.235,81,328
Raw,3.12291436e+05,83,328
Raw,3.04665539e+05,85,328
Raw,2.98092835e+05,86,328
Raw,3.00204157e+05,87,328
Raw,2.4037317e+05,88,328
Raw,53560.604,91,328
Raw,2.77804465e+05,93,328
Raw,2.15787249e+05,94,328
Raw,2.18112794e+05,95,328
Raw,2.65177085e+05,96,328
Raw,2.4384557e+05,97,328
Raw,2.35424347e+05,98,328
Raw,2.95320122e+05,99,328
Raw,1.3637081e+05,100,328
Raw,3.3590289e+05,102,328
Raw,3.25430648e+05,104,328
Raw,34377.305,107,328
Raw,2.67967641e+05,108,328
Raw,2.9151049e+05,112,328
Raw,2.36915352e+05,118,328
Raw,1.5015361e+05,121,328
Raw,3.46623603e+05,122,328
Raw,2.89462355e+05,123,328
Raw,1.46850763e+05,125,328
Raw,2.88815589e+05,131,328
Raw,3.32136998e+05,133,328
Raw,3.12084032e+05,134,328
Raw,1.55053197e+05,135,328
Raw,3.56370165e+05,136,328
Raw,2.9415511e+05,138,328
Raw,34438.018,139,328
Raw,2.85448459e+05,140,328
Raw,2.65681435e+05,145,328
Raw,2.93927386e+05,147,328
Raw,1.86987889e+05,150,328
Raw,3.64414363e+05,154,328
Raw,1.91837084e+05,155,328
Raw,2.47915568e+05,157,328
Raw,3.16491973e+05,158,328
Raw,2.23684743e+05,160,328
Raw,3.06430818e+05,161,328
Raw,3.43771431e+05,163,328
Raw,3.78747348e+05,166,328
Raw,2.73517941e+05,169,328
Raw,1.13910524e+05,171,328
Raw,2.38560555e+05,175,328
Raw,3.58220237e+05,177,328
Raw,2.43304932e+05,188,328
Raw,3.40495404e+05,189,328
Raw,2.9731272e+05,190,328
Raw,2.24773225e+05,191,328
Raw,1.02944543e+05,192,328
Raw,3.11986472e+05,193,328
Raw,3.36004289e+05,194,328
Raw,1.0866742e+05,196,328
Raw,2.81226226e+05,200,328
Raw,2.41374442e+05,202,328
Raw,3.23069522e+05,203,328
Raw,3.11134529e+05,204,328
Raw,3.4348763e+05,205,328
Raw,2.38278724e+05,206,328
Raw,3.41859689e+05,207,328
Raw,4.93558496e+05,209,328
Raw,4.56613879e+05,210,328
Raw,3.73133527e+05,215,328
Raw,2.84405902e+05,219,328
Raw,3.1574225e+05,220,328
Raw,3.00678937e+05,222,328
Raw,3.4134326e+05,224,328
Raw,2.88540468e+05,228,328
Raw,2.7194717e+05,229,328
Raw,3.34377713e+05,230,328
Raw,2.71139068e+05,231,328
Raw,3.6377532e+05,234,328
Raw,2.96081877e+05,235,328
Raw,2.19732298e+05,237,328
Raw,1.97985568e+05,238,328
Raw,2.95020707e+05,241,328
Raw,3.41473894e+05,242,328
Raw,3.20746321e+05,248,328
Raw,3.07488304e+05,249,328
Raw,2.80946871e+05,250,328
Raw,3.10501206e+05,252,328
Raw,18393.195,252,328
Raw,3.26843999e+05,253,328
Raw,2.75871826e+05,254,328
Raw,5.60546196e+05,256,328
Raw,2.83527094e+05,257,328
Raw,3.69513881e+05,258,328
Raw,3.82960302e+05,260,328
Raw,2.63294904e+05,261,328
Raw,1.09427513e+05,261,328
Raw,1.06865138e+05,265,328
Raw,2.83214575e+05,266,328
Raw,4.10768361e+05,267,328
Raw,3.36684766e+05,270,328
Raw,30448.856,272,328
Raw,7.92982441e+05,275,328
Raw,5.60315672e+05,278,328
Raw,2.8992897e+05,279,328
Raw,3.42028755e+05,281,328
Raw,3.94675295e+05,282,328
Raw,2.90785718e+05,283,328
Raw,2.54957961e+05,284,328
Raw,3.10284785e+05,285,328
Raw,3.46961118e+05,286,328
Raw,3.26185984e+05,287,328
Raw,2.49771374e+05,288,328
Raw,10607.584,288,328
Raw,2.82121015e+05,290,328
Raw,3.75491533e+05,291,328
Raw,3.17571881e+05,292,328
Raw,2.8736884e+05,293,328
Raw,1.99132619e+05,295,328
Raw,3.30737725e+05,296,328
Raw,3.08624788e+05,297,328
Raw,2.97446402e+05,299,328
Raw,99222.369,303,328
Raw,3.37274043e+05,305,328
Raw,3.25615071e+05,308,328
Raw,2.62248008e+05,309,328
Raw,3.16937092e+05,311,328
Raw,2.52933041e+05,313,328
Raw,2.92296032e+05,314,328
Raw,2.91248373e+05,315,328
Raw,2.95872158e+05,316,328
Raw,3.07808333e+05,318,328
Raw,1.89067678e+05,319,328
Raw,3.39385903e+05,320,328
Raw,2.04319292e+05,321,328
Raw,2.6395664e+05,322,328
Raw,77839.091,322,328
Raw,3.41711132e+05,323,328
Raw,3.39198793e+05,324,328
Raw,3.66446913e+05,329,328
Raw,2.35664793e+05,335,328
Raw,5.40149211e+05,336,328
Raw,3.33829836e+05,337,328
Raw,3.08220338e+05,338,328
Raw,2.9887305e+05,339,328
Raw,3.57801148e+05,340,328
Raw,2.89969659e+05,341,328
Raw,2.77453058e+05,342,328
Raw,1.9078232e+05,343,328
Raw,3.44114126e+05,344,328
Raw,3.36903279e+05,345,328
Raw,2.97791889e+05,347,328
Raw,3.23236558e+05,348,328
Raw,2.78388524e+05,351,328
Raw,1.85140634e+05,353,328
Raw,31528.244,354,328
Raw,3.0668903e+05,356,328
Raw,20379.832,360,328
Raw,3.65453134e+05,361,328
Raw,3.56564495e+05,362,328
Raw,18342.111,363,328
Raw,3.31529605e+05,366,328
Raw,2.34600689e+05,368,328
Raw,2.86860917e+05,370,328
Raw,3.11903263e+05,371,328
Raw,2.01941547e+05,372,328
Raw,3.12621406e+05,373,328
Raw,7.16658752e+05,375,328
Raw,2.85555607e+05,376,328
Raw,3.3902359e+05,378,328
Raw,2.62730463e+05,386,328
Raw,5.62800482e+05,387,328
Raw,61909.669,388,328
Raw,2.7971367e+05,389,328
Raw,3.85063828e+05,391,328
Raw,2.9131206e+05,392,328
Raw,10866.137,394,328
Raw,2.93930745e+05,395,328
Raw,3.10559277e+05,397,328
Raw,4.10906398e+05,399,328
Raw,2.55750231e+05,400,328
Raw,2.95384791e+05,403,328
Raw,3.19390312e+05,404,328
Raw,5.84776743e+05,405,328
Raw,3.42358505e+05,406,328
Raw,2.96459823e+05,408,328
Raw,3.73201925e+05,409,328
Raw,41108.616,412,328
Raw,3.88902173e+05,413,328
Raw,1.02721295e+05,416,328
Raw,3.21069875e+05,417,328
Raw,57243.971,420,328
Raw,3.31713906e+05,422,328
Raw,2.98763663e+05,424,328
Raw,23497.42,425,328
Raw,4.84370054e+05,427,328
Raw,3.55046877e+05,428,328
Raw,3.08490262e+05,432,328
Raw,3.30273058e+05,434,328
Raw,3.83184333e+05,435,328
Raw,1.88757631e+05,436,328
Raw,2.87983203e+05,437,328
Raw,3.00705159e+05,440,328
Raw,2.88511506e+05,441,328
Raw,2.90468109e+05,443,328
Raw,2.97730522e+05,444,328
Raw,3.45575e+05,445,328
Raw,2.73006571e+05,446,328
Raw,3.60103167e+05,447,328
Raw,2.97694724e+05,448,328
Raw,3.26540119e+05,455,328
Raw,6505.8596,456,328
Raw,2.22758039e+05,457,328
Raw,29440.016,464,328
Raw,1.99368532e+05,465,328
Raw,3.13724196e+05,467,328
Raw,3.19239161e+05,470,328
Raw,3.45168741e+05,472,328
Raw,3.13586392e+05,475,328
Raw,2.33808665e+05,476,328
Raw,18758.537,477,328
Raw,2.25995388e+05,481,328
Raw,3.06394381e+05,484,328
Raw,5887.4578,487,328
Raw,14096.375,487,328
Raw,2.73446458e+05,488,328
Raw,2.128019e+05,490,328
Raw,2.58304386e+05,491,328
Raw,1.21997828e+05,492,328
Raw,1.64882734e+05,493,328
Raw,3.38981542e+05,494,328
Raw,3.8710271e+05,500,328
Raw,3.24891833e+05,501,328
Raw,3.04329131e+05,502,328
Raw,3.22835107e+05,503,328
Raw,2.95571034e+05,504,328
Raw,3.67663184e+05,507,328
Raw,3.50202671e+05,509,328
Raw,3.02166534e+05,510,328
Raw,2.83373858e+05,513,328
Raw,3.61901934e+05,517,328
Raw,3.1431653e+05,520,328
Raw,3.51388881e+05,521,328
Raw,5.46105025e+05,526,328
Raw,2.39148058e+05,529,328
Raw,96583.308,530,328
Raw,1.13887504e+05,533,328
Raw,2.86866348e+05,534,328
Raw,4.53589497e+05,536,328
Raw,2.66914122e+05,537,328
Raw,2.22690438e+05,538,328
Raw,3.20173152e+05,539,328
Raw,2.57110538e+05,541,328
Raw,2.26797733e+05,542,328
Raw,3.81116072e+05,543,328
Raw,3.40615273e+05,544,328
Raw,3.01862443e+05,545,328
Raw,92759.879,546,328
Raw,2.58081348e+05,547,328
Raw,3.0274633e+05,548,328
Raw,3.41862667e+05,549,328
Raw,3.17944311e+05,550,328
Raw,3.20729342e+05,551,328
Raw,2.76108449e+05,553,328
Raw,2.09520283e+05,554,328
Raw,2.64956017e+05,555,328
Raw,2.57843783e+05,556,328
Raw,2.61307338e+05,557,328
Raw,1.22308968e+05,558,328
Raw,5.67816863e+05,559,328
Raw,7.5484267e+05,559,328
Raw,1.94253455e+05,560,328
Raw,2.81086772e+05,561,328
Raw,3.10850871e+05,562,328
Raw,3.30483011e+05,563,328
Raw,1.06206303e+05,563,328
Raw,2.89750036e+05,564,328
Raw,2.75808044e+05,565,328
Raw,4.04413231e+05,567,328
Raw,3.15176556e+05,568,328
Raw,2.46454315e+05,569,328
Raw,3.0544326e+05,570,328
Raw,2.51184647e+05,571,328
Raw,2.91565421e+05,572,328
Raw,2.74040825e+05,573,328
Raw,2.50558122e+05,574,328
Raw,3.52775708e+05,575,328
Raw,3.48386744e+05,576,328
Raw,3.69929169e+05,577,328
Raw,2.70919458e+05,578,328
Raw,3.47876797e+05,579,328
Raw,3.60882024e+05,580,328
Raw,3.33089592e+05,581,328
Raw,2.116791e+05,582,328
Raw,5.39118213e+05,583,328
Raw,1.66579203e+05,584,328
Raw,3.05728927e+05,585,328
Raw,2.54741346e+05,586,328
Raw,3.48756347e+05,587,328
Raw,4.32339206e+05,588,328
Raw,2.13569344e+05,589,328
Raw,1.7275927e+05,590,328
Raw,1.94856054e+05,591,328
Raw,3.01701169e+05,592,328
Raw,4.12045432e+05,593,328
Raw,3.24595249e+05,594,328
Raw,3.24212679e+05,595,328
Raw,2.13696595e+05,596,328
Raw,3.89308116e+05,598,328
Raw,3.08143636e+05,599,328
Raw,3.73710862e+05,600,328
Raw,1.41432244e+05,601,328
Raw,3.77105608e+05,602,328
Raw,2.34098941e+05,603,328
Raw,3.28656572e+05,604,328
Raw,3.19887681e+05,605,328
Raw,3.3254232e+05,606,328
Raw,2.8379293e+05,607,328
Raw,2.82351502e+05,608,328
Raw,3.49606938e+05,609,328
Raw,3.33667936e+05,610,328
Raw,2.55179507e+05,611,328
Raw,3.14804269e+05,612,328
Raw,3.17173962e+05,613,328
Raw,2.5682905e+05,614,328
Raw,3.0362672e+05,615,328
Raw,3.35746695e+05,616,328
Raw,3.8504279e+05,617,328
Raw,34702.664,618,328
Raw,2.66806201e+05,619,328
Raw,3.1574607e+05,620,328
Raw,3.89473205e+05,621,328
Raw,2.38123271e+05,622,328
Raw,3.31765471e+05,623,328
Raw,1.92096399e+05,624,328
Raw,2.89824613e+05,625,328
Raw,3.29881236e+05,626,328
Raw,2.55763178e+05,627,328
Raw,3.18207518e+05,628,328
Raw,2.9957278e+05,629,328
Raw,3.4689471e+05,630,328
Raw,3.24597426e+05,631,328
Raw,2.64064281e+05,632,328
Raw,3.06956419e+05,633,328
Raw,2.67788856e+05,634,328
Raw,2.85328515e+05,635,328
Raw,1.08538005e+05,636,328
Raw,3.63325626e+05,636,328
Raw,2.7796463e+05,637,328
Raw,3.41465944e+05,638,328
Raw,3.3001502e+05,639,328
Raw,3.81793342e+05,640,328
Raw,2.557186e+05,641,328
Raw,2.83588331e+05,642,328
Raw,3.41626856e+05,643,328
Raw,2.80900891e+05,644,328
Raw,3.70861207e+05,645,328
Raw,2.89635247e+05,647,328
Raw,2.69916968e+05,648,328
Raw,2.47829006e+05,649,328
Raw,1.66366606e+05,650,328
Raw,3.58123079e+05,651,328
Raw,2.56848229e+05,653,328
Raw,3.20249703e+05,655,328
Raw,52719.777,655,328
Raw,1.23045791e+05,656,328
Raw,3.62045996e+05,656,328
Raw,2.28609203e+05,657,328
Raw,2.92081253e+05,658,328
Raw,3.4826833e+05,659,328
Raw,3.08443398e+05,660,328
Raw,3.45395039e+05,661,328
Raw,2.64843517e+05,662,328
Raw,5.36779221e+05,663,328
Raw,3.90681584e+05,664,328
Raw,2.91442185e+05,665,328
Raw,2.59222647e+05,666,328
Raw,2.71254339e+05,667,328
Raw,3.96850158e+05,668,328
Raw,3.21570923e+05,669,328
Raw,3.29684854e+05,671,328
Raw,1.95108422e+05,672,328
Raw,7.28829299e+05,673,328
Raw,2.96860528e+05,674,328
Raw,3.37615761e+05,675,328
Raw,2.97751247e+05,676,328
Raw,2.39616414e+05,677,328
Raw,2.50895725e+05,678,328
Raw,4.1410434e+05,680,328
Raw,3.48903955e+05,681,328
Raw,1.79816665e+05,682,328
Raw,3.0359709e+05,683,328
Raw,4.33423744e+05,685,328
Raw,3.06448096e+05,686,328
Raw,2.21711444e+05,687,328
Raw,3.06345232e+05,688,328
Raw,2.31819529e+05,689,328
Raw,4.59173426e+05,690,328
Raw,3.13983043e+05,691,328
Raw,4.81152936e+05,693,328
Raw,2.9720771e+05,694,328
Raw,3.91896532e+05,695,328
Raw,3.16576594e+05,696,328
Raw,3.29613005e+05,698,328
Raw,3.28694926e+05,699,328
Raw,4.35801207e+05,700,328
Raw,2.62911789e+05,702,328
Raw,3.47769511e+05,703,328
Raw,3.33715454e+05,704,328
Raw,3.80369877e+05,705,328
Raw,4.09064647e+05,706,328
Raw,2.92677677e+05,707,328
Raw,3.24749165e+05,708,328
Raw,2.33728727e+05,709,328
Raw,3.28332358e+05,710,328
Raw,3.36635318e+05,711,328
Raw,2.85243826e+05,712,328
Raw,3.66963488e+05,713,328
Raw,3.07106905e+05,714,328
Raw,3.29012588e+05,715,328
Raw,1.95041388e+05,716,328
Raw,3.56012029e+05,717,328
Raw,2.06619767e+05,718,328
Raw,3.1216489e+05,719,328
Raw,2.57115627e+05,720,328
Raw,2.95423949e+05,721,328
Raw,3.01738039e+05,722,328
Raw,2.56745e+05,723,328
Raw,2.7104336e+05,724,328
Raw,2.51700198e+05,725,328
Raw,3.33556115e+05,726,328
Raw,3.1074742e+05,727,328
Raw,3.64392843e+05,728,328
Raw,3.08193376e+05,729,328
Raw,3.98602986e+05,730,328
Raw,2.64099307e+05,731,328
Raw,2.92959616e+05,732,328
Raw,3.27058429e+05,733,328
Raw,1.78664116e+05,734,328
Raw,3.22960068e+05,735,328
Raw,3.55411143e+05,736,328
Raw,2.76117085e+05,737,328
Raw,1.99074237e+05,738,328
Raw,2.30715412e+05,739,328
Raw,2.67100249e+05,740,328
Raw,2.80805961e+05,741,328
Raw,3.99122222e+05,742,328
Raw,1.92733023e+05,743,328
Raw,3.13260039e+05,744,328
Raw,2.43534998e+05,745,328
Raw,2.84191947e+05,746,328
Raw,3.05334769e+05,748,328
Raw,2.53733483e+05,749,328
Raw,2.73018565e+05,750,328
Raw,3.74171555e+05,751,328
Raw,2.8284093e+05,752,328
Raw,3.60981434e+05,753,328
Raw,2.89878045e+05,757,328
Raw,3.4925129e+05,758,328
Raw,2.52730059e+05,759,328
Raw,4.04546788e+05,761,328
Raw,3.33808666e+05,762,328
Raw,3.4654775e+05,763,328
Raw,53120.441,763,328
Raw,1.77305966e+05,764,328
Raw,3.21509738e+05,765,328
Raw,14970.436,765,328
Raw,3.10537193e+05,766,328
Raw,3.46103003e+05,767,328
Raw,1.70730282e+05,768,328
Raw,3.10485202e+05,769,328
Raw,2.97422892e+05,770,328
Raw,2.99045547e+05,771,328
Raw,3.08718952e+05,772,328
Raw,14511.164,772,328
Raw,80692.174,773,328
Raw,3.90886983e+05,774,328
Raw,2.95080262e+05,775,328
Raw,5.84741126e+05,776,328
Raw,2.59653875e+05,777,328
Raw,2.81947817e+05,778,328
Raw,1.47903379e+05,779,328
Raw,6.47726444e+05,780,328
Raw,3.62639892e+05,780,328
Raw,3.33142173e+05,781,328
Raw,2.923777e+05,782,328
Raw,1.07943387e+05,783,328
Raw,1.73302784e+05,784,328
Raw,2.3594929e+05,785,328
Raw,2.4739865e+05,786,328
Raw,2.68009177e+05,787,328
Raw,2.89173542e+05,788,328
Raw,3.15748517e+05,790,328
Raw,3.02928994e+05,791,328
Raw,3.2536077e+05,792,328
Raw,2.78725146e+05,793,328
Raw,3.33529458e+05,794,328
Raw,4.05342279e+05,795,328
Raw,1.70785702e+05,796,328
Raw,3.56204095e+05,798,328
Raw,3.24416072e+05,799,328
Raw,2.84945685e+05,800,328
Raw,1.81065047e+05,801,328
Raw,5.10419257e+05,802,328
Raw,2.98994785e+05,803,328
Raw,3.14949014e+05,804,328
Raw,2.76914371e+05,806,328
Raw,3.49950559e+05,807,328
Raw,14259.49,808,328
Raw,3.37863648e+05,810,328
Raw,3.23548482e+05,811,328
Raw,3.54345636e+05,812,328
Raw,2.98747839e+05,813,328
Raw,3.26486073e+05,814,328
Raw,2.59052333e+05,815,328
Raw,2.75103858e+05,816,328
Raw,1.34752913e+05,818,328
Raw,2.97201015e+05,819,328
Raw,3.40467101e+05,820,328
Raw,3.41853927e+05,821,328
Raw,3.07886542e+05,822,328
Raw,6.35261491e+05,822,328
Raw,2.79864873e+05,823,328
Raw,2.29326338e+05,824,328
Raw,2.61914439e+05,825,328
Raw,2.99211911e+05,826,328
Raw,2.5948493e+05,827,328
Raw,3.35260841e+05,828,328
Raw,2.55425911e+05,829,328
Raw,3.71123813e+05,830,328
Raw,3.52109621e+05,831,328
Raw,3.78688797e+05,832,328
Raw,3.48745297e+05,833,328
Raw,2.75302711e+05,834,328
Raw,3.46780364e+05,835,328
Raw,1.07477779e+05,836,328
Raw,2.12136399e+05,836,328
Raw,2.9853647e+05,838,328
Raw,2.75005356e+05,839,328
Raw,3.42458791e+05,840,328
Raw,3.12389067e+05,841,328
Raw,3.21883029e+05,842,328
Raw,2.95768306e+05,843,328
Raw,5.34380602e+05,844,328
Raw,1.28589317e+05,844,328
Raw,9.21521707e+05,845,328
Raw,3.31520428e+05,846,328
Raw,2.66635966e+05,847,328
Raw,2.83346971e+05,848,328
Raw,3.49502026e+05,849,328
Raw,2.32343373e+05,850,328
Raw,2.66441525e+05,851,328
Raw,2.03431801e+05,852,328
Raw,3.5054629e+05,853,328
Raw,2.60719102e+05,854,328
Raw,1.55298512e+05,855,328
Raw,3.37745915e+05,856,328
Raw,2.60858519e+05,857,328
Raw,2.69840916e+05,858,328
Raw,3.13043612e+05,859,328
Raw,3.02655228e+05,860,328
Raw,2.88309594e+05,861,328
Raw,1.8477292e+05,862,328
Raw,3.57514706e+05,863,328
Raw,3.12354766e+05,864,328
Raw,3.48560509e+05,865,328
Raw,2.62420798e+05,866,328
Raw,3.84721788e+05,867,328
Raw,3.45894286e+05,868,328
Raw,4.34311407e+05,870,328
Raw,3.2183179e+05,871,328
Raw,2.63184498e+05,872,328
Raw,3.8177672e+05,873,328
Raw,3.23638522e+05,874,328
Raw,3.09980538e+05,875,328
Raw,2.64639127e+05,876,328
Raw,2.13411844e+05,877,328
Raw,3.1489628e+05,878,328
Raw,2.96391934e+05,879,328
Raw,2.4156076e+05,880,328
Raw,2.66154055e+05,881,328
Raw,3.13830273e+05,882,328
Raw,2.46426407e+05,883,328
Raw,2.78844715e+05,884,328
Raw,1.52244003e+05,885,328
Raw,1.93045011e+05,886,328
Raw,3.11851765e+05,888,328
Raw,3.80100031e+05,889,328
Raw,3.54015695e+05,890,328
Raw,1.43001307e+05,891,328
Raw,2.90606644e+05,893,328
Raw,3.18428792e+05,894,328
Raw,6.37752512e+05,895,328
Raw,2.65275767e+05,895,328
Raw,2.86632255e+05,896,328
Raw,3.3438237e+05,897,328
Raw,3.55323839e+05,898,328
Raw,2.55637936e+05,899,328
Raw,2.20898778e+05,900,328
Raw,3.17529257e+05,901,328
Raw,2.80640544e+05,902,328
Raw,97961.254,903,328
Raw,4.0825137e+05,904,328
Raw,3.38850682e+05,905,328
Raw,2.36483706e+05,907,328
Raw,3.01782972e+05,908,328
Raw,2.38650767e+05,909,328
Raw,2.37981821e+05,910,328
Raw,26559.384,910,328
Raw,44468.892,911,328
Raw,3.46274686e+05,912,328
Raw,3.08644348e+05,913,328
Raw,2.80384783e+05,914,328
Raw,3.00673215e+05,915,328
Raw,3.50408022e+05,916,328
Raw,2.35083715e+05,917,328
Raw,2.47488858e+05,918,328
Raw,4.14384779e+05,919,328
Raw,26111.232,920,328
Raw,2.93581339e+05,921,328
Raw,3.43445921e+05,922,328
Raw,3.25211887e+05,923,328
Raw,3.01516465e+05,924,328
Raw,3.03580759e+05,925,328
Raw,2.07136224e+05,926,328
Raw,3.76898579e+05,927,328
Raw,4.24226028e+05,928,328
Raw,2.75549566e+05,929,328
Raw,3.21158356e+05,930,328
Raw,2.78042478e+05,931,328
Raw,3.22098574e+05,932,328
Raw,2.76156203e+05,933,328
Raw,3.14122387e+05,934,328
Raw,3.08950179e+05,935,328
Raw,3.33656917e+05,936,328
Raw,3.28660679e+05,937,328
Raw,6.23464614e+05,938,328
Raw,2.1357865e+05,938,328
Raw,1.89845634e+05,939,328
Raw,3.42140389e+05,940,328
Raw,3.94817091e+05,941,328
Raw,1.946186e+05,942,328
Raw,3.07621326e+05,943,328
Raw,3.62804527e+05,944,328
Raw,4.00174136e+05,945,328
Raw,2.15239749e+05,946,328
Raw,6.91557168e+05,947,328
Raw,6.52857016e+05,947,328
Raw,4.57035133e+05,948,328
Raw,3.0961985e+05,949,328
Raw,2.73865863e+05,951,328
Raw,3.14673185e+05,952,328
Raw,3.5629301e+05,953,328
Raw,3.0718919e+05,954,328
Raw,2.11916935e+05,955,328
Raw,2.48266208e+05,956,328
Raw,3.06404837e+05,957,328
Raw,3.03434248e+05,958,328
Raw,2.85288448e+05,959,328
Raw,1.9548267e+05,960,328
Raw,2.94559915e+05,961,328
Raw,3.17657645e+05,963,328
Raw,2.6440491e+05,964,328
Raw,2.82907622e+05,965,328
Raw,3.16961877e+05,966,328
Raw,1.47551727e+05,967,328
Raw,1.57076322e+05,968,328
Raw,2.83391159e+05,969,328
Raw,1.52773013e+05,970,328
Raw,27213.485,970,328
Raw,3.30963424e+05,971,328
Raw,2.34946386e+05,972,328
Raw,2.95426262e+05,973,328
Raw,4.15323529e+05,974,328
Raw,1.41125968e+05,975,328
Raw,3.29150212e+05,976,328
Raw,6.19774396e+05,977,328
Raw,35204.659,978,328
Raw,1.98856619e+05,978,328
Raw,3.2562399e+05,979,328
Raw,3.6603927e+05,980,328
Raw,3.32923209e+05,981,328
Raw,3.92135889e+05,982,328
Raw,3.70134319e+05,983,328
Raw,3.48950293e+05,984,328
Raw,2.85901737e+05,985,328
Raw,2.74846352e+05,986,328
Raw,2.70576012e+05,987,328
Raw,3.64390777e+05,988,328
Raw,3.33392699e+05,989,328
Raw,3.41361414e+05,990,328
Raw,1.80773416e+05,992,328
Raw,3.72660175e+05,993,328
Raw,5.36972566e+05,994,328
Raw,3.10713463e+05,995,328
Raw,2.60938959e+05,996,328
Raw,3.25416392e+05,997,328
Raw,1.97813955e+05,999,328
Raw,3.1382576e+05,1000,328
Raw,5.88217711e+05,1001,328
Raw,3.04714831e+05,1002,328
Raw,2.66265806e+05,1003,328
Raw,3.09800664e+05,1004,328
Raw,1.52271811e+05,1005,328
Raw,3.54195985e+05,1006,328
Raw,1.1733047e+05,1007,328
Raw,3.20565033e+05,1008,328
Raw,3.16776353e+05,1009,328
Raw,3.3241659e+05,1010,328
Raw,3.68362684e+05,1011,328
Raw,1.72911271e+05,1012,328
Raw,2.72804857e+05,1013,328
Raw,3.0199377e+05,1014,328
Raw,3.67868721e+05,1015,328
Raw,3.08629071e+05,1017,328
Raw,3.08038432e+05,1018,328
Raw,2.39130218e+05,1019,328
Raw,4.07434843e+05,1020,328
Raw,3.68817757e+05,1021,328
Raw,3.60295074e+05,1022,328
Raw,1.92338283e+05,1023,328
Raw,3.6823908e+05,1024,328
Raw,2.60312467e+05,1025,328
Raw,3.33070374e+05,1026,328
Raw,3.12368396e+05,1027,328
Raw,1.88379789e+05,1028,328
Raw,3.50764756e+05,1029,328
Raw,3.34441346e+05,1030,328
Raw,7.74646437e+05,1031,328
Raw,3.2904244e+05,1032,328
Raw,2.72042999e+05,1036,328
Raw,3.53330841e+05,1037,328
Raw,2.75150655e+05,1038,328
Raw,3.67725585e+05,1039,328
Raw,3.00249226e+05,1040,328
Raw,3.52666675e+05,1041,328
Raw,2.73123597e+05,1043,328
Raw,3.48131287e+05,1044,328
Raw,2.94876087e+05,1046,328
Raw,3.04790669e+05,1047,328
Raw,3.08258617e+05,1048,328
Raw,3.5815257e+05,1049,328
Raw,3.26234074e+05,1051,328
Raw,2.08548711e+05,1052,328
Raw,45676.77,1053,328
Raw,7.27532776e+05,1054,328
Raw,22351.297,1055,328
Raw,2.80658684e+05,1057,328
Raw,3.0327265e+05,1058,328
Raw,2.98365891e+05,1059,328
Raw,2.70185958e+05,1060,328
Raw,2.5055037e+05,1061,328
Raw,3.0049581e+05,1062,328
Raw,3.5205153e+05,1063,328
Raw,2.67242747e+05,1064,328
Raw,3.32866782e+05,1065,328
Raw,3.35693241e+05,1066,328
Raw,5.02072843e+05,1067,328
Raw,3.11529628e+05,1068,328
Raw,3.09964032e+05,1069,328
Raw,3.12417994e+05,1070,328
Raw,2.96092504e+05,1071,328
Raw,2.3952418e+05,1072,328
Raw,3.2299831e+05,1073,328
Raw,3.86038723e+05,1074,328
Raw,24047.64,1074,328
Raw,4.11126292e+05,1075,328
Raw,7.57337639e+05,1076,328
Raw,3.46952877e+05,1076,328
Raw,4.29576872e+05,1077,328
Raw,3.99073162e+05,1079,328
Raw,3.9906971e+05,1081,328
Raw,3.02132557e+05,1083,328
Raw,3.0073398e+05,1084,328
Raw,2.96632577e+05,1085,328
Raw,5.80844562e+05,1086,328
Raw,3.18097708e+05,1086,328
Raw,2.8945614e+05,1087,328
Raw,3.68580278e+05,1088,328
Raw,2.78942698e+05,1089,328
Raw,2.34540557e+05,1090,328
Raw,3.53248052e+05,1092,328
Raw,3.84670745e+05,1093,328
Raw,2.47714526e+05,1094,328
Raw,2.48016329e+05,1095,328
Raw,3.17351962e+05,1096,328
Raw,3.37963512e+05,1097,328
Raw,2.16109878e+05,1098,328
Raw,2.12161609e+05,1099,328
Raw,3.20020871e+05,1100,328
Raw,1.90840918e+05,1101,328
Raw,2.88172528e+05,1102,328
Raw,2.86027116e+05,1103,328
Raw,3.34114634e+05,1104,328
Raw,7.83388522e+05,1105,328
Raw,2.73691992e+05,1106,328
Raw,2.97795933e+05,1107,328
Raw,6.29327516e+05,1108,328
Raw,3.91187813e+05,1109,328
Raw,2.64612772e+05,1110,328
Raw,3.28674376e+05,1111,328
Raw,3.22998072e+05,1112,328
Raw,3.93698115e+05,1113,328
Raw,3.64733855e+05,1114,328
Raw,3.25229942e+05,1115,328
Raw,2.93480685e+05,1116,328
Raw,7137.3275,1117,328
Raw,2.7731893e+05,1118,328
Raw,2.49292676e+05,1119,328
Raw,1.98472033e+05,1120,328
Raw,3.58887929e+05,1121,328
Raw,2.65317816e+05,1122,328
Raw,3.2454897e+05,1123,328
Raw,1.79445078e+05,1124,328
Raw,78048.28,1125,328
Raw,3.27556833e+05,1125,328
Raw,3.06514486e+05,1126,328
Raw,2.12704776e+05,1127,328
Raw,2.50696353e+05,1128,328
Raw,3.37584854e+05,1129,328
Raw,2.06161744e+05,1130,328
Raw,28634.172,1131,328
Raw,95544.231,1132,328
Raw,3.36680469e+05,1133,328
Raw,3.0678714e+05,1134,328
Raw,2.80447685e+05,1135,328
Raw,3.19804005e+05,1136,328
Raw,3.99591881e+05,1137,328
Raw,2.95551184e+05,1138,328
Raw,2.15789485e+05,1139,328
Raw,3.03112739e+05,1140,328
Raw,3.10477522e+05,1141,328
Raw,2.91718506e+05,1143,328
Raw,3.55104369e+05,1144,328
Raw,2.9603408e+05,1145,328
Raw,3.24282801e+05,1146,328
Raw,3.1385596e+05,1147,328
Raw,1.4657141e+05,1148,328
Raw,3.30849346e+05,1149,328
Raw,2.32941765e+05,1150,328
Raw,8689.327,1150,328
Raw,2.3922887e+05,1151,328
Raw,17108.596,1152,328
Raw,1.83951238e+05,1152,328
Raw,3.49986605e+05,1153,328
Raw,2.24619948e+05,1154,328
Raw,3.44354639e+05,1155,328
Raw,2.96371741e+05,1157,328
Raw,3.24804476e+05,1158,328
Raw,2.6861915e+05,1159,328
Raw,2.33176448e+05,1161,328
Raw,3.88105538e+05,1162,328
Raw,2.53479521e+05,1163,328
Raw,2.90147327e+05,1164,328
Raw,2.38025376e+05,1165,328
Raw,2.80687939e+05,1166,328
Raw,3.14343458e+05,1168,328
Raw,2.44711257e+05,1169,328
Raw,2.98442836e+05,1170,328
Raw,28848.385,1170,328
Raw,2.94567502e+05,1172,328
Raw,2.5033998e+05,1173,328
Raw,4.96766461e+05,1174,328
Raw,4.50659879e+05,1175,328
Raw,28033.916,1175,328
Raw,3.07309673e+05,1176,328
Raw,3.12815505e+05,1177,328
Raw,3.55918452e+05,1178,328
Raw,3.44646615e+05,1179,328
Raw,99656.229,1179,328
Raw,4.18483357e+05,1181,328
Raw,2.91820064e+05,1182,328
Raw,3.03557803e+05,1184,328
Raw,5.23648646e+05,1185,328
Raw,61745.592,1185,328
Raw,3.24179547e+05,1186,328
Raw,3.43485968e+05,1187,328
Raw,2.67312939e+05,1189,328
Raw,2.53706581e+05,1190,328
Raw,2.97422815e+05,1191,328
Raw,4.7044322e+05,1192,328
Raw,3.07007827e+05,1193,328
Raw,2.70161806e+05,1194,328
Raw,2.51833775e+05,1195,328
Raw,3.43800918e+05,1196,328
Raw,2.7385524e+05,1197,328
Raw,3.30137025e+05,1198,328
Raw,2.62857961e+05,1199,328
Raw,2.52700701e+05,1200,328
Raw,2.65436267e+05,1201,328
Raw,2.96898847e+05,1202,328
Raw,3.64622666e+05,1203,328
Raw,3.20762493e+05,1204,328
Raw,2.98370441e+05,1205,328
Raw,3.68313634e+05,1206,328
Raw,4.85512609e+05,1207,328
Raw,2.3699121e+05,1208,328
Raw,2.7856378e+05,1209,328
Raw,1.13415073e+05,1209,328
Raw,3.98383038e+05,1210,328
Raw,2.80171796e+05,1211,328
Raw,2.01495699e+05,1213,328
Raw,2.73209416e+05,1214,328
Raw,1.87694797e+05,1215,328
Raw,3.10781401e+05,1216,328
Raw,3.02289193e+05,1217,328
Raw,2.96463221e+05,1218,328
Raw,3.99044111e+05,1219,328
Raw,2.80361558e+05,1220,328
Raw,3.08388594e+05,1221,328
Raw,1.91443526e+05,1222,328
Raw,2.37050523e+05,1223,328
Raw,90393.59,1224,328
Raw,33589.655,1224,328
Raw,3.13430327e+05,1225,328
Raw,3.46847832e+05,1226,328
Raw,2.73270485e+05,1227,328
Raw,3.47305435e+05,1228,328
Raw,3.20688621e+05,1229,328
Raw,2.84537784e+05,1231,328
Raw,3.87409172e+05,1232,328
Raw,2.9164795e+05,1233,328
Raw,2.67831696e+05,1234,328
Raw,3.2440441e+05,1235,328
Raw,1.214806e+05,1236,328
Raw,73858.053,1236,328
Raw,2.54697196e+05,1237,328
Raw,2.26729562e+05,1238,328
Raw,4.28098349e+05,1239,328
Raw,2.85631947e+05,1240,328
Raw,3.28725335e+05,1241,328
Raw,3.02512809e+05,1242,328
Raw,3.35420215e+05,1243,328
Raw,2.7493244e+05,1244,328
Raw,3.59100001e+05,1245,328
Raw,3.59637779e+05,1246,328
Raw,2.37371714e+05,1247,328
Raw,2.41796903e+05,1248,328
Raw,3.26096062e+05,1249,328
Raw,3.0637459e+05,1250,328
Raw,2.46593235e+05,1251,328
Raw,3.55177808e+05,1252,328
Raw,6.15191905e+05,1253,328
Raw,3.31424054e+05,1254,328
Raw,2.73889666e+05,1255,328
Raw,1.56830219e+05,1256,328
Raw,3.19577977e+05,1257,328
Raw,3.49854109e+05,1258,328
Raw,9.13479698e+05,1259,328
Raw,2.79089061e+05,1259,328
Raw,4.6787408e+05,1260,328
Raw,3.44756915e+05,1261,328
Raw,3.26411455e+05,1262,328
Raw,3.20544996e+05,1263,328
Raw,3.01296941e+05,1264,328
Raw,3.58529252e+05,1265,328
Raw,3.40887942e+05,1266,328
Raw,4.55800614e+05,1268,328
Raw,2.11835044e+05,1269,328
Raw,3.49381872e+05,1270,328
Raw,3.06682435e+05,1271,328
Raw,29213.552,1273,328
Raw,3.0519563e+05,1274,328
Raw,1.8949082e+05,1276,328
Raw,2.56108609e+05,1277,328
Raw,3.04670664e+05,1278,328
Raw,2.49313569e+05,1280,328
Raw,2.81954804e+05,1281,328
Raw,2.76365425e+05,1282,328
Raw,3.53758533e+05,1283,328
Raw,3.3734706e+05,1284,328
Raw,44838.281,1284,328
Raw,2.97079398e+05,1285,328
Raw,3.40507212e+05,1286,328
Raw,3.78332681e+05,1287,328
Raw,4.94994877e+05,1288,328
Raw,3.45113429e+05,1289,328
Raw,2.86203681e+05,1290,328
Raw,2.72007267e+05,1291,328
Raw,3.8389223e+05,1292,328
Raw,3.20651935e+05,1293,328
Raw,2.35751683e+05,1294,328
Raw,3.19401824e+05,1295,328
Raw,3.98852101e+05,1296,328
Raw,91994.052,1296,328
Raw,2.5097326e+05,1297,328
Raw,3.50995573e+05,1298,328
Raw,2.08369343e+05,1298,328
Raw,1.94887686e+05,1299,328
Raw,2.23908806e+05,1300,328
Raw,2.61087978e+05,1301,328
Raw,2.8742915e+05,1302,328
Raw,2.91725983e+05,1303,328
Raw,2.48224272e+05,1304,328
Raw,2.8798071e+05,1305,328
Raw,4.04933537e+05,1306,328
Raw,4.2086327e+05,1307,328
Raw,2.46033527e+05,1308,328
Raw,2.83406347e+05,1309,328
Raw,2.95896439e+05,1310,328
Raw,2.57988621e+05,1311,328
Raw,2.97702172e+05,1312,328
Raw,2.98772607e+05,1313,328
Raw,3.14084885e+05,1314,328
Raw,3.37791955e+05,1315,328
Raw,2.51977989e+05,1316,328
Raw,4.00232025e+05,1317,328
Raw,2.21035673e+05,1319,328
Raw,3.82443783e+05,1320,328
Raw,2.26447333e+05,1321,328
Raw,3.47822886e+05,1322,328
Raw,1.3501061e+05,1322,328
Raw,3.12056273e+05,1323,328
Raw,3.19439899e+05,1324,328
Raw,2.92700131e+05,1325,328
Raw,4.99685437e+05,1326,328
Raw,5.53703481e+05,1327,328
Raw,2.08130698e+05,1328,328
Raw,2.43470668e+05,1329,328
Raw,5.81269881e+05,1330,328
Raw,3.7672529e+05,1331,328
Raw,3.11257509e+05,1332,328
Raw,4.94410837e+05,1333,328
Raw,2.07919982e+05,1334,328
Raw,3.28208065e+05,1335,328
Raw,3.22938109e+05,1337,328
Raw,2.85776108e+05,1338,328
Raw,2.44226168e+05,1339,328
Raw,2.52327832e+05,1340,328
Raw,4.82980606e+05,1342,328
Raw,4.53949349e+05,1343,328
Raw,2.6549929e+05,1344,328
Raw,3.18183194e+05,1345,328
Raw,3.21680977e+05,1347,328
Raw,3.40248435e+05,1348,328
Raw,3.76000327e+05,1350,328
Raw,6.21524484e+05,1351,328
Raw,2.93139559e+05,1352,328
Raw,3.8533819e+05,1354,328
Raw,2.75586098e+05,1355,328
Raw,2.24595231e+05,1356,328
Raw,3.01886043e+05,1357,328
Raw,2.70932196e+05,1358,328
Raw,2.86968183e+05,1359,328
Raw,4.52225072e+05,1360,328
Raw,2.88536695e+05,1361,328
Raw,3.82435736e+05,1362,328
Raw,3.27322876e+05,1363,328
Raw,1.13173614e+05,1363,328
Raw,2.74998071e+05,1364,328
Raw,3.62053324e+05,1365,328
Raw,3.34818021e+05,1366,328
Raw,2.33454234e+05,1367,328
Raw,2.13383348e+05,1368,328
Raw,3.49437713e+05,1369,328
Raw,2.80988586e+05,1370,328
Raw,79979.311,1370,328
Raw,3.301203e+05,1372,328
Raw,2.96040747e+05,1373,328
Raw,2.55520115e+05,1374,328
Raw,1.81353295e+05,1375,328
Raw,3.27574013e+05,1376,328
Raw,3.7426208e+05,1377,328
Raw,2.97604238e+05,1378,328
Raw,3.18460443e+05,1380,328
Raw,2.44809772e+05,1381,328
Raw,2.64090904e+05,1382,328
Raw,3.29269226e+05,1384,328
Raw,2.73612486e+05,1385,328
Raw,3.11587879e+05,1386,328
Raw,2.96873833e+05,1387,328
Raw,2.44276742e+05,1388,328
Raw,3.00019909e+05,1389,328
Raw,2.95007631e+05,1390,328
Raw,3.06228054e+05,1391,328
Raw,2.64305569e+05,1392,328
Raw,2.86403455e+05,1393,328
Raw,2.75622392e+05,1394,328
Raw,5.34897141e+05,1395,328
Raw,1.36695135e+05,1396,328
Raw,3.43837471e+05,1397,328
Raw,3.285043e+05,1398,328
Raw,2.45070056e+05,1399,328
Raw,2.20436743e+05,1400,328
Raw,5.33191271e+05,1401,328
Raw,4.3228077e+05,1402,328
Raw,3.38455041e+05,1404,328
Raw,3.87267227e+05,1405,328
Raw,2.31464634e+05,1406,328
Raw,3.05703431e+05,1407,328
Raw,3.02553434e+05,1408,328
Raw,3.41008684e+05,1410,328
Raw,4.12866248e+05,1411,328
Raw,1.96548461e+05,1412,328
Raw,3.16066297e+05,1413,328
Raw,94228.669,1414,328
Raw,2.24517556e+05,1414,328
Raw,4.28744842e+05,1415,328
Raw,3.82213565e+05,1416,328
Raw,3.01444817e+05,1417,328
Raw,3.08663207e+05,1418,328
Raw,3.14815471e+05,1420,328
Raw,2.76016052e+05,1421,328
Raw,2.6683623e+05,1422,328
Raw,2.47217503e+05,1423,328
Raw,1.49352955e+05,1424,328
Raw,3.52694175e+05,1425,328
Raw,3.04601925e+05,1426,328
Raw,3.04035685e+05,1427,328
Raw,8.53151149e+05,1428,328
Raw,4.04286165e+05,1428,328
Raw,2.51164592e+05,1429,328
Raw,2.94627684e+05,1430,328
Raw,5.57877384e+05,1431,328
Raw,2.51869469e+05,1432,328
Raw,3.47086008e+05,1433,328
Raw,2.65896024e+05,1434,328
Raw,4.37984503e+05,1435,328
Raw,2.94258772e+05,1436,328
Raw,1.07902831e+05,1436,328
Raw,2.70018704e+05,1437,328
Raw,3.66668661e+05,1438,328
Raw,2.79569679e+05,1439,328
Raw,3.24377143e+05,1440,328
Raw,2.32083639e+05,1441,328
Raw,3.08447512e+05,1442,328
Raw,1.12784485e+05,1443,328
Raw,3.29372679e+05,1444,328
Raw,3.39340409e+05,1445,328
Raw,2.57801161e+05,1446,328
Raw,3.67317495e+05,1447,328
Raw,2.79745134e+05,1448,328
Raw,1.22056747e+05,1449,328
Raw,3.17534374e+05,1449,328
Raw,3.67389405e+05,1450,328
Raw,2.70456658e+05,1451,328
Raw,3.28286959e+05,1453,328
Raw,3.15602117e+05,1454,328
Raw,4.01037979e+05,1455,328
Raw,2.9459512e+05,1456,328
Raw,7.02867431e+05,1457,328
Raw,3.7261139e+05,1458,328
Raw,3.25013654e+05,1459,328
Raw,2.46707087e+05,1460,328
Raw,1.16050872e+05,1460,328
Raw,3.83653892e+05,1461,328
Raw,2.23931895e+05,1462,328
Raw,2.68902902e+05,1463,328
Raw,1.50926533e+05,1464,328
Raw,2.6314605e+05,1466,328
Raw,3.29783226e+05,1467,328
Raw,3.35905265e+05,1468,328
Raw,6.12925305e+05,1469,328
Raw,86245.256,1469,328
Raw,3.53714395e+05,1470,328
Raw,3.19633638e+05,1471,328
Raw,3.12025497e+05,1472,328
Raw,2.94046379e+05,1473,328
Raw,3.46308069e+05,1474,328
Raw,5.54296925e+05,1475,328
Raw,3.39118215e+05,1476,328
Raw,3.02658382e+05,1477,328
Raw,3.86046208e+05,1478,328
Raw,2.36699514e+05,1479,328
Raw,3.06124103e+05,1480,328
Raw,2.80935599e+05,1481,328
Raw,2.99128846e+05,1482,328
Raw,2.88937105e+05,1483,328
Raw,1.06291059e+05,1483,328
Raw,1.95099641e+05,1484,328
Raw,2.16920133e+05,1485,328
Raw,3.46609292e+05,1486,328
Raw,3.08047465e+05,1487,328
Raw,2.97468998e+05,1488,328
Raw,2.60322504e+05,1489,328
Raw,5.04916388e+05,1490,328
Raw,1.84822168e+05,1491,328
Raw,3.28705814e+05,1492,328
Raw,2.38990601e+05,1493,328
Raw,1.86536612e+05,1494,328
Raw,2.30141528e+05,1495,328
Raw,3.10427281e+05,1497,328
Raw,3.1827114e+05,1498,328
Raw,3.20652128e+05,1499,328
Raw,2.74203853e+05,1500,328
Raw,2.71249019e+05,1501,328
Raw,1.61710193e+05,1502,328
Raw,3.54931088e+05,1503,328
Raw,6.16625485e+05,1504,328
Raw,2.5576737e+05,1505,328
Raw,1.95778788e+05,1506,328
Raw,3.40877776e+05,1507,328
Raw,3.19371231e+05,1508,328
Raw,32225.657,1509,328
Raw,3.25311344e+05,1510,328
Raw,2.89766732e+05,1511,328
Raw,1.98482896e+05,1512,328
Raw,2.97185861e+05,1513,328
Raw,2.51848866e+05,1514,328
Raw,3.46209281e+05,1515,328
Raw,3.0171404e+05,1517,328
Raw,3.18679734e+05,1518,328
Raw,1.87808606e+05,1519,328
Raw,3.2168462e+05,1521,328
Raw,2.76038204e+05,1522,328
Raw,2.99911683e+05,1523,328
Raw,3.14280512e+05,1524,328
Raw,3.08551165e+05,1525,328
Raw,2.60826609e+05,1526,328
Raw,2.66660635e+05,1527,328
Raw,3.05585009e+05,1528,328
Raw,2.83618494e+05,1529,328
Raw,2.20591741e+05,1530,328
Raw,3.15698123e+05,1531,328
Raw,2.83880815e+05,1532,328
Raw,2.48814734e+05,1533,328
Raw,3.02205844e+05,1534,328
Raw,3.52845079e+05,1535,328
Raw,2.96255933e+05,1536,328
Raw,1.96914864e+05,1537,328
Raw,3.05858878e+05,1538,328
Raw,1.52445569e+05,1539,328
Raw,3.68568676e+05,1540,328
Raw,4.09314363e+05,1541,328
Raw,3.13762663e+05,1543,328
Raw,1.43051161e+05,1544,328
Raw,3.73761587e+05,1545,328
Raw,3.56586619e+05,1546,328
Raw,3.88822235e+05,1547,328
Raw,3.14755245e+05,1548,328
Raw,3.11258565e+05,1549,328
Raw,3.01765212e+05,1550,328
Raw,2.34885241e+05,1551,328
Raw,2.55100292e+05,1552,328
Raw,3.09504351e+05,1553,328
Raw,3.30997192e+05,1554,328
Raw,2.07407468e+05,1555,328
Raw,2.9627429e+05,1556,328
Raw,2.9740771e+05,1557,328
Raw,1.10055609e+05,1558,328
Raw,2.22312859e+05,1558,328
Raw,2.33345554e+05,1559,328
Raw,3.28290106e+05,1561,328
Raw,2.99191593e+05,1562,328
Raw,3.77260339e+05,1563,328
Raw,2.36693308e+05,1564,328
Raw,1.30677788e+05,1566,328
Raw,2.49069117e+05,1567,328
Raw,3.35642335e+05,1568,328
Raw,2.60338213e+05,1569,328
Raw,3.17880352e+05,1570,328
Raw,3.61589602e+05,1571,328
Raw,2.86911022e+05,1572,328
Raw,1.50682735e+05,1573,328
Raw,2.54863277e+05,1574,328
Raw,2.46443241e+05,1575,328
Raw,2.93228449e+05,1576,328
Raw,2.56927643e+05,1577,328
Raw,3.23682202e+05,1578,328
Raw,2.43982509e+05,1579,328
Raw,2.47944461e+05,1580,328
Raw,2.6014259e+05,1581,328
Raw,3.40728636e+05,1582,328
Raw,2.74303086e+05,1583,328
Raw,2.46086013e+05,1584,328
Raw,2.53548798e+05,1585,328
Raw,2.32377883e+05,1586,328
Raw,1.74393438e+05,1587,328
Raw,3.66792784e+05,1588,328
Raw,4.76479797e+05,1589,328
Raw,2.62076108e+05,1590,328
Raw,1.92638122e+05,1591,328
Raw,3.05488137e+05,1592,328
Raw,2.76110707e+05,1593,328
Raw,8057.6333,1593,328
Raw,3.250839e+05,1594,328
Raw,2.59550593e+05,1595,328
Raw,3.7779803e+05,1596,328
Raw,2.92998887e+05,1597,328
Raw,1.80228831e+05,1598,328
Raw,2.66440293e+05,1599,328
Raw,3.50513272e+05,1600,328
Raw,2.68676259e+05,1601,328
Raw,2.60433992e+05,1602,328
Raw,2.79148918e+05,1603,328
Raw,1.09229944e+05,1603,328
Raw,3.00159726e+05,1604,328
Raw,3.60681647e+05,1605,328
Raw,3.2441785e+05,1606,328
Raw,3.07285399e+05,1607,328
Raw,2.80248959e+05,1608,328
Raw,1.58455467e+05,1609,328
Raw,2.28818321e+05,1611,328
Raw,2.82698579e+05,1612,328
Raw,1.32993907e+05,1613,328
Raw,2.82846019e+05,1614,328
Raw,4.64597593e+05,1615,328
Raw,3.08284093e+05,1616,328
Raw,3.08605152e+05,1617,328
Raw,14004.084,1617,328
Raw,3.22029501e+05,1618,328
Raw,2.73242974e+05,1619,328
Raw,3.30406726e+05,1620,328
Raw,5.07031243e+05,1621,328
Raw,4.87270934e+05,1621,328
Raw,3.11793121e+05,1622,328
Raw,3.6514135e+05,1623,328
Raw,3.30574285e+05,1624,328
Raw,3.1557474e+05,1625,328
Raw,2.21282423e+05,1626,328
Raw,4.02837869e+05,1628,328
Raw,2.96349907e+05,1629,328
Raw,3.80028273e+05,1630,328
Raw,2.703396e+05,1631,328
Raw,22911.449,1631,328
Raw,3.54683212e+05,1632,328
Raw,27716.381,1632,328
Raw,2.40966613e+05,1633,328
Raw,3.29538249e+05,1634,328
Raw,3.24501661e+05,1635,328
Raw,3.63241412e+05,1636,328
Raw,2.81443124e+05,1637,328
Raw,2.52085427e+05,1638,328
Raw,4.73641856e+05,1639,328
Raw,2.7713809e+05,1640,328
Raw,88147.028,1641,328
Raw,2.7912675e+05,1641,328
Raw,3.28161757e+05,1642,328
Raw,1.8604263e+05,1643,328
Raw,2.88278822e+05,1644,328
Raw,2.25003937e+05,1645,328
Raw,2.59743533e+05,1646,328
Raw,3.1621081e+05,1647,328
Raw,2.90134813e+05,1648,328
Raw,1.9843319e+05,1649,328
Raw,3.37718408e+05,1650,328
Raw,20765.052,1650,328
Raw,4.20960078e+05,1651,328
Raw,3.03684747e+05,1652,328
Raw,2.6249851e+05,1653,328
Raw,3.44769009e+05,1654,328
Raw,2.99850562e+05,1655,328
Raw,3.2906217e+05,1656,328
Raw,2.21447272e+05,1657,328
Raw,2.99650807e+05,1658,328
Raw,3.14806069e+05,1659,328
Raw,2.33453341e+05,1660,328
Raw,3.11794252e+05,1661,328
Raw,3.48475958e+05,1662,328
Raw,3.69261519e+05,1663,328
Raw,3.04073816e+05,1664,328
Raw,4.06103958e+05,1666,328
Raw,1.94160408e+05,1667,328
Raw,2.71255038e+05,1668,328
Raw,3.26339362e+05,1669,328
Raw,2.78896767e+05,1670,328
Raw,1.33493199e+05,1671,328
Raw,1.71532394e+05,1672,328
Raw,3.39514183e+05,1673,328
Raw,3.09001432e+05,1674,328
Raw,1.18629608e+05,1674,328
Raw,3.5842376e+05,1675,328
Raw,3.6967392e+05,1677,328
Raw,3.00735255e+05,1678,328
Raw,3.59442123e+05,1679,328
Raw,4.23343044e+05,1680,328
Raw,3.12409435e+05,1681,328
Raw,6.95968569e+05,1682,328
Raw,2.84067675e+05,1683,328
Raw,2.47406512e+05,1684,328
Raw,4.17289323e+05,1685,328
Raw,2.86516353e+05,1686,328
Raw,2.66645778e+05,1687,328
Raw,2.71962995e+05,1688,328
Raw,1.76956741e+05,1689,328
Raw,3.07393581e+05,1691,328
Raw,3.61178835e+05,1692,328
Raw,2.3738161e+05,1693,328
Raw,2.68258837e+05,1694,328
Raw,1.43346284e+05,1695,328
Raw,2.91888959e+05,1696,328
Raw,2.53514065e+05,1697,328
Raw,3.23730333e+05,1698,328
Raw,1.42411291e+05,1699,328
Raw,43457.529,1700,328
Raw,2.92184399e+05,1700,328
Raw,3.09520757e+05,1703,328
Raw,2.38292948e+05,1704,328
Raw,2.82948761e+05,1705,328
Raw,2.75290368e+05,1708,328
Raw,2.24767917e+05,1709,328
Raw,3.33540157e+05,1710,328
Raw,2.9329418e+05,1712,328
Raw,2.29264665e+05,1713,328
Raw,4.0295987e+05,1714,328
Raw,4.48913825e+05,1715,328
Raw,3.7796253e+05,1716,328
Raw,2.51622486e+05,1719,328
Raw,1.88251772e+05,1722,328
Raw,2.13273122e+05,1723,328
Raw,39153.84,1723,328
Raw,2.5435273e+05,1724,328
Raw,2.26049737e+05,1726,328
Raw,42630.592,1727,328
Raw,3.13879801e+05,1728,328
Raw,2.62003005e+05,1729,328
Raw,36694.726,1730,328
Raw,3.36993351e+05,1731,328
Raw,2.96752446e+05,1732,328
Raw,5.91323058e+05,1733,328
Raw,3.09907924e+05,1734,328
Raw,26605.133,1736,328
Raw,1.94143548e+05,1737,328
Raw,3.4003609e+05,1738,328
Raw,2.92217742e+05,1741,328
Raw,3.7847713e+05,1742,328
Raw,3.03558144e+05,1743,328
Raw,1.6724195e+05,1744,328
Raw,3.18718448e+05,1745,328
Raw,3.47763428e+05,1746,328
Raw,4.03767323e+05,1747,328
Raw,3.18179358e+05,1748,328
Raw,1.70546439e+05,1750,328
Raw,2.68004513e+05,1751,328
Raw,2.34334324e+05,1752,328
Raw,2.8687156e+05,1753,328
Raw,2.91907742e+05,1754,328
Raw,1.82505735e+05,1755,328
Raw,2.75990073e+05,1758,328
Raw,3.14279616e+05,1759,328
Raw,2.37152781e+05,1760,328
Raw,3.32837559e+05,1761,328
Raw,2.42276748e+05,1762,328
Raw,3.25232705e+05,1763,328
Raw,2.9492133e+05,1763,328
Raw,2.04569053e+05,1764,328
Raw,35082.433,1764,328
Raw,3.19008802e+05,1765,328
Raw,2.42106948e+05,1766,328
Raw,2.73426378e+05,1767,328
Raw,2.81301807e+05,1769,328
Raw,2.37698714e+05,1770,328
Raw,3.19097112e+05,1771,328
Raw,2.6266326e+05,1772,328
Raw,3.06856691e+05,1773,328
Raw,3.23456217e+05,1774,328
Raw,3.28953415e+05,1775,328
Raw,2.91197861e+05,1776,328
Raw,3.38338307e+05,1777,328
Raw,3.4892998e+05,1778,328
Raw,3.06794229e+05,1779,328
Raw,3.07661899e+05,1780,328
Raw,3.20368245e+05,1781,328
Raw,3.33235923e+05,1782,328
Raw,2.53231705e+05,1783,328
Raw,2.87132893e+05,1785,328
Raw,3.60412045e+05,1786,328
Raw,3.70289192e+05,1787,328
Raw,3.06802225e+05,1788,328
Raw,3.61408915e+05,1790,328
Raw,3.06492988e+05,1791,328
Raw,2.10199163e+05,1792,328
Raw,2.94866431e+05,1793,328
Raw,1.89244708e+05,1794,328
Raw,2.76014336e+05,1795,328
Raw,71818.809,1796,328
Raw,2.80121821e+05,1796,328
Raw,38083.249,1797,328
Raw,2.88982972e+05,1798,328
Raw,3.88374753e+05,1799,328
Raw,4.93863367e+05,1800,328
Raw,2.91226338e+05,1801,328
Raw,2.92993292e+05,1803,328
Raw,2.73595226e+05,1805,328
Raw,3.41609842e+05,1806,328
Raw,3.31687834e+05,1807,328
Raw,3.18457681e+05,1808,328
Raw,2.84699449e+05,1809,328
Raw,3.16669361e+05,1810,328
Raw,2.78661476e+05,1811,328
Raw,3.07377826e+05,1812,328
Raw,5158.4264,1812,328
Raw,2.78649882e+05,1813,328
Raw,3.05928686e+05,1814,328
Raw,1.60372265e+05,1816,328
Raw,2.65791896e+05,1817,328
Raw,2.59787478e+05,1818,328
Raw,2.96147302e+05,1819,328
Raw,3.18238541e+05,1820,328
Raw,3.6016133e+05,1821,328
Raw,2.99432337e+05,1822,328
Raw,3.11639702e+05,1823,328
Raw,2.88261525e+05,1824,328
Raw,3.39359709e+05,1825,328
Raw,3.83917795e+05,1826,328
Raw,3.95837896e+05,1827,328
Raw,4.28652223e+05,1829,328
Raw,4.42948061e+05,1830,328
Raw,1.70064399e+05,1831,328
Raw,4.07503291e+05,1832,328
Raw,4.35480448e+05,1833,328
Raw,3.13141762e+05,1834,328
Raw,87711.407,1835,328
Raw,3.35605986e+05,1837,328
Raw,1.52360316e+05,1838,328
Raw,2.13389532e+05,1838,328
Raw,3.52257257e+05,1839,328
Raw,2.87399902e+05,1840,328
Raw,3.65653326e+05,1841,328
Raw,2.55722651e+05,1842,328
Raw,2.96101132e+05,1843,328
Raw,2.65023343e+05,1844,328
Raw,2.66859103e+05,1845,328
Raw,3.62709969e+05,1846,328
Raw,1.44965041e+05,1847,328
Raw,3.21712932e+05,1848,328
Raw,3.71972777e+05,1849,328
Raw,2.78884654e+05,1850,328
Raw,1.84860348e+05,1852,328
Raw,1.29586715e+05,1853,328
Raw,4.71104934e+05,1854,328
Raw,2.32929091e+05,1855,328
Raw,3.35414068e+05,1856,328
Raw,3.00229335e+05,1857,328
Raw,3.27610152e+05,1859,328
Raw,1.43508497e+05,1860,328
Raw,4.12266167e+05,1861,328
Raw,3.59621761e+05,1862,328
Raw,4.33002182e+05,1864,328
Raw,2.88296786e+05,1865,328
Raw,2.98268927e+05,1866,328
Raw,3.74516082e+05,1867,328
Raw,3.29888224e+05,1868,328
Raw,2.90843845e+05,1869,328
Raw,74355.655,1869,328
Raw,47114.428,1869,328
Raw,2.81373551e+05,1870,328
Raw,2.92531032e+05,1871,328
Raw,9573.0969,1873,328
Raw,3.37080098e+05,1874,328
Raw,3.24035164e+05,1875,328
Raw,2.22779799e+05,1876,328
Raw,2.30287549e+05,1877,328
Raw,6.77566066e+05,1878,328
Raw,3.00761638e+05,1879,328
Raw,3.92455005e+05,1880,328
Raw,3.49297504e+05,1881,328
Raw,2.97168561e+05,1882,328
Raw,2.95655258e+05,1883,328
Raw,3.05914805e+05,1885,328
Raw,4.09603136e+05,1886,328
Raw,3.47121195e+05,1887,328
Raw,3.02087732e+05,1888,328
Raw,2.5778866e+05,1889,328
Raw,2.83435862e+05,1890,328
Raw,3.18313e+05,1891,328
Raw,2.60963559e+05,1892,328
Raw,3.68544718e+05,1893,328
Raw,2.75150041e+05,1894,328
Raw,3.52558799e+05,1895,328
Raw,3.888756e+05,1896,328
Raw,5.65278974e+05,1898,328
Raw,2.33285705e+05,1898,328
Raw,2.41561874e+05,1899,328
Raw,6.76152973e+05,1900,328
Raw,2.25743993e+05,1901,328
Raw,3.74403159e+05,1902,328
Raw,2.95157461e+05,1903,328
Raw,3.58138507e+05,1904,328
Raw,3.0070251e+05,1905,328
Raw,2.73780254e+05,1905,328
Raw,3.23526309e+05,1906,328
Raw,3.26997394e+05,1907,328
Raw,2.92251041e+05,1908,328
Raw,2.84456088e+05,1909,328
Raw,2.84478353e+05,1910,328
Raw,3.82194712e+05,1911,328
Raw,3.47237767e+05,1912,328
Raw,2.87998972e+05,1913,328
Raw,2.41048197e+05,1914,328
Raw,3.6892966e+05,1915,328
Raw,3.17340199e+05,1917,328
Raw,2.36557173e+05,1919,328
Raw,3.530884e+05,1921,328
Raw,3.40809547e+05,1922,328
Raw,28826.66,1922,328
Raw,3.21739953e+05,1923,328
Raw,2.09374622e+05,1924,328
Raw,2.96246483e+05,1925,328
Raw,4.14111947e+05,1926,328
Raw,2.92075442e+05,1928,328
Raw,3.31476672e+05,1929,328
Raw,73567.31,1929,328
Raw,3.28137576e+05,1930,328
Raw,4.15073343e+05,1931,328
Raw,2.40977931e+05,1932,328
Raw,6.61612938e+05,1933,328
Raw,3.02448781e+05,1934,328
Raw,2.2535411e+05,1935,328
Raw,1.58129931e+05,1936,328
Raw,4.22959317e+05,1937,328
Raw,1.7623277e+05,1939,328
Raw,3.80068711e+05,1940,328
Raw,3.67074099e+05,1941,328
Raw,2.54084132e+05,1943,328
Raw,2.55891613e+05,1944,328
Raw,19048.896,1944,328
Raw,3.05209161e+05,1945,328
Raw,2.66533107e+05,1946,328
Raw,2.89421642e+05,1947,328
Raw,2.98451507e+05,1948,328
Raw,3.10627848e+05,1949,328
Raw,3.34753307e+05,1950,328
Raw,3.65971084e+05,1951,328
Raw,3.13152966e+05,1953,328
Raw,1.63323713e+05,1954,328
Raw,3.73972617e+05,1955,328
Raw,3.27635526e+05,1956,328
Raw,3.19819362e+05,1957,328
Raw,3.06369204e+05,1958,328
Raw,1.34778207e+05,1958,328
Raw,3.77643161e+05,1959,328
Raw,3.91329062e+05,1960,328
Raw,2.69744981e+05,1961,328
Raw,3.74621043e+05,1962,328
Raw,2.74639884e+05,1963,328
Raw,2.57213558e+05,1964,328
Raw,2.32552424e+05,1965,328
Raw,3.14987231e+05,1967,328
Raw,4.0577971e+05,1968,328
Raw,3.12389177e+05,1969,328
Raw,3.7944394e+05,1970,328
Raw,2.48088315e+05,1971,328
Raw,5.4058862e+05,1972,328
Raw,2.59620907e+05,1973,328
Raw,3.76336671e+05,1974,328
Raw,3.24074441e+05,1975,328
Raw,3.29223127e+05,1976,328
Raw,3.40524029e+05,1977,328
Raw,3.76881205e+05,1978,328
Raw,3.06516034e+05,1979,328
Raw,65015.407,1979,328
Raw,3.77560634e+05,1980,328
Raw,1.79361423e+05,1981,328
Raw,4.24261029e+05,1982,328
Raw,2.78481162e+05,1983,328
Raw,2.27748908e+05,1984,328
Raw,3.87022031e+05,1985,328
Raw,3.28452537e+05,1987,328
Raw,2.37990651e+05,1988,328
Raw,2.89524757e+05,1989,328
Raw,3.17688904e+05,1990,328
Raw,5.72532457e+05,1992,328
Raw,3.19530567e+05,1993,328
Raw,2.94200811e+05,1994,328
Raw,3.11236466e+05,1995,328
Raw,2.63711332e+05,1996,328
Raw,3.2627887e+05,1997,328
Raw,5.97188493e+05,1998,328
Raw,3.05877111e+05,1999,328
Raw,4.84656769e+05,2000,328
Raw,2.60092538e+05,2001,328
Raw,4.00451586e+05,2002,328
Raw,3.60383667e+05,2003,328
Raw,3.66043922e+05,2004,328
Raw,3.71264772e+05,2005,328
Raw,2.92455646e+05,2006,328
Raw,3.02122896e+05,2008,328
Raw,3.39089654e+05,2009,328
Raw,3.13992628e+05,2010,328
Raw,58526.196,2012,328
Raw,3.3527975e+05,2012,328
Raw,3.496069e+05,2013,328
Raw,5.13102064e+05,2014,328
Raw,3.67052636e+05,2015,328
Raw,2.67070593e+05,2016,328
Raw,2.87061229e+05,2017,328
Raw,3.49429135e+05,2019,328
Raw,26422.721,2019,328
Raw,3.2275978e+05,2020,328
Raw,2.61438691e+05,2021,328
Raw,2.52301199e+05,2022,328
Raw,2.09689109e+05,2023,328
Raw,3.37584316e+05,2024,328
Raw,6.05834642e+05,2025,328
Raw,4.23215289e+05,2026,328
Raw,3.70878237e+05,2027,328
Raw,3.28887561e+05,2028,328
Raw,3.90412226e+05,2029,328
Raw,2.1950867e+05,2030,328
Raw,43373.592,2031,328
Raw,1.53252815e+05,2031,328
Raw,3.57277614e+05,2032,328
Raw,16343.889,2032,328
Raw,3.17322859e+05,2035,328
Raw,1.92407323e+05,2036,328
Raw,6.02182531e+05,2037,328
Raw,7.80617333e+05,2037,328
Raw,3.46543001e+05,2038,328
Raw,2.52479166e+05,2039,328
Raw,3.07431475e+05,2040,328
Raw,3.41268994e+05,2041,328
Raw,3.15976299e+05,2042,328
Raw,2.63974373e+05,2043,328
Raw,2.95516541e+05,2044,328
Raw,3.12076033e+05,2045,328
Raw,3.00442552e+05,2046,328
Raw,3.80057782e+05,2047,328
Raw,2.15700794e+05,2048,328
Raw,3.55433462e+05,2049,328
Raw,3.29737636e+05,2050,328
Raw,1.08490168e+05,2051,328
Raw,2.62207211e+05,2051,328
Raw,2.68712794e+05,2052,328
Raw,2.54043969e+05,2053,328
Raw,3.16845538e+05,2054,328
Raw,2.98580071e+05,2055,328
Raw,3.68469092e+05,2056,328
Raw,2.46692097e+05,2056,328
Raw,2.90632849e+05,2057,328
Raw,3.62401659e+05,2058,328
Raw,3.38386591e+05,2059,328
Raw,25655.65,2060,328
Raw,3.53372245e+05,2061,328
Raw,2.66607384e+05,2062,328
Raw,18226.551,2063,328
Raw,3.57832427e+05,2064,328
Raw,1.58758974e+05,2065,328
Raw,2.91463585e+05,2066,328
Raw,4.11278994e+05,2067,328
Raw,4.98156011e+05,2068,328
Raw,2.99828107e+05,2069,328
Raw,3.39320164e+05,2070,328
Raw,3.10527744e+05,2071,328
Raw,3.12772645e+05,2072,328
Raw,2.78184225e+05,2073,328
Raw,3.01528579e+05,2074,328
Raw,89434.554,2074,328
Raw,2.08796102e+05,2075,328
Raw,3.32569618e+05,2076,328
Raw,3.53459517e+05,2077,328
Raw,2.69100699e+05,2078,328
Raw,3.34262561e+05,2079,328
Raw,57807.309,2079,328
Raw,2.56919652e+05,2080,328
Raw,2.89604458e+05,2081,328
Raw,94304.335,2082,328
Raw,3.90489908e+05,2083,328
Raw,3.15968034e+05,2084,328
Raw,2.56122955e+05,2085,328
Raw,2.43719564e+05,2086,328
Raw,3.00536626e+05,2087,328
Raw,2.64738595e+05,2088,328
Raw,14237.093,2088,328
Raw,2.35486011e+05,2089,328
Raw,14920.189,2090,328
Raw,7048.8073,2090,328
Raw,2.82163765e+05,2092,328
Raw,1.61139038e+05,2093,328
Raw,2.95181168e+05,2094,328
Raw,6.35437285e+05,2094,328
Raw,3.28778933e+05,2095,328
Raw,2.67524619e+05,2096,328
Raw,2.59884374e+05,2097,328
Raw,87327.327,2097,328
Raw,2.39754626e+05,2098,328
Raw,2.31433727e+05,2099,328
Raw,3.25427369e+05,2100,328
Raw,1.79514372e+05,2101,328
Raw,3.31743136e+05,2103,328
Raw,1.39419189e+05,2103,328
Raw,3.61761857e+05,2104,328
Raw,2.36649078e+05,2105,328
Raw,3.34722243e+05,2106,328
Raw,2.89208487e+05,2108,328
Raw,2.7126811e+05,2109,328
Raw,3.22699112e+05,2110,328
Raw,3.34849174e+05,2111,328
Raw,2.97986957e+05,2112,328
Raw,3.83863993e+05,2113,328
Raw,3.53447965e+05,2114,328
Raw,3.48368251e+05,2115,328
Raw,3.9263512e+05,2116,328
Raw,4.06862735e+05,2117,328
Raw,3.03973511e+05,2118,328
Raw,3.0887332e+05,2120,328
Raw,2.95989535e+05,2121,328
Raw,88687.853,2122,328
Raw,2.95158086e+05,2125,328
Raw,31165.202,2125,328
Raw,3.47656523e+05,2126,328
Raw,3.32382398e+05,2127,328
Raw,3.03443655e+05,2128,328
Raw,2.01979746e+05,2129,328
Raw,3.41303802e+05,2130,328
Raw,3.59346969e+05,2131,328
Raw,3.54805666e+05,2132,328
Raw,2.56836749e+05,2133,328
Raw,1.77769362e+05,2134,328
Raw,1.40590207e+05,2135,328
Raw,4.00000348e+05,2136,328
Raw,1.24819132e+05,2137,328
Raw,3.41660144e+05,2139,328
Raw,2.04172804e+05,2140,328
Raw,2.69699043e+05,2141,328
Raw,3.10717484e+05,2142,328
Raw,3.74059799e+05,2143,328
Raw,2.60360403e+05,2144,328
Raw,2.97238425e+05,2145,328
Raw,3.13391124e+05,2146,328
Raw,2.58783684e+05,2147,328
Raw,2.87642382e+05,2148,328
Raw,4.22218637e+05,2149,328
Raw,2.23259608e+05,2150,328
Raw,2.74563372e+05,2151,328
Raw,2.51040519e+05,2152,328
Raw,1.96867504e+05,2153,328
Raw,2.65851699e+05,2154,328
Raw,2.57092914e+05,2155,328
Raw,1.86358309e+05,2156,328
Raw,2.9189929e+05,2157,328
Raw,1.50831448e+05,2158,328
Raw,5.74073648e+05,2159,328
Raw,3.02756035e+05,2160,328
Raw,4.57469476e+05,2161,328
Raw,3.31620922e+05,2162,328
Raw,2.34493439e+05,2163,328
Raw,2.9665921e+05,2164,328
Raw,2.55137849e+05,2165,328
Raw,2.6749753e+05,2166,328
Raw,33511.015,2167,328
Raw,3.150235e+05,2167,328
Raw,2.39026674e+05,2168,328
Raw,3.77139387e+05,2169,328
Raw,1.95593223e+05,2170,328
Raw,1.53583478e+05,2171,328
Raw,3.35605945e+05,2172,328
Raw,3.3753431e+05,2173,328
Raw,4.0292476e+05,2174,328
Raw,3.36169322e+05,2175,328
Raw,3.04045932e+05,2176,328
Raw,2.82453933e+05,2177,328
Raw,2.7130241e+05,2178,328
Raw,2.74797166e+05,2179,328
Raw,3.22456204e+05,2180,328
Raw,20418.065,2180,328
Raw,3.68297355e+05,2181,328
Raw,3.5366595e+05,2182,328
Raw,2.18704832e+05,2183,328
Raw,2.62748866e+05,2185,328
Raw,1.27146827e+05,2185,328
Raw,1.78834685e+05,2186,328
Raw,3.32354681e+05,2187,328
Raw,4.49548033e+05,2188,328
Raw,6.43749055e+05,2189,328
Raw,6.12200636e+05,2190,328
Raw,2.98032824e+05,2191,328
Raw,2.99121051e+05,2192,328
Raw,4.69613996e+05,2193,328
Raw,3.85808894e+05,2193,328
Raw,2.153045e+05,2194,328
Raw,3.4253012e+05,2195,328
Raw,2.93873628e+05,2196,328
Raw,5.13242136e+05,2197,328
Raw,4.78775296e+05,2198,328
Raw,6.22106802e+05,2199,328
Raw,3.10271159e+05,2200,328
Raw,3.05013236e+05,2201,328
Raw,3.98324635e+05,2203,328
Raw,3.07216167e+05,2204,328
Raw,2.99764652e+05,2205,328
Raw,2.96302408e+05,2206,328
Raw,3.48184163e+05,2207,328
Raw,3.43077135e+05,2208,328
Raw,3.3591078e+05,2209,328
Raw,3.20229422e+05,2210,328
Raw,3.30988803e+05,2211,328
Raw,1.43638592e+05,2211,328
Raw,1.18745471e+05,2213,328
Raw,1.38532063e+05,2213,328
Raw,3.17689986e+05,2214,328
Raw,3.56598707e+05,2215,328
Raw,4.4504637e+05,2216,328
Raw,2.36915855e+05,2217,328
Raw,3.11348139e+05,2218,328
Raw,2.27631821e+05,2220,328
Raw,2.8278781e+05,2221,328
Raw,2.09478882e+05,2222,328
Raw,3.03860106e+05,2224,328
Raw,3.70185883e+05,2225,328
Raw,2.8438055e+05,2226,328
Raw,3.08454201e+05,2227,328
Raw,2.97121357e+05,2229,328
Raw,2.85747738e+05,2230,328
Raw,2.52710511e+05,2231,328
Raw,3.20660135e+05,2232,328
Raw,5.449033e+05,2233,328
Raw,3.06439027e+05,2234,328
Raw,2.65768014e+05,2236,328
Raw,2.78829808e+05,2237,328
Raw,2.31568318e+05,2238,328
Raw,2.93142065e+05,2239,328
Raw,3.72776175e+05,2240,328
Raw,2.11161193e+05,2242,328
Raw,2.83087769e+05,2243,328
Raw,3.06129477e+05,2244,328
Raw,2.625052e+05,2245,328
Raw,2.151975e+05,2246,328
Raw,3.30119491e+05,2247,328
Raw,3.51625939e+05,2248,328
Raw,3.02596432e+05,2249,328
Raw,2.81259951e+05,2249,328
Raw,4043.2258,2249,328
Raw,3.07944251e+05,2250,328
Raw,3.47087548e+05,2251,328
Raw,2.8277048e+05,2252,328
Raw,3.81843692e+05,2253,328
Raw,2.99233095e+05,2254,328
Raw,2.73414981e+05,2255,328
Raw,2.22011812e+05,2256,328
Raw,3.48628143e+05,2257,328
Raw,3.87038623e+05,2258,328
Raw,4.03124215e+05,2259,328
Raw,3.24833215e+05,2260,328
Raw,3.06802569e+05,2261,328
Raw,2.90557808e+05,2263,328
Raw,3.48743011e+05,2264,328
Raw,2.89360667e+05,2265,328
Raw,5.25357781e+05,2266,328
Raw,3.23300769e+05,2267,328
Raw,1.41189706e+05,2268,328
Raw,2.03497256e+05,2268,328
Raw,3.09063855e+05,2269,328
Raw,1.4118492e+05,2270,328
Raw,5.29175805e+05,2271,328
Raw,2.4790569e+05,2272,328
Raw,2.79791167e+05,2273,328
Raw,3.14347708e+05,2274,328
Raw,6.08530198e+05,2275,328
Raw,3.41483966e+05,2276,328
Raw,1.02403747e+05,2276,328
Raw,2.06707351e+05,2277,328
Raw,98834.494,2277,328
Raw,3.56888809e+05,2278,328
Raw,2.68747512e+05,2279,328
Raw,4.44434941e+05,2280,328
Raw,3.2275019e+05,2281,328
Raw,3.74052408e+05,2283,328
Raw,3.61532074e+05,2284,328
Raw,2.73442172e+05,2285,328
Raw,3.23586285e+05,2286,328
Raw,2.50488503e+05,2287,328
Raw,3.18254722e+05,2288,328
Raw,3.71944256e+05,2290,328
Raw,3.10613608e+05,2291,328
Raw,2.86725541e+05,2292,328
Raw,2.90937198e+05,2293,328
Raw,2.59221424e+05,2294,328
Raw,1.68629995e+05,2295,328
Raw,3.42039584e+05,2296,328
Raw,3.39427154e+05,2297,328
Raw,1.24395329e+05,2297,328
Raw,2.73582223e+05,2298,328
Raw,2.74146423e+05,2299,328
Raw,3.305186e+05,2301,328
Raw,4.4116478e+05,2302,328
Raw,3.31137478e+05,2303,328
Raw,2.67085261e+05,2304,328
Raw,3.27870739e+05,2305,328
Raw,2.52516886e+05,2307,328
Raw,3.5133066e+05,2307,328
Raw,3.12752056e+05,2308,328
Raw,3.06247298e+05,2310,328
Raw,64132.85,2310,328
Raw,2.48158312e+05,2311,328
Raw,2.96610347e+05,2312,328
Raw,3.42225861e+05,2313,328
Raw,2.29607512e+05,2314,328
Raw,3.12454435e+05,2315,328
Raw,1.91769455e+05,2315,328
Raw,3.02266349e+05,2316,328
Raw,3.61052795e+05,2317,328
Raw,3.26886429e+05,2318,328
Raw,3.16421659e+05,2319,328
Raw,3.02363181e+05,2320,328
Raw,3.08599168e+05,2321,328
Raw,2.83110209e+05,2322,328
Raw,3.14941018e+05,2323,328
Raw,3.91105073e+05,2324,328
Raw,2.91295383e+05,2324,328
Raw,3.09250414e+05,2325,328
Raw,3.26071857e+05,2326,328
Raw,3.07351848e+05,2327,328
Raw,2.41845083e+05,2328,328
Raw,2.18481463e+05,2329,328
Raw,3.78228048e+05,2330,328
Raw,1.27207404e+05,2331,328
Raw,3.1160595e+05,2331,328
Raw,3.17159827e+05,2332,328
Raw,3.39910221e+05,2333,328
Raw,3.17746372e+05,2334,328
Raw,2.64759937e+05,2335,328
Raw,5.35575675e+05,2336,328
Raw,3.76191316e+05,2337,328
Raw,4.51058818e+05,2338,328
Raw,2.47265734e+05,2339,328
Raw,3.1640929e+05,2340,328
Raw,2.67825755e+05,2341,328
Raw,3.25533133e+05,2342,328
Raw,2.87033634e+05,2343,328
Raw,3.79651713e+05,2344,328
Raw,2.65382958e+05,2345,328
Raw,4.22400406e+05,2346,328
Raw,2.96305399e+05,2347,328
Raw,1.91632269e+05,2348,328
Raw,2.66680154e+05,2349,328
Raw,3.11076001e+05,2350,328
Raw,5.40185407e+05,2351,328
Raw,2.57796085e+05,2352,328
Raw,2.93648011e+05,2353,328
Raw,3.29125756e+05,2354,328
Raw,1.48895453e+05,2355,328
Raw,3.38902144e+05,2356,328
Raw,3.26295163e+05,2357,328
Raw,3.02965965e+05,2358,328
Raw,3.47039961e+05,2359,328
Raw,2.64955028e+05,2360,328
Raw,3.74689387e+05,2361,328
Raw,1.69459744e+05,2362,328
Raw,4.09933238e+05,2362,328
Raw,3.27675289e+05,2363,328
Raw,2.25417675e+05,2363,328
Raw,2.23777176e+05,2364,328
Raw,4.00712067e+05,2365,328
Raw,2.83082213e+05,2366,328
Raw,2.89760113e+05,2367,328
Raw,3.46462834e+05,2367,328
Raw,3.03233963e+05,2368,328
Raw,2.32127032e+05,2369,328
Raw,5.79159372e+05,2370,328
Raw,2.57356041e+05,2371,328
Raw,3.01658505e+05,2372,328
Raw,2.12043374e+05,2374,328
Raw,3.03741418e+05,2375,328
Raw,3.47342208e+05,2376,328
Raw,3.26218787e+05,2377,328
Raw,2.59678242e+05,2378,328
Raw,3.02464284e+05,2379,328
Raw,5.77234839e+05,2380,328
Raw,4.35075793e+05,2381,328
Raw,3.14711564e+05,2382,328
Raw,3.1014797e+05,2383,328
Raw,2.61275464e+05,2385,328
Raw,5.27568949e+05,2386,328
Raw,3.08037893e+05,2387,328
Raw,3.64077682e+05,2388,328
Raw,2.76409766e+05,2389,328
Raw,3.32037151e+05,2391,328
Raw,3.41675474e+05,2392,328
Raw,3.22591013e+05,2393,328
Raw,3.23600644e+05,2394,328
Raw,3.13983623e+05,2395,328
Raw,2.87814642e+05,2396,328
Raw,3.76864454e+05,2397,328
Raw,4.31005644e+05,2398,328
Raw,6.30435851e+05,2399,328
Raw,3.39019531e+05,2400,328
Raw,3.92224687e+05,2402,328
Raw,1.68965233e+05,2403,328
Raw,3.31168929e+05,2404,328
Raw,4.10837589e+05,2404,328
Raw,2.95007916e+05,2405,328
Raw,3.66216024e+05,2406,328
Raw,3.87975556e+05,2407,328
Raw,3.05808886e+05,2408,328
Raw,2.99516643e+05,2409,328
Raw,4.06490137e+05,2410,328
Raw,4.70031819e+05,2411,328
Raw,2.70878363e+05,2412,328
Raw,2.60645092e+05,2413,328
Raw,7.20395084e+05,2414,328
Raw,3.78147156e+05,2415,328
Raw,4.18854669e+05,2416,328
Raw,5.71602596e+05,2417,328
Raw,2.74406629e+05,2419,328
Raw,3.41682307e+05,2420,328
Raw,2.80743742e+05,2421,328
Raw,2.93612303e+05,2422,328
Raw,2.22651594e+05,2423,328
Raw,3.25682746e+05,2424,328
Raw,2.8525628e+05,2425,328
Raw,4.4241518e+05,2427,328
Raw,2.69556118e+05,2428,328
Raw,3.35745627e+05,2429,328
Raw,3.62225489e+05,2430,328
Raw,2.85835634e+05,2431,328
Raw,2.32043191e+05,2432,328
Raw,2.85629781e+05,2433,328
Raw,1.53749329e+05,2434,328
Raw,2.65750982e+05,2435,328
Raw,1.77584204e+05,2436,328
Raw,3.74342994e+05,2438,328
Raw,2.62396539e+05,2439,328
Raw,2.44659926e+05,2440,328
Raw,2.34174357e+05,2441,328
Raw,1.52950472e+05,2442,328
Raw,3.0597957e+05,2442,328
Raw,3.08264832e+05,2443,328
Raw,3.18503568e+05,2444,328
Raw,2.92023674e+05,2445,328
Raw,2.91806421e+05,2446,328
Raw,3.31476731e+05,2447,328
Raw,2.10179232e+05,2448,328
Raw,3.3202404e+05,2449,328
Raw,2.32465817e+05,2450,328
Raw,3.39079786e+05,2451,328
Raw,3.55479721e+05,2452,328
Raw,2.02436909e+05,2453,328
Raw,3.14204583e+05,2454,328
Raw,1.51539448e+05,2455,328
Raw,2.84518358e+05,2456,328
Raw,2.46010887e+05,2457,328
Raw,3.02569778e+05,2458,328
Raw,2.43058343e+05,2459,328
Raw,2.81007581e+05,2460,328
Raw,2.84271121e+05,2462,328
Raw,1.32143665e+05,2463,328
Raw,3.35835613e+05,2464,328
Raw,3.33684259e+05,2465,328
Raw,2.65416826e+05,2466,328
Raw,4.74353716e+05,2467,328
Raw,1.15901939e+05,2468,328
Raw,3.39354798e+05,2470,328
Raw,2.35842162e+05,2471,328
Raw,2.66103341e+05,2472,328
Raw,2.85379773e+05,2473,328
Raw,2.09866747e+05,2474,328
Raw,3.46582618e+05,2475,328
Raw,3.52742554e+05,2476,328
Raw,2.43049252e+05,2477,328
Raw,2.97770539e+05,2478,328
Raw,27802.86,2479,328
Raw,1.58719848e+05,2480,328
Raw,3.37449705e+05,2481,328
Raw,3.12895715e+05,2482,328
Raw,3.92125685e+05,2483,328
Raw,3.30563742e+05,2484,328
Raw,3.35333433e+05,2485,328
Raw,2.26006385e+05,2486,328
Raw,5.79681256e+05,2487,328
Raw,3.64018577e+05,2488,328
Raw,5.95595964e+05,2490,328
Raw,2.61619041e+05,2490,328
Raw,3.83130302e+05,2491,328
Raw,2.70316346e+05,2492,328
Raw,3.32320942e+05,2493,328
Raw,3.16198131e+05,2493,328
Raw,2.82280437e+05,2494,328
Raw,2.88544223e+05,2495,328
Raw,3.22374572e+05,2496,328
Raw,3.3711082e+05,2497,328
Raw,2.90470522e+05,2498,328
Raw,3.36250932e+05,2499,328
Raw,2.89429621e+05,2500,328
