Cut?,Counts,eventNumber,runNumber
Raw,334,5,329
Raw,109,13,329
Raw,234,23,329
Raw,96,25,329
Raw,231,54,329
Raw,122,59,329
Raw,143,67,329
Raw,111,75,329
Raw,18,75,329
Raw,132,88,329
Raw,216,93,329
Raw,107,94,329
Raw,106,94,329
Raw,343,101,329
Raw,6,109,329
Raw,101,109,329
Raw,225,111,329
Raw,58,111,329
Raw,137,113,329
Raw,110,113,329
Raw,347,116,329
Raw,130,124,329
Raw,79,124,329
Raw,152,125,329
Raw,104,135,329
Raw,45,135,329
Raw,42,138,329
Raw,19,138,329
Raw,185,140,329
Raw,124,141,329
Raw,199,149,329
Raw,101,149,329
Raw,108,149,329
Raw,113,157,329
Raw,125,164,329
Raw,200,164,329
Raw,30,164,329
Raw,219,166,329
Raw,84,166,329
Raw,42,166,329
Raw,99,168,329
Raw,109,168,329
Raw,81,174,329
Raw,281,175,329
Raw,103,177,329
Raw,332,179,329
Raw,105,182,329
Raw,211,183,329
Raw,105,187,329
Raw,123,206,329
Raw,193,208,329
Raw,112,208,329
Raw,123,211,329
Raw,124,213,329
Raw,300,220,329
Raw,129,224,329
Raw,215,225,329
Raw,64,225,329
Raw,108,229,329
Raw,175,229,329
Raw,114,233,329
Raw,128,239,329
Raw,114,239,329
Raw,102,240,329
Raw,40,241,329
Raw,76,241,329
Raw,134,243,329
Raw,126,251,329
Raw,51,251,329
Raw,109,256,329
Raw,66,259,329
Raw,235,269,329
Raw,121,270,329
Raw,221,279,329
Raw,244,290,329
Raw,242,291,329
Raw,114,298,329
Raw,235,309,329
Raw,217,310,329
Raw,280,314,329
Raw,115,315,329
Raw,71,315,329
Raw,83,317,329
Raw,25,321,329
Raw,188,322,329
Raw,139,332,329
Raw,91,332,329
Raw,151,339,329
Raw,84,342,329
Raw,220,346,329
Raw,208,352,329
Raw,108,356,329
Raw,91,362,329
Raw,55,362,329
Raw,225,364,329
Raw,305,370,329
Raw,93,375,329
Raw,112,376,329
Raw,99,378,329
Raw,223,386,329
Raw,132,394,329
Raw,343,400,329
Raw,132,409,329
Raw,133,415,329
Raw,223,425,329
Raw,102,434,329
Raw,40,440,329
Raw,76,442,329
Raw,140,442,329
Raw,124,443,329
Raw,345,465,329
Raw,103,469,329
Raw,63,469,329
Raw,197,469,329
Raw,119,484,329
Raw,344,486,329
Raw,133,487,329
Raw,117,489,329
Raw,110,490,329
Raw,292,491,329
Raw,107,494,329
Raw,124,494,329
Raw,154,499,329
Raw,208,502,329
Raw,101,502,329
Raw,322,507,329
Raw,120,520,329
Raw,93,524,329
Raw,134,538,329
Raw,109,539,329
Raw,135,558,329
Raw,14,558,329
Raw,133,561,329
Raw,216,562,329
Raw,39,562,329
Raw,204,563,329
Raw,146,569,329
Raw,119,578,329
Raw,96,579,329
Raw,94,585,329
Raw,139,589,329
Raw,102,591,329
Raw,89,599,329
Raw,131,600,329
Raw,68,600,329
Raw,322,605,329
Raw,263,613,329
Raw,119,619,329
Raw,141,620,329
Raw,16,643,329
Raw,127,650,329
Raw,109,650,329
Raw,84,650,329
Raw,111,655,329
Raw,109,656,329
Raw,35,657,329
Raw,124,659,329
Raw,101,659,329
Raw,123,669,329
Raw,279,670,329
Raw,102,681,329
Raw,131,682,329
Raw,124,687,329
Raw,96,688,329
Raw,272,689,329
Raw,67,692,329
Raw,116,693,329
Raw,99,694,329
Raw,244,705,329
Raw,222,711,329
Raw,41,713,329
Raw,107,715,329
Raw,108,727,329
Raw,129,734,329
Raw,13,734,329
Raw,204,737,329
Raw,48,739,329
Raw,10,741,329
Raw,91,741,329
Raw,127,767,329
Raw,194,775,329
Raw,111,778,329
Raw,118,781,329
Raw,95,790,329
Raw,130,790,329
Raw,135,791,329
Raw,29,795,329
Raw,123,804,329
Raw,242,808,329
Raw,126,811,329
Raw,124,812,329
Raw,310,824,329
Raw,131,843,329
Raw,126,850,329
Raw,255,854,329
Raw,89,863,329
Raw,262,866,329
Raw,59,866,329
Raw,120,869,329
Raw,347,885,329
Raw,202,891,329
Raw,131,891,329
Raw,155,896,329
Raw,201,896,329
Raw,91,896,329
Raw,145,921,329
Raw,123,924,329
Raw,131,926,329
Raw,227,931,329
Raw,238,939,329
Raw,112,942,329
Raw,116,949,329
Raw,147,949,329
Raw,41,950,329
Raw,16,963,329
Raw,126,963,329
Raw,116,965,329
Raw,328,973,329
Raw,133,974,329
Raw,132,974,329
Raw,96,987,329
Raw,47,987,329
Raw,122,988,329
Raw,46,994,329
Raw,123,994,329
Raw,93,997,329
Raw,118,1006,329
Raw,148,1015,329
Raw,94,1017,329
Raw,216,1018,329
Raw,85,1018,329
Raw,346,1022,329
Raw,136,1025,329
Raw,235,1029,329
Raw,118,1029,329
Raw,160,1031,329
Raw,46,1032,329
Raw,112,1033,329
Raw,130,1033,329
Raw,116,1034,329
Raw,114,1035,329
Raw,105,1035,329
Raw,50,1041,329
Raw,8,1049,329
Raw,126,1061,329
Raw,23,1062,329
Raw,15,1062,329
Raw,134,1066,329
Raw,112,1067,329
Raw,130,1071,329
Raw,52,1071,329
Raw,104,1074,329
Raw,130,1083,329
Raw,204,1087,329
Raw,119,1092,329
Raw,11,1092,329
Raw,99,1098,329
Raw,124,1100,329
Raw,201,1104,329
Raw,147,1127,329
Raw,94,1133,329
Raw,218,1149,329
Raw,180,1150,329
Raw,112,1160,329
Raw,125,1163,329
Raw,98,1163,329
Raw,189,1168,329
Raw,160,1173,329
Raw,35,1178,329
Raw,18,1178,329
Raw,203,1179,329
Raw,216,1180,329
Raw,77,1180,329
Raw,229,1183,329
Raw,155,1184,329
Raw,128,1189,329
Raw,96,1189,329
Raw,138,1193,329
Raw,209,1195,329
Raw,93,1198,329
Raw,118,1215,329
Raw,99,1215,329
Raw,140,1218,329
Raw,110,1226,329
Raw,196,1227,329
Raw,115,1228,329
Raw,102,1230,329
Raw,178,1233,329
Raw,123,1238,329
Raw,115,1245,329
Raw,65,1245,329
Raw,97,1252,329
Raw,111,1257,329
Raw,104,1260,329
Raw,118,1262,329
Raw,12,1266,329
Raw,113,1287,329
Raw,3,1287,329
Raw,121,1296,329
Raw,124,1298,329
Raw,120,1300,329
Raw,127,1301,329
Raw,120,1303,329
Raw,105,1309,329
Raw,133,1314,329
Raw,106,1315,329
Raw,82,1325,329
Raw,61,1325,329
Raw,65,1332,329
Raw,125,1332,329
Raw,121,1357,329
Raw,115,1368,329
Raw,190,1371,329
Raw,132,1373,329
Raw,299,1375,329
Raw,221,1378,329
Raw,100,1378,329
Raw,138,1386,329
Raw,128,1386,329
Raw,123,1396,329
Raw,110,1399,329
Raw,115,1399,329
Raw,19,1400,329
Raw,112,1406,329
Raw,189,1408,329
Raw,128,1408,329
Raw,158,1414,329
Raw,63,1416,329
Raw,288,1418,329
Raw,75,1419,329
Raw,95,1438,329
Raw,60,1438,329
Raw,105,1442,329
Raw,118,1448,329
Raw,74,1454,329
Raw,122,1457,329
Raw,130,1457,329
Raw,252,1464,329
Raw,116,1467,329
Raw,121,1467,329
Raw,60,1474,329
Raw,250,1478,329
Raw,244,1482,329
Raw,112,1486,329
Raw,250,1489,329
Raw,54,1489,329
Raw,42,1489,329
Raw,118,1493,329
Raw,82,1493,329
Raw,278,1502,329
Raw,118,1505,329
Raw,134,1518,329
Raw,105,1521,329
Raw,229,1524,329
Raw,107,1529,329
Raw,282,1537,329
Raw,119,1537,329
Raw,210,1540,329
Raw,80,1540,329
Raw,92,1553,329
Raw,104,1555,329
Raw,115,1556,329
Raw,248,1556,329
Raw,95,1566,329
Raw,247,1568,329
Raw,87,1577,329
Raw,124,1582,329
Raw,103,1583,329
Raw,93,1585,329
Raw,15,1585,329
Raw,120,1589,329
Raw,108,1590,329
Raw,134,1591,329
Raw,229,1599,329
Raw,118,1602,329
Raw,126,1607,329
Raw,49,1609,329
Raw,96,1612,329
Raw,113,1623,329
Raw,115,1623,329
Raw,129,1628,329
Raw,194,1634,329
Raw,26,1637,329
Raw,116,1639,329
Raw,128,1639,329
Raw,84,1650,329
Raw,119,1650,329
Raw,101,1651,329
Raw,82,1661,329
Raw,87,1664,329
Raw,90,1664,329
Raw,235,1665,329
Raw,251,1667,329
Raw,126,1673,329
Raw,89,1675,329
Raw,121,1682,329
Raw,48,1683,329
Raw,95,1691,329
Raw,257,1694,329
Raw,303,1705,329
Raw,115,1706,329
Raw,135,1707,329
Raw,124,1708,329
Raw,125,1714,329
Raw,129,1717,329
Raw,103,1717,329
Raw,127,1727,329
Raw,110,1733,329
Raw,138,1742,329
Raw,184,1743,329
Raw,139,1750,329
Raw,187,1761,329
Raw,44,1767,329
Raw,128,1767,329
Raw,110,1779,329
Raw,115,1779,329
Raw,125,1790,329
Raw,68,1797,329
Raw,112,1798,329
Raw,126,1800,329
Raw,65,1807,329
Raw,66,1825,329
Raw,133,1850,329
Raw,57,1853,329
Raw,65,1859,329
Raw,250,1860,329
Raw,113,1864,329
Raw,110,1866,329
Raw,116,1866,329
Raw,30,1869,329
Raw,132,1872,329
Raw,103,1875,329
Raw,110,1884,329
Raw,109,1884,329
Raw,232,1887,329
Raw,138,1890,329
Raw,119,1904,329
Raw,105,1908,329
Raw,59,1909,329
Raw,121,1910,329
Raw,8,1916,329
Raw,106,1917,329
Raw,241,1925,329
Raw,74,1925,329
Raw,222,1926,329
Raw,210,1928,329
Raw,131,1934,329
Raw,88,1934,329
Raw,32,1938,329
Raw,208,1938,329
Raw,107,1955,329
Raw,109,1956,329
Raw,44,1957,329
Raw,108,1961,329
Raw,174,1968,329
Raw,117,1970,329
Raw,104,1970,329
Raw,120,1970,329
Raw,112,1987,329
Raw,122,1987,329
Raw,126,1990,329
Raw,250,2000,329
Raw,122,2015,329
Raw,236,2018,329
Raw,129,2022,329
Raw,86,2034,329
Raw,126,2034,329
Raw,130,2039,329
Raw,109,2044,329
Raw,106,2048,329
Raw,119,2054,329
Raw,111,2055,329
Raw,113,2065,329
Raw,231,2068,329
Raw,62,2069,329
Raw,195,2076,329
Raw,163,2082,329
Raw,110,2086,329
Raw,109,2086,329
Raw,104,2094,329
Raw,228,2099,329
Raw,125,2103,329
Raw,164,2112,329
Raw,103,2113,329
Raw,111,2114,329
Raw,93,2114,329
Raw,122,2119,329
Raw,95,2120,329
Raw,52,2122,329
Raw,84,2122,329
Raw,340,2128,329
Raw,104,2135,329
Raw,122,2135,329
Raw,253,2136,329
Raw,57,2136,329
Raw,49,2142,329
Raw,73,2143,329
Raw,242,2149,329
Raw,30,2157,329
Raw,314,2165,329
Raw,116,2174,329
Raw,98,2174,329
Raw,128,2177,329
Raw,44,2178,329
Raw,201,2179,329
Raw,235,2186,329
Raw,140,2187,329
Raw,125,2190,329
Raw,248,2191,329
Raw,124,2194,329
Raw,139,2204,329
Raw,118,2209,329
Raw,275,2229,329
Raw,112,2238,329
Raw,92,2245,329
Raw,103,2245,329
Raw,10,2252,329
Raw,124,2252,329
Raw,282,2259,329
Raw,113,2259,329
Raw,105,2263,329
Raw,191,2270,329
Raw,239,2271,329
Raw,244,2275,329
Raw,98,2275,329
Raw,117,2280,329
Raw,189,2281,329
Raw,250,2284,329
Raw,106,2288,329
Raw,108,2288,329
Raw,245,2292,329
Raw,96,2292,329
Raw,228,2310,329
Raw,8,2313,329
Raw,321,2315,329
Raw,174,2316,329
Raw,95,2320,329
Raw,264,2323,329
Raw,120,2323,329
Raw,244,2326,329
Raw,64,2333,329
Raw,235,2334,329
Raw,126,2338,329
Raw,4,2338,329
Raw,115,2349,329
Raw,143,2358,329
Raw,244,2361,329
Raw,131,2363,329
Raw,219,2365,329
Raw,126,2366,329
Raw,284,2369,329
Raw,254,2370,329
Raw,106,2382,329
Raw,180,2389,329
Raw,124,2390,329
Raw,122,2391,329
Raw,106,2394,329
Raw,13,2394,329
Raw,348,2397,329
Raw,77,2408,329
Raw,110,2408,329
Raw,111,2411,329
Raw,191,2415,329
Raw,120,2422,329
Raw,238,2430,329
Raw,107,2436,329
Raw,103,2444,329
Raw,321,2445,329
Raw,62,2445,329
Raw,128,2447,329
Raw,151,2452,329
Raw,91,2452,329
Raw,69,2452,329
Raw,44,2456,329
Raw,111,2456,329
Raw,126,2478,329
Raw,132,2478,329
Raw,71,2479,329
Raw,96,2479,329
Raw,349,2484,329
Raw,103,2490,329
Raw,18,2490,329
Raw,256,2496,329
Raw,243,2499,329
Raw,90,2499,329
Raw,101,2500,329
Raw,205,2504,329
Raw,186,2509,329
Raw,255,2515,329
Raw,224,2517,329
Raw,120,2533,329
Raw,126,2542,329
Raw,123,2552,329
Raw,107,2556,329
Raw,136,2557,329
Raw,119,2562,329
Raw,110,2568,329
Raw,167,2573,329
Raw,68,2573,329
Raw,294,2579,329
Raw,97,2579,329
Raw,190,2585,329
Raw,117,2589,329
Raw,181,2590,329
Raw,270,2604,329
Raw,118,2604,329
Raw,115,2606,329
Raw,141,2613,329
Raw,210,2614,329
Raw,126,2626,329
Raw,101,2633,329
Raw,78,2642,329
Raw,280,2649,329
Raw,196,2649,329
Raw,256,2650,329
Raw,65,2651,329
Raw,277,2653,329
Raw,175,2655,329
Raw,27,2668,329
Raw,118,2680,329
Raw,53,2681,329
Raw,64,2682,329
Raw,101,2689,329
Raw,238,2689,329
Raw,141,2690,329
Raw,133,2691,329
Raw,121,2695,329
Raw,125,2697,329
Raw,276,2708,329
Raw,121,2714,329
Raw,128,2717,329
Raw,128,2723,329
Raw,3,2723,329
Raw,235,2725,329
Raw,342,2726,329
Raw,118,2749,329
Raw,113,2758,329
Raw,231,2766,329
Raw,117,2773,329
Raw,217,2775,329
Raw,99,2775,329
Raw,296,2779,329
Raw,51,2783,329
Raw,21,2783,329
Raw,122,2785,329
Raw,117,2798,329
Raw,116,2810,329
Raw,99,2812,329
Raw,100,2813,329
Raw,201,2824,329
Raw,219,2830,329
Raw,135,2858,329
Raw,307,2860,329
Raw,19,2860,329
Raw,128,2866,329
Raw,34,2870,329
Raw,115,2870,329
Raw,134,2871,329
Raw,114,2871,329
Raw,39,2872,329
Raw,125,2872,329
Raw,118,2885,329
Raw,124,2885,329
Raw,209,2900,329
Raw,16,2900,329
Raw,72,2902,329
Raw,119,2909,329
Raw,117,2911,329
Raw,106,2911,329
Raw,243,2915,329
Raw,113,2916,329
Raw,111,2916,329
Raw,317,2920,329
Raw,179,2920,329
Raw,124,2924,329
Raw,75,2924,329
Raw,114,2925,329
Raw,112,2928,329
Raw,41,2935,329
Raw,120,2935,329
Raw,104,2936,329
Raw,67,2943,329
Raw,79,2943,329
Raw,91,2949,329
Raw,106,2953,329
Raw,100,2953,329
Raw,18,2958,329
Raw,84,2959,329
Raw,75,2964,329
Raw,111,2964,329
Raw,113,2969,329
Raw,56,2970,329
Raw,119,2970,329
Raw,131,2973,329
Raw,348,2977,329
Raw,126,2978,329
Raw,78,2978,329
Raw,219,2986,329
Raw,175,2987,329
Raw,247,2988,329
Raw,105,2989,329
Raw,112,2989,329
Raw,111,2994,329
Raw,81,2996,329
Raw,139,3012,329
Raw,105,3012,329
Raw,113,3013,329
Raw,227,3015,329
Raw,89,3024,329
Raw,106,3024,329
Raw,131,3028,329
Raw,119,3029,329
Raw,70,3031,329
Raw,5,3031,329
Raw,111,3034,329
Raw,114,3035,329
Raw,116,3035,329
Raw,308,3036,329
Raw,218,3048,329
Raw,121,3052,329
Raw,89,3052,329
Raw,334,3054,329
Raw,299,3075,329
Raw,106,3075,329
Raw,207,3094,329
Raw,253,3097,329
Raw,122,3099,329
Raw,128,3099,329
Raw,121,3103,329
Raw,141,3112,329
Raw,47,3112,329
Raw,244,3113,329
Raw,127,3118,329
Raw,108,3132,329
Raw,119,3132,329
Raw,197,3136,329
Raw,125,3136,329
Raw,287,3137,329
Raw,90,3138,329
Raw,119,3142,329
Raw,110,3144,329
Raw,57,3144,329
Raw,8,3149,329
Raw,126,3157,329
Raw,88,3159,329
Raw,141,3159,329
Raw,120,3162,329
Raw,112,3164,329
Raw,109,3182,329
Raw,99,3186,329
Raw,87,3186,329
Raw,112,3188,329
Raw,110,3194,329
Raw,326,3198,329
Raw,338,3199,329
Raw,130,3200,329
Raw,256,3202,329
Raw,126,3203,329
Raw,216,3207,329
Raw,120,3207,329
Raw,278,3211,329
Raw,288,3223,329
Raw,123,3227,329
Raw,150,3231,329
Raw,237,3231,329
Raw,111,3231,329
Raw,113,3236,329
Raw,261,3239,329
Raw,349,3240,329
Raw,228,3248,329
Raw,223,3249,329
Raw,194,3250,329
Raw,111,3250,329
Raw,304,3266,329
Raw,212,3268,329
Raw,103,3268,329
Raw,101,3270,329
Raw,202,3275,329
Raw,103,3276,329
Raw,111,3276,329
Raw,325,3280,329
Raw,80,3288,329
Raw,87,3290,329
Raw,239,3305,329
Raw,252,3308,329
Raw,99,3308,329
Raw,110,3310,329
Raw,221,3310,329
Raw,202,3329,329
Raw,118,3329,329
Raw,100,3331,329
Raw,117,3342,329
Raw,108,3342,329
Raw,115,3358,329
Raw,96,3359,329
Raw,101,3369,329
Raw,82,3369,329
Raw,6,3369,329
Raw,107,3379,329
Raw,113,3379,329
Raw,126,3385,329
Raw,6,3394,329
Raw,56,3394,329
Raw,187,3395,329
Raw,128,3396,329
Raw,213,3400,329
Raw,313,3402,329
Raw,86,3404,329
Raw,108,3404,329
Raw,221,3406,329
Raw,64,3408,329
Raw,207,3416,329
Raw,117,3416,329
Raw,198,3427,329
Raw,90,3427,329
Raw,248,3428,329
Raw,100,3432,329
Raw,304,3436,329
Raw,208,3438,329
Raw,103,3438,329
Raw,119,3441,329
Raw,239,3449,329
Raw,246,3454,329
Raw,347,3458,329
Raw,233,3460,329
Raw,88,3463,329
Raw,101,3465,329
Raw,112,3471,329
Raw,105,3471,329
Raw,133,3472,329
Raw,119,3475,329
Raw,83,3475,329
Raw,187,3476,329
Raw,251,3476,329
Raw,347,3478,329
Raw,110,3482,329
Raw,299,3483,329
Raw,137,3483,329
Raw,234,3488,329
Raw,280,3499,329
Raw,228,3502,329
Raw,26,3502,329
Raw,214,3508,329
Raw,125,3510,329
Raw,94,3510,329
Raw,39,3512,329
Raw,249,3513,329
Raw,92,3529,329
Raw,125,3530,329
Raw,288,3533,329
Raw,118,3537,329
Raw,31,3537,329
Raw,24,3544,329
Raw,275,3545,329
Raw,133,3547,329
Raw,226,3551,329
Raw,116,3552,329
Raw,344,3556,329
Raw,37,3558,329
Raw,113,3561,329
Raw,249,3561,329
Raw,111,3561,329
Raw,287,3580,329
Raw,120,3581,329
Raw,115,3584,329
Raw,86,3591,329
Raw,126,3591,329
Raw,126,3592,329
Raw,262,3594,329
Raw,345,3595,329
Raw,75,3599,329
Raw,229,3601,329
Raw,246,3601,329
Raw,164,3605,329
Raw,43,3613,329
Raw,194,3616,329
Raw,7,3616,329
Raw,109,3617,329
Raw,95,3628,329
Raw,331,3634,329
Raw,119,3634,329
Raw,257,3656,329
Raw,119,3661,329
Raw,10,3661,329
Raw,114,3668,329
Raw,123,3674,329
Raw,129,3677,329
Raw,194,3685,329
Raw,19,3685,329
Raw,192,3688,329
Raw,110,3688,329
Raw,124,3689,329
Raw,209,3703,329
Raw,92,3703,329
Raw,32,3704,329
Raw,122,3704,329
Raw,84,3705,329
Raw,116,3713,329
Raw,124,3713,329
Raw,79,3722,329
Raw,115,3724,329
Raw,243,3724,329
Raw,346,3725,329
Raw,74,3725,329
Raw,114,3727,329
Raw,134,3728,329
Raw,106,3728,329
Raw,106,3732,329
Raw,97,3734,329
Raw,179,3737,329
Raw,13,3737,329
Raw,114,3738,329
Raw,259,3739,329
Raw,187,3740,329
Raw,349,3741,329
Raw,226,3746,329
Raw,106,3752,329
Raw,291,3755,329
Raw,208,3758,329
Raw,239,3759,329
Raw,31,3762,329
Raw,93,3762,329
Raw,211,3778,329
Raw,128,3780,329
Raw,322,3785,329
Raw,179,3794,329
Raw,50,3794,329
Raw,340,3796,329
Raw,146,3801,329
Raw,274,3804,329
Raw,337,3807,329
Raw,93,3815,329
Raw,244,3817,329
Raw,75,3817,329
Raw,201,3820,329
Raw,35,3820,329
Raw,120,3821,329
Raw,234,3830,329
Raw,248,3834,329
Raw,123,3836,329
Raw,17,3838,329
Raw,268,3850,329
Raw,140,3850,329
Raw,248,3853,329
Raw,340,3854,329
Raw,16,3862,329
Raw,175,3864,329
Raw,255,3867,329
Raw,244,3869,329
Raw,240,3875,329
Raw,130,3877,329
Raw,110,3879,329
Raw,42,3884,329
Raw,113,3891,329
Raw,236,3897,329
Raw,118,3902,329
Raw,115,3902,329
Raw,67,3906,329
Raw,111,3906,329
Raw,114,3924,329
Raw,115,3929,329
Raw,207,3930,329
Raw,203,3935,329
Raw,214,3948,329
Raw,40,3948,329
Raw,97,3954,329
Raw,112,3956,329
Raw,123,3956,329
Raw,270,3972,329
Raw,288,3973,329
Raw,100,3973,329
Raw,89,3977,329
Raw,54,3977,329
Raw,33,3977,329
Raw,327,3978,329
Raw,143,3980,329
Raw,89,3980,329
Raw,238,3981,329
Raw,347,3993,329
Raw,119,3993,329
Raw,89,3994,329
Raw,117,3999,329
Raw,83,4006,329
Raw,94,4006,329
Raw,290,4009,329
Raw,110,4012,329
Raw,235,4016,329
Raw,67,4016,329
Raw,119,4018,329
Raw,339,4026,329
Raw,239,4027,329
Raw,238,4029,329
Raw,132,4045,329
Raw,75,4046,329
Raw,120,4046,329
Raw,240,4047,329
Raw,265,4054,329
Raw,84,4054,329
Raw,106,4054,329
Raw,209,4063,329
Raw,258,4066,329
Raw,82,4066,329
Raw,141,4067,329
Raw,133,4071,329
Raw,111,4071,329
Raw,36,4083,329
Raw,131,4083,329
Raw,114,4097,329
Raw,92,4097,329
Raw,242,4099,329
Raw,113,4103,329
Raw,110,4103,329
Raw,145,4107,329
Raw,130,4107,329
Raw,111,4116,329
Raw,218,4121,329
Raw,222,4122,329
Raw,339,4134,329
Raw,90,4134,329
Raw,292,4135,329
Raw,270,4142,329
Raw,214,4143,329
Raw,89,4146,329
Raw,68,4146,329
Raw,109,4149,329
Raw,218,4151,329
Raw,107,4152,329
Raw,114,4160,329
Raw,137,4162,329
Raw,347,4163,329
Raw,122,4167,329
Raw,17,4167,329
Raw,91,4175,329
Raw,255,4182,329
Raw,254,4205,329
Raw,84,4214,329
Raw,153,4216,329
Raw,113,4216,329
Raw,246,4217,329
Raw,124,4227,329
Raw,54,4227,329
Raw,138,4242,329
Raw,141,4244,329
Raw,83,4244,329
Raw,121,4247,329
Raw,256,4258,329
Raw,230,4260,329
Raw,245,4261,329
Raw,93,4261,329
Raw,73,4261,329
Raw,253,4271,329
Raw,38,4272,329
Raw,236,4274,329
Raw,117,4274,329
Raw,140,4274,329
Raw,123,4279,329
Raw,281,4279,329
Raw,126,4285,329
Raw,118,4286,329
Raw,115,4286,329
Raw,50,4287,329
Raw,343,4288,329
Raw,120,4292,329
Raw,128,4293,329
Raw,122,4297,329
Raw,208,4307,329
Raw,294,4309,329
Raw,126,4315,329
Raw,104,4316,329
Raw,104,4317,329
Raw,59,4319,329
Raw,111,4324,329
Raw,82,4328,329
Raw,222,4336,329
Raw,89,4342,329
Raw,104,4342,329
Raw,111,4343,329
Raw,228,4347,329
Raw,109,4351,329
Raw,80,4351,329
Raw,227,4352,329
Raw,220,4356,329
Raw,320,4361,329
Raw,127,4367,329
Raw,248,4368,329
Raw,135,4377,329
Raw,8,4379,329
Raw,187,4388,329
Raw,77,4388,329
Raw,127,4394,329
Raw,127,4394,329
Raw,20,4407,329
Raw,80,4417,329
Raw,202,4423,329
Raw,91,4425,329
Raw,119,4432,329
Raw,122,4432,329
Raw,118,4436,329
Raw,85,4438,329
Raw,132,4442,329
Raw,101,4444,329
Raw,96,4449,329
Raw,74,4451,329
Raw,63,4453,329
Raw,272,4455,329
Raw,84,4459,329
Raw,119,4460,329
Raw,106,4460,329
Raw,146,4463,329
Raw,192,4464,329
Raw,122,4464,329
Raw,331,4467,329
Raw,134,4467,329
Raw,71,4480,329
Raw,220,4480,329
Raw,101,4488,329
Raw,84,4488,329
Raw,119,4494,329
Raw,277,4496,329
Raw,263,4496,329
Raw,10,4498,329
Raw,89,4498,329
Raw,207,4500,329
Raw,216,4510,329
Raw,36,4512,329
Raw,130,4512,329
Raw,125,4516,329
Raw,198,4528,329
Raw,315,4530,329
Raw,217,4533,329
Raw,123,4535,329
Raw,80,4545,329
Raw,130,4548,329
Raw,159,4562,329
Raw,175,4563,329
Raw,83,4563,329
Raw,101,4583,329
Raw,125,4584,329
Raw,105,4584,329
Raw,140,4589,329
Raw,215,4590,329
Raw,274,4590,329
Raw,107,4595,329
Raw,106,4596,329
Raw,124,4596,329
Raw,254,4598,329
Raw,51,4599,329
Raw,142,4602,329
Raw,115,4602,329
Raw,211,4605,329
Raw,126,4605,329
Raw,323,4606,329
Raw,221,4611,329
Raw,105,4613,329
Raw,143,4618,329
Raw,72,4623,329
Raw,303,4626,329
Raw,117,4629,329
Raw,270,4630,329
Raw,335,4637,329
Raw,333,4659,329
Raw,75,4659,329
Raw,108,4687,329
Raw,278,4688,329
Raw,117,4696,329
Raw,210,4698,329
Raw,98,4718,329
Raw,117,4719,329
Raw,91,4727,329
Raw,123,4730,329
Raw,36,4730,329
Raw,107,4732,329
Raw,96,4732,329
Raw,138,4736,329
Raw,98,4736,329
Raw,109,4740,329
Raw,178,4741,329
Raw,128,4750,329
Raw,117,4759,329
Raw,229,4759,329
Raw,217,4765,329
Raw,49,4765,329
Raw,142,4784,329
Raw,333,4797,329
Raw,110,4804,329
Raw,223,4806,329
Raw,111,4808,329
Raw,68,4808,329
Raw,329,4810,329
Raw,120,4811,329
Raw,98,4811,329
Raw,7,4811,329
Raw,198,4813,329
Raw,32,4817,329
Raw,124,4819,329
Raw,93,4819,329
Raw,248,4820,329
Raw,168,4822,329
Raw,13,4822,329
Raw,279,4832,329
Raw,310,4840,329
Raw,272,4842,329
Raw,268,4844,329
Raw,13,4846,329
Raw,78,4850,329
Raw,243,4852,329
Raw,201,4852,329
Raw,118,4853,329
Raw,71,4853,329
Raw,80,4854,329
Raw,124,4855,329
Raw,122,4856,329
Raw,245,4867,329
Raw,256,4869,329
Raw,140,4872,329
Raw,106,4875,329
Raw,100,4886,329
Raw,221,4891,329
Raw,111,4899,329
Raw,28,4899,329
Raw,236,4901,329
Raw,117,4902,329
Raw,30,4906,329
Raw,121,4906,329
Raw,109,4918,329
Raw,127,4918,329
Raw,207,4919,329
Raw,11,4919,329
Raw,113,4924,329
Raw,106,4925,329
Raw,117,4926,329
Raw,197,4933,329
Raw,125,4936,329
Raw,87,4936,329
Raw,90,4944,329
Raw,192,4945,329
Raw,172,4945,329
Raw,199,4952,329
Raw,16,4952,329
Raw,28,4957,329
Raw,116,4958,329
Raw,110,4958,329
Raw,322,4964,329
Raw,74,4970,329
Raw,112,4970,329
Raw,11,4970,329
Raw,96,4972,329
Raw,119,4974,329
Raw,228,4975,329
Raw,110,4984,329
Raw,5,4984,329
Raw,105,4986,329
Raw,88,4991,329
Raw,110,4992,329
Raw,15,4995,329
Raw,82,4997,329
Raw,349,4999,329
Raw,124,5006,329
Raw,198,5012,329
Raw,112,5012,329
Raw,113,5015,329
Raw,226,5028,329
Raw,101,5028,329
Raw,68,5036,329
Raw,108,5036,329
Raw,184,5037,329
Raw,98,5040,329
Raw,105,5041,329
Raw,226,5042,329
Raw,107,5042,329
Raw,159,5044,329
Raw,99,5044,329
Raw,123,5045,329
Raw,196,5048,329
Raw,117,5050,329
Raw,127,5050,329
Raw,121,5054,329
Raw,73,5060,329
Raw,271,5069,329
Raw,215,5070,329
Raw,119,5070,329
Raw,108,5081,329
Raw,85,5082,329
Raw,110,5082,329
Raw,177,5085,329
Raw,101,5095,329
Raw,330,5099,329
Raw,243,5108,329
Raw,120,5111,329
Raw,112,5111,329
Raw,95,5117,329
Raw,118,5117,329
Raw,107,5123,329
Raw,236,5137,329
Raw,233,5140,329
Raw,90,5140,329
Raw,228,5145,329
Raw,98,5145,329
Raw,101,5148,329
Raw,119,5151,329
Raw,348,5161,329
Raw,223,5162,329
Raw,322,5169,329
Raw,125,5172,329
Raw,227,5174,329
Raw,141,5176,329
Raw,122,5177,329
Raw,343,5178,329
Raw,15,5179,329
Raw,176,5180,329
Raw,180,5180,329
Raw,200,5183,329
Raw,12,5183,329
Raw,126,5188,329
Raw,200,5195,329
Raw,82,5196,329
Raw,345,5197,329
Raw,90,5199,329
Raw,18,5203,329
Raw,321,5209,329
Raw,217,5213,329
Raw,173,5219,329
Raw,211,5224,329
Raw,121,5233,329
Raw,205,5240,329
Raw,85,5240,329
Raw,25,5240,329
Raw,120,5242,329
Raw,117,5251,329
Raw,148,5252,329
Raw,204,5254,329
Raw,124,5254,329
Raw,208,5264,329
Raw,105,5264,329
Raw,186,5267,329
Raw,30,5267,329
Raw,8,5267,329
Raw,130,5269,329
Raw,108,5269,329
Raw,339,5270,329
Raw,106,5270,329
Raw,215,5276,329
Raw,250,5280,329
Raw,47,5283,329
Raw,105,5293,329
Raw,112,5300,329
Raw,87,5301,329
Raw,235,5304,329
Raw,114,5316,329
Raw,133,5317,329
Raw,121,5317,329
Raw,244,5325,329
Raw,105,5325,329
Raw,91,5337,329
Raw,110,5337,329
Raw,264,5344,329
Raw,112,5357,329
Raw,268,5362,329
Raw,92,5363,329
Raw,109,5363,329
Raw,130,5363,329
Raw,184,5369,329
Raw,70,5369,329
Raw,225,5372,329
Raw,78,5372,329
Raw,238,5373,329
Raw,82,5373,329
Raw,133,5374,329
Raw,83,5374,329
Raw,98,5383,329
Raw,208,5396,329
Raw,109,5396,329
Raw,346,5397,329
Raw,40,5397,329
Raw,119,5407,329
Raw,24,5418,329
Raw,110,5418,329
Raw,244,5421,329
Raw,293,5424,329
Raw,110,5424,329
Raw,233,5429,329
Raw,221,5430,329
Raw,108,5430,329
Raw,277,5434,329
Raw,104,5435,329
Raw,99,5438,329
Raw,222,5439,329
Raw,119,5445,329
Raw,128,5458,329
Raw,134,5459,329
Raw,133,5461,329
Raw,216,5465,329
Raw,113,5465,329
Raw,76,5465,329
Raw,132,5487,329
Raw,84,5498,329
Raw,115,5499,329
Raw,99,5500,329
Raw,104,5501,329
Raw,72,5502,329
Raw,110,5502,329
Raw,123,5504,329
Raw,103,5504,329
Raw,104,5506,329
Raw,102,5506,329
Raw,105,5514,329
Raw,126,5515,329
Raw,192,5522,329
Raw,280,5525,329
Raw,275,5532,329
Raw,101,5538,329
Raw,109,5538,329
Raw,178,5542,329
Raw,51,5542,329
Raw,208,5543,329
Raw,135,5543,329
Raw,67,5558,329
Raw,312,5574,329
Raw,82,5574,329
Raw,294,5579,329
Raw,115,5581,329
Raw,186,5583,329
Raw,294,5587,329
Raw,236,5592,329
Raw,200,5601,329
Raw,78,5614,329
Raw,130,5617,329
Raw,322,5621,329
Raw,115,5625,329
Raw,186,5630,329
Raw,137,5633,329
Raw,135,5634,329
Raw,122,5635,329
Raw,339,5637,329
Raw,318,5644,329
Raw,201,5655,329
Raw,248,5660,329
Raw,210,5665,329
Raw,125,5665,329
Raw,223,5666,329
Raw,83,5666,329
Raw,324,5672,329
Raw,107,5672,329
Raw,207,5673,329
Raw,247,5674,329
Raw,226,5684,329
Raw,19,5686,329
Raw,227,5686,329
Raw,114,5689,329
Raw,119,5702,329
Raw,231,5703,329
Raw,93,5703,329
Raw,160,5704,329
Raw,108,5706,329
Raw,106,5706,329
Raw,120,5709,329
Raw,117,5713,329
Raw,312,5718,329
Raw,101,5718,329
Raw,303,5726,329
Raw,313,5734,329
Raw,336,5741,329
Raw,127,5743,329
Raw,110,5747,329
Raw,122,5747,329
Raw,127,5755,329
Raw,114,5757,329
Raw,104,5757,329
Raw,77,5775,329
Raw,107,5775,329
Raw,112,5775,329
Raw,115,5777,329
Raw,7,5777,329
Raw,114,5784,329
Raw,105,5784,329
Raw,345,5787,329
Raw,305,5789,329
Raw,117,5790,329
Raw,127,5791,329
Raw,244,5791,329
Raw,221,5798,329
Raw,125,5800,329
Raw,108,5807,329
Raw,70,5807,329
Raw,11,5811,329
Raw,280,5813,329
Raw,61,5814,329
Raw,112,5822,329
Raw,192,5871,329
Raw,122,5873,329
Raw,107,5876,329
Raw,74,5879,329
Raw,72,5879,329
Raw,230,5881,329
Raw,39,5881,329
Raw,134,5885,329
Raw,102,5894,329
Raw,124,5897,329
Raw,62,5897,329
Raw,294,5901,329
Raw,68,5901,329
Raw,315,5904,329
Raw,116,5912,329
Raw,114,5918,329
Raw,114,5918,329
Raw,123,5934,329
Raw,131,5953,329
Raw,117,5953,329
Raw,118,5957,329
Raw,105,5957,329
Raw,117,5959,329
Raw,120,5965,329
Raw,243,5965,329
Raw,108,5971,329
Raw,267,5971,329
Raw,114,5986,329
Raw,149,5989,329
Raw,123,5999,329
Raw,119,6009,329
Raw,294,6018,329
Raw,87,6018,329
Raw,260,6019,329
Raw,100,6019,329
Raw,47,6021,329
Raw,85,6022,329
Raw,124,6022,329
Raw,95,6022,329
Raw,317,6026,329
Raw,129,6027,329
Raw,4,6027,329
Raw,331,6030,329
Raw,104,6034,329
Raw,94,6036,329
Raw,108,6037,329
Raw,323,6038,329
Raw,344,6052,329
Raw,103,6053,329
Raw,28,6053,329
Raw,128,6057,329
Raw,16,6065,329
Raw,88,6067,329
Raw,348,6069,329
Raw,86,6078,329
Raw,297,6080,329
Raw,200,6086,329
Raw,193,6106,329
Raw,92,6106,329
Raw,193,6113,329
Raw,111,6118,329
Raw,94,6121,329
Raw,89,6121,329
Raw,252,6124,329
Raw,125,6126,329
Raw,268,6134,329
Raw,120,6141,329
Raw,5,6141,329
Raw,338,6142,329
Raw,132,6147,329
Raw,112,6149,329
Raw,85,6150,329
Raw,325,6160,329
Raw,227,6164,329
Raw,126,6171,329
Raw,226,6178,329
Raw,42,6180,329
Raw,115,6180,329
Raw,107,6180,329
Raw,110,6184,329
Raw,226,6186,329
Raw,146,6201,329
Raw,106,6201,329
Raw,62,6213,329
Raw,253,6217,329
Raw,316,6230,329
Raw,284,6236,329
Raw,201,6243,329
Raw,341,6246,329
Raw,229,6254,329
Raw,113,6255,329
Raw,105,6255,329
Raw,332,6264,329
Raw,242,6268,329
Raw,116,6271,329
Raw,243,6271,329
Raw,89,6273,329
Raw,15,6280,329
Raw,81,6283,329
Raw,249,6290,329
Raw,106,6292,329
Raw,99,6292,329
Raw,228,6300,329
Raw,129,6317,329
Raw,111,6318,329
Raw,231,6318,329
Raw,100,6328,329
Raw,113,6335,329
Raw,236,6337,329
Raw,128,6338,329
Raw,96,6342,329
Raw,319,6343,329
Raw,104,6346,329
Raw,213,6353,329
Raw,64,6353,329
Raw,233,6363,329
Raw,226,6369,329
Raw,150,6370,329
Raw,135,6371,329
Raw,72,6371,329
Raw,57,6372,329
Raw,108,6380,329
Raw,206,6381,329
Raw,132,6382,329
Raw,57,6382,329
Raw,72,6382,329
Raw,123,6384,329
Raw,80,6407,329
Raw,109,6407,329
Raw,89,6407,329
Raw,235,6411,329
Raw,136,6419,329
Raw,120,6420,329
Raw,307,6422,329
Raw,102,6430,329
Raw,219,6432,329
Raw,116,6432,329
Raw,89,6432,329
Raw,175,6433,329
Raw,243,6448,329
Raw,325,6451,329
Raw,121,6453,329
Raw,100,6456,329
Raw,198,6461,329
Raw,310,6464,329
Raw,340,6470,329
Raw,282,6490,329
Raw,210,6496,329
Raw,123,6500,329
Raw,324,6500,329
Raw,304,6519,329
Raw,222,6522,329
Raw,135,6524,329
Raw,103,6524,329
Raw,121,6526,329
Raw,47,6526,329
Raw,92,6530,329
Raw,127,6532,329
Raw,10,6532,329
Raw,100,6536,329
Raw,190,6539,329
Raw,218,6541,329
Raw,101,6542,329
Raw,108,6542,329
Raw,130,6554,329
Raw,80,6554,329
Raw,126,6555,329
Raw,61,6555,329
Raw,90,6557,329
Raw,112,6563,329
Raw,95,6567,329
Raw,106,6576,329
Raw,119,6576,329
Raw,222,6586,329
Raw,92,6588,329
Raw,6,6592,329
Raw,62,6592,329
Raw,116,6594,329
Raw,54,6595,329
Raw,103,6604,329
Raw,180,6607,329
Raw,120,6614,329
Raw,64,6614,329
Raw,67,6625,329
Raw,72,6627,329
Raw,118,6628,329
Raw,291,6631,329
Raw,180,6636,329
Raw,336,6641,329
Raw,63,6652,329
Raw,104,6668,329
Raw,37,6668,329
Raw,89,6668,329
Raw,121,6669,329
Raw,185,6669,329
Raw,141,6670,329
Raw,128,6673,329
Raw,80,6684,329
Raw,117,6684,329
Raw,108,6690,329
Raw,217,6706,329
Raw,82,6706,329
Raw,246,6714,329
Raw,323,6715,329
Raw,343,6722,329
Raw,150,6723,329
Raw,205,6724,329
Raw,127,6729,329
Raw,104,6737,329
Raw,93,6737,329
Raw,272,6743,329
Raw,210,6753,329
Raw,198,6760,329
Raw,31,6760,329
Raw,63,6770,329
Raw,232,6770,329
Raw,107,6771,329
Raw,83,6771,329
Raw,107,6777,329
Raw,240,6781,329
Raw,6,6782,329
Raw,63,6783,329
Raw,138,6784,329
Raw,232,6789,329
Raw,82,6794,329
Raw,12,6796,329
Raw,234,6815,329
Raw,246,6818,329
Raw,224,6822,329
Raw,14,6822,329
Raw,229,6824,329
Raw,109,6824,329
Raw,189,6829,329
Raw,11,6829,329
Raw,203,6834,329
Raw,99,6834,329
Raw,97,6849,329
Raw,266,6858,329
Raw,89,6859,329
Raw,227,6860,329
Raw,90,6867,329
Raw,215,6868,329
Raw,84,6868,329
Raw,76,6872,329
Raw,131,6872,329
Raw,94,6873,329
Raw,113,6876,329
Raw,109,6878,329
Raw,95,6878,329
Raw,141,6879,329
Raw,248,6882,329
Raw,128,6883,329
Raw,304,6886,329
Raw,99,6892,329
Raw,213,6900,329
Raw,180,6902,329
Raw,124,6905,329
Raw,107,6906,329
Raw,118,6906,329
Raw,95,6909,329
Raw,99,6909,329
Raw,204,6913,329
Raw,210,6917,329
Raw,105,6920,329
Raw,65,6920,329
Raw,339,6924,329
Raw,105,6930,329
Raw,132,6930,329
Raw,207,6934,329
Raw,131,6935,329
Raw,346,6943,329
Raw,99,6944,329
Raw,169,6946,329
Raw,106,6947,329
Raw,215,6957,329
Raw,240,6964,329
Raw,116,6965,329
Raw,109,6970,329
Raw,102,6977,329
Raw,120,6977,329
Raw,123,6978,329
Raw,127,6978,329
Raw,117,6985,329
Raw,125,6987,329
Raw,95,6987,329
Raw,224,6988,329
Raw,219,6991,329
Raw,205,6993,329
Raw,218,7002,329
Raw,118,7002,329
Raw,245,7005,329
Raw,82,7005,329
Raw,131,7007,329
Raw,20,7007,329
Raw,59,7013,329
Raw,234,7015,329
Raw,232,7020,329
Raw,63,7021,329
Raw,41,7021,329
Raw,101,7028,329
Raw,103,7028,329
Raw,104,7040,329
Raw,217,7046,329
Raw,109,7047,329
Raw,235,7056,329
Raw,122,7059,329
Raw,70,7070,329
Raw,90,7072,329
Raw,103,7081,329
Raw,97,7081,329
Raw,235,7092,329
Raw,229,7096,329
Raw,122,7106,329
Raw,219,7107,329
Raw,120,7112,329
Raw,72,7112,329
Raw,110,7114,329
Raw,244,7119,329
Raw,85,7119,329
Raw,107,7123,329
Raw,3,7123,329
Raw,42,7125,329
Raw,102,7131,329
Raw,89,7136,329
Raw,10,7139,329
Raw,122,7153,329
Raw,98,7153,329
Raw,38,7153,329
Raw,256,7157,329
Raw,90,7157,329
Raw,214,7162,329
Raw,112,7165,329
Raw,54,7166,329
Raw,253,7167,329
Raw,106,7168,329
Raw,110,7170,329
Raw,125,7174,329
Raw,89,7187,329
Raw,62,7187,329
Raw,123,7189,329
Raw,234,7190,329
Raw,339,7195,329
Raw,114,7199,329
Raw,232,7214,329
Raw,222,7218,329
Raw,106,7221,329
Raw,108,7221,329
Raw,226,7232,329
Raw,56,7233,329
Raw,117,7238,329
Raw,52,7240,329
Raw,91,7245,329
Raw,126,7248,329
Raw,125,7261,329
Raw,124,7268,329
Raw,94,7282,329
Raw,104,7287,329
Raw,114,7291,329
Raw,112,7295,329
Raw,62,7299,329
Raw,41,7299,329
Raw,114,7304,329
Raw,125,7307,329
Raw,64,7307,329
Raw,139,7318,329
Raw,212,7318,329
Raw,121,7325,329
Raw,118,7330,329
Raw,112,7332,329
Raw,94,7334,329
Raw,253,7336,329
Raw,109,7336,329
Raw,102,7342,329
Raw,67,7350,329
Raw,103,7350,329
Raw,119,7357,329
Raw,3,7367,329
Raw,130,7368,329
Raw,121,7370,329
Raw,120,7372,329
Raw,100,7384,329
Raw,216,7390,329
Raw,111,7393,329
Raw,12,7395,329
Raw,48,7395,329
Raw,11,7396,329
Raw,128,7405,329
Raw,114,7410,329
Raw,78,7413,329
Raw,220,7414,329
Raw,3,7414,329
Raw,92,7418,329
Raw,121,7419,329
Raw,113,7420,329
Raw,127,7423,329
Raw,277,7435,329
Raw,80,7436,329
Raw,119,7436,329
Raw,41,7443,329
Raw,87,7444,329
Raw,69,7445,329
Raw,122,7464,329
Raw,149,7469,329
Raw,110,7472,329
Raw,238,7472,329
Raw,123,7478,329
Raw,94,7482,329
Raw,208,7485,329
Raw,42,7489,329
Raw,274,7493,329
Raw,239,7496,329
Raw,114,7502,329
Raw,52,7502,329
Raw,218,7507,329
Raw,130,7520,329
Raw,75,7520,329
Raw,19,7521,329
Raw,217,7533,329
Raw,113,7535,329
Raw,88,7542,329
Raw,95,7545,329
Raw,101,7547,329
Raw,257,7548,329
Raw,137,7552,329
Raw,240,7554,329
Raw,110,7567,329
Raw,116,7567,329
Raw,124,7592,329
Raw,130,7595,329
Raw,224,7598,329
Raw,241,7601,329
Raw,106,7607,329
Raw,123,7609,329
Raw,282,7644,329
Raw,97,7649,329
Raw,233,7651,329
Raw,118,7655,329
Raw,99,7656,329
Raw,57,7656,329
Raw,61,7658,329
Raw,57,7664,329
Raw,115,7664,329
Raw,59,7668,329
Raw,96,7668,329
Raw,14,7684,329
Raw,94,7686,329
Raw,109,7696,329
Raw,123,7701,329
Raw,89,7701,329
Raw,55,7702,329
Raw,107,7707,329
Raw,211,7714,329
Raw,121,7717,329
Raw,141,7722,329
Raw,113,7731,329
Raw,12,7741,329
Raw,55,7741,329
Raw,128,7746,329
Raw,234,7760,329
Raw,96,7761,329
Raw,123,7761,329
Raw,112,7771,329
Raw,55,7778,329
Raw,203,7779,329
Raw,6,7779,329
Raw,125,7782,329
Raw,115,7811,329
Raw,134,7815,329
Raw,123,7816,329
Raw,310,7826,329
Raw,326,7828,329
Raw,122,7836,329
Raw,305,7838,329
Raw,114,7838,329
Raw,115,7848,329
Raw,120,7857,329
Raw,132,7861,329
Raw,55,7861,329
Raw,115,7862,329
Raw,123,7872,329
Raw,13,7875,329
Raw,31,7875,329
Raw,252,7880,329
Raw,154,7887,329
Raw,35,7893,329
Raw,6,7914,329
Raw,93,7918,329
Raw,98,7918,329
Raw,127,7927,329
Raw,231,7929,329
Raw,99,7930,329
Raw,120,7933,329
Raw,130,7935,329
Raw,245,7936,329
Raw,113,7942,329
Raw,88,7945,329
Raw,114,7952,329
Raw,240,7953,329
Raw,224,7959,329
Raw,79,7963,329
Raw,102,7963,329
Raw,133,7964,329
Raw,214,7965,329
Raw,119,7967,329
Raw,129,7972,329
Raw,133,7977,329
Raw,104,7979,329
Raw,213,7983,329
Raw,123,7994,329
Raw,99,7996,329
Raw,119,8001,329
Raw,248,8006,329
Raw,112,8012,329
Raw,102,8013,329
Raw,224,8015,329
Raw,215,8017,329
Raw,245,8020,329
Raw,127,8023,329
Raw,165,8032,329
Raw,96,8032,329
Raw,93,8035,329
Raw,120,8046,329
Raw,129,8060,329
Raw,123,8062,329
Raw,101,8063,329
Raw,100,8063,329
Raw,74,8070,329
Raw,79,8096,329
Raw,120,8125,329
Raw,140,8152,329
Raw,129,8186,329
Raw,182,8186,329
Raw,117,8189,329
Raw,98,8189,329
Raw,109,8190,329
Raw,119,8195,329
Raw,117,8212,329
Raw,239,8213,329
Raw,121,8214,329
Raw,22,8220,329
Raw,113,8220,329
Raw,240,8228,329
Raw,137,8234,329
Raw,96,8236,329
Raw,105,8248,329
Raw,85,8249,329
Raw,223,8253,329
Raw,214,8257,329
Raw,224,8267,329
Raw,46,8267,329
Raw,192,8276,329
Raw,214,8277,329
Raw,84,8277,329
Raw,260,8281,329
Raw,14,8293,329
Raw,97,8297,329
Raw,91,8301,329
Raw,93,8304,329
Raw,93,8304,329
Raw,6,8309,329
Raw,327,8314,329
Raw,272,8323,329
Raw,4,8329,329
Raw,108,8340,329
Raw,56,8340,329
Raw,101,8344,329
Raw,124,8344,329
Raw,107,8352,329
Raw,106,8352,329
Raw,188,8362,329
Raw,128,8363,329
Raw,133,8365,329
Raw,115,8367,329
Raw,34,8372,329
Raw,347,8372,329
Raw,123,8377,329
Raw,133,8378,329
Raw,127,8388,329
Raw,117,8391,329
Raw,106,8399,329
Raw,118,8399,329
Raw,114,8405,329
Raw,122,8417,329
Raw,282,8420,329
Raw,194,8421,329
Raw,235,8423,329
Raw,104,8425,329
Raw,112,8429,329
Raw,266,8442,329
Raw,102,8443,329
Raw,115,8443,329
Raw,114,8445,329
Raw,110,8446,329
Raw,81,8446,329
Raw,3,8449,329
Raw,107,8450,329
Raw,106,8458,329
Raw,85,8459,329
Raw,121,8473,329
Raw,45,8480,329
Raw,120,8483,329
Raw,118,8491,329
Raw,42,8494,329
Raw,238,8496,329
Raw,124,8504,329
Raw,165,8506,329
Raw,112,8507,329
Raw,110,8516,329
Raw,4,8519,329
Raw,127,8520,329
Raw,102,8522,329
Raw,77,8527,329
Raw,217,8532,329
Raw,116,8532,329
Raw,215,8535,329
Raw,125,8540,329
Raw,237,8541,329
Raw,53,8547,329
Raw,236,8553,329
Raw,75,8557,329
Raw,108,8584,329
Raw,230,8591,329
Raw,120,8602,329
Raw,109,8602,329
Raw,165,8625,329
Raw,18,8639,329
Raw,132,8645,329
Raw,125,8645,329
Raw,117,8647,329
Raw,92,8651,329
Raw,117,8656,329
Raw,130,8665,329
Raw,164,8670,329
Raw,108,8675,329
Raw,122,8696,329
Raw,118,8700,329
Raw,119,8700,329
Raw,224,8706,329
Raw,83,8706,329
Raw,27,8715,329
Raw,198,8725,329
Raw,112,8729,329
Raw,215,8731,329
Raw,129,8733,329
Raw,113,8733,329
Raw,166,8738,329
Raw,128,8740,329
Raw,225,8742,329
Raw,347,8744,329
Raw,111,8749,329
Raw,84,8752,329
Raw,86,8771,329
Raw,87,8771,329
Raw,112,8775,329
Raw,48,8779,329
Raw,303,8793,329
Raw,16,8797,329
Raw,123,8800,329
Raw,102,8803,329
Raw,120,8806,329
Raw,117,8806,329
Raw,130,8825,329
Raw,117,8833,329
Raw,263,8834,329
Raw,12,8836,329
Raw,121,8837,329
Raw,213,8839,329
Raw,126,8844,329
Raw,129,8845,329
Raw,105,8846,329
Raw,234,8848,329
Raw,99,8857,329
Raw,130,8864,329
Raw,97,8871,329
Raw,110,8871,329
Raw,112,8871,329
Raw,219,8876,329
Raw,103,8881,329
Raw,90,8882,329
Raw,206,8890,329
Raw,108,8897,329
Raw,35,8898,329
Raw,93,8901,329
Raw,289,8901,329
Raw,78,8901,329
Raw,229,8905,329
Raw,130,8911,329
Raw,97,8911,329
Raw,123,8911,329
Raw,136,8915,329
Raw,114,8938,329
Raw,216,8940,329
Raw,291,8948,329
Raw,116,8955,329
Raw,121,8955,329
Raw,40,8956,329
Raw,102,8969,329
Raw,137,8972,329
Raw,96,8972,329
Raw,120,8973,329
Raw,93,8977,329
Raw,102,8980,329
Raw,197,8986,329
Raw,79,8987,329
Raw,277,8987,329
Raw,209,8992,329
Raw,182,8992,329
Raw,113,8993,329
Raw,102,9006,329
Raw,116,9010,329
Raw,110,9012,329
Raw,133,9016,329
Raw,245,9016,329
Raw,113,9019,329
Raw,85,9021,329
Raw,327,9028,329
Raw,95,9028,329
Raw,93,9046,329
Raw,106,9050,329
Raw,83,9050,329
Raw,113,9058,329
Raw,112,9058,329
Raw,142,9063,329
Raw,146,9077,329
Raw,239,9080,329
Raw,109,9080,329
Raw,125,9081,329
Raw,130,9085,329
Raw,257,9088,329
Raw,112,9096,329
Raw,130,9108,329
Raw,125,9108,329
Raw,123,9113,329
Raw,219,9116,329
Raw,128,9129,329
Raw,268,9136,329
Raw,116,9150,329
Raw,132,9155,329
Raw,114,9164,329
Raw,104,9172,329
Raw,100,9181,329
Raw,126,9181,329
Raw,248,9182,329
Raw,121,9183,329
Raw,240,9183,329
Raw,114,9200,329
Raw,105,9201,329
Raw,51,9201,329
Raw,241,9203,329
Raw,106,9208,329
Raw,226,9210,329
Raw,275,9217,329
Raw,112,9217,329
Raw,190,9220,329
Raw,199,9228,329
Raw,76,9231,329
Raw,86,9234,329
Raw,100,9234,329
Raw,80,9242,329
Raw,254,9244,329
Raw,260,9250,329
Raw,137,9253,329
Raw,332,9277,329
Raw,132,9291,329
Raw,129,9295,329
Raw,108,9295,329
Raw,231,9298,329
Raw,212,9313,329
Raw,90,9315,329
Raw,210,9320,329
Raw,122,9321,329
Raw,222,9332,329
Raw,96,9334,329
Raw,128,9334,329
Raw,114,9335,329
Raw,110,9336,329
Raw,221,9337,329
Raw,108,9343,329
Raw,120,9344,329
Raw,241,9345,329
Raw,107,9353,329
Raw,127,9358,329
Raw,217,9364,329
Raw,111,9365,329
Raw,123,9366,329
Raw,119,9366,329
Raw,128,9373,329
Raw,74,9373,329
Raw,113,9377,329
Raw,216,9378,329
Raw,106,9380,329
Raw,342,9381,329
Raw,101,9384,329
Raw,115,9396,329
Raw,110,9410,329
Raw,256,9426,329
Raw,131,9434,329
Raw,108,9436,329
Raw,4,9436,329
Raw,120,9443,329
Raw,249,9448,329
Raw,150,9451,329
Raw,118,9454,329
Raw,126,9461,329
Raw,130,9464,329
Raw,122,9464,329
Raw,78,9471,329
Raw,86,9479,329
Raw,106,9484,329
Raw,111,9492,329
Raw,131,9493,329
Raw,196,9503,329
Raw,62,9519,329
Raw,109,9520,329
Raw,108,9538,329
Raw,104,9538,329
Raw,246,9543,329
Raw,111,9577,329
Raw,31,9577,329
Raw,92,9577,329
Raw,163,9580,329
Raw,192,9588,329
Raw,116,9592,329
Raw,110,9597,329
Raw,93,9603,329
Raw,121,9607,329
Raw,221,9611,329
Raw,222,9614,329
Raw,132,9614,329
Raw,138,9623,329
Raw,87,9623,329
Raw,149,9625,329
Raw,116,9625,329
Raw,118,9630,329
Raw,6,9639,329
Raw,239,9644,329
Raw,130,9644,329
Raw,105,9645,329
Raw,293,9646,329
Raw,118,9655,329
Raw,34,9656,329
Raw,123,9661,329
Raw,166,9667,329
Raw,59,9674,329
Raw,71,9680,329
Raw,135,9680,329
Raw,219,9681,329
Raw,112,9681,329
Raw,112,9682,329
Raw,106,9682,329
Raw,211,9686,329
Raw,101,9686,329
Raw,106,9691,329
Raw,209,9694,329
Raw,97,9695,329
Raw,118,9708,329
Raw,92,9711,329
Raw,122,9717,329
Raw,108,9717,329
Raw,100,9719,329
Raw,120,9726,329
Raw,110,9729,329
Raw,107,9737,329
Raw,200,9746,329
Raw,302,9751,329
Raw,110,9773,329
Raw,215,9774,329
Raw,118,9778,329
Raw,222,9782,329
Raw,216,9782,329
Raw,90,9785,329
Raw,120,9785,329
Raw,113,9785,329
Raw,116,9788,329
Raw,114,9791,329
Raw,85,9792,329
Raw,285,9792,329
Raw,222,9798,329
Raw,109,9815,329
Raw,118,9816,329
Raw,101,9818,329
Raw,112,9829,329
Raw,102,9829,329
Raw,68,9830,329
Raw,250,9831,329
Raw,132,9837,329
Raw,242,9838,329
Raw,142,9839,329
Raw,97,9845,329
Raw,117,9851,329
Raw,105,9874,329
Raw,122,9883,329
Raw,109,9884,329
Raw,243,9889,329
Raw,97,9893,329
Raw,109,9902,329
Raw,119,9905,329
Raw,134,9906,329
Raw,194,9918,329
Raw,122,9924,329
Raw,226,9928,329
Raw,230,9937,329
Raw,108,9940,329
Raw,119,9942,329
Raw,114,9953,329
Raw,72,9953,329
Raw,136,9968,329
Raw,223,9969,329
Raw,136,9974,329
Raw,333,9980,329
Raw,210,9987,329
Raw,348,10000,329
Raw,15,10003,329
Raw,114,10004,329
Raw,89,10008,329
Raw,121,10012,329
Raw,228,10030,329
Raw,116,10037,329
Raw,85,10055,329
Raw,107,10065,329
Raw,71,10065,329
Raw,115,10068,329
Raw,110,10070,329
Raw,86,10070,329
Raw,104,10075,329
Raw,3,10078,329
Raw,86,10102,329
Raw,61,10105,329
Raw,96,10108,329
Raw,119,10111,329
Raw,116,10111,329
Raw,119,10119,329
Raw,109,10128,329
Raw,103,10128,329
Raw,109,10131,329
Raw,164,10135,329
Raw,122,10140,329
Raw,133,10141,329
Raw,341,10144,329
Raw,53,10144,329
Raw,343,10146,329
Raw,95,10146,329
Raw,107,10149,329
Raw,118,10163,329
Raw,21,10164,329
Raw,124,10168,329
Raw,42,10168,329
Raw,150,10169,329
Raw,130,10171,329
Raw,347,10174,329
Raw,37,10174,329
Raw,189,10179,329
Raw,84,10179,329
Raw,329,10188,329
Raw,298,10191,329
Raw,216,10194,329
Raw,119,10194,329
Raw,252,10198,329
Raw,232,10202,329
Raw,142,10204,329
Raw,103,10208,329
Raw,113,10215,329
Raw,108,10217,329
Raw,110,10222,329
Raw,112,10222,329
Raw,138,10223,329
Raw,184,10233,329
Raw,99,10238,329
Raw,166,10239,329
Raw,329,10247,329
Raw,107,10247,329
Raw,67,10248,329
Raw,133,10251,329
Raw,113,10271,329
Raw,248,10285,329
Raw,205,10286,329
Raw,209,10287,329
Raw,109,10293,329
Raw,223,10307,329
Raw,128,10324,329
Raw,147,10327,329
Raw,301,10328,329
Raw,86,10329,329
Raw,97,10333,329
Raw,104,10333,329
Raw,256,10335,329
Raw,106,10337,329
Raw,340,10338,329
Raw,106,10338,329
Raw,111,10344,329
Raw,108,10352,329
Raw,127,10352,329
Raw,127,10354,329
Raw,321,10356,329
Raw,56,10356,329
Raw,117,10360,329
Raw,193,10360,329
Raw,117,10360,329
Raw,114,10374,329
Raw,180,10374,329
Raw,65,10374,329
Raw,202,10379,329
Raw,128,10384,329
Raw,124,10385,329
Raw,84,10388,329
Raw,3,10388,329
Raw,99,10391,329
Raw,88,10391,329
Raw,307,10394,329
Raw,191,10396,329
Raw,24,10396,329
Raw,98,10397,329
Raw,318,10404,329
Raw,230,10409,329
Raw,97,10415,329
Raw,95,10425,329
Raw,71,10425,329
Raw,216,10426,329
Raw,240,10427,329
Raw,63,10427,329
Raw,193,10432,329
Raw,121,10433,329
Raw,111,10444,329
Raw,132,10445,329
Raw,104,10446,329
Raw,244,10450,329
Raw,112,10453,329
Raw,97,10455,329
Raw,100,10457,329
Raw,127,10460,329
Raw,91,10460,329
Raw,171,10470,329
Raw,124,10471,329
Raw,128,10471,329
Raw,118,10480,329
Raw,168,10490,329
Raw,283,10496,329
Raw,108,10502,329
Raw,92,10502,329
Raw,161,10510,329
Raw,189,10516,329
Raw,124,10519,329
Raw,103,10519,329
Raw,119,10534,329
Raw,179,10535,329
Raw,71,10538,329
Raw,121,10547,329
Raw,90,10560,329
Raw,87,10560,329
Raw,244,10562,329
Raw,83,10564,329
Raw,3,10564,329
Raw,285,10570,329
Raw,200,10577,329
Raw,117,10603,329
Raw,11,10603,329
Raw,128,10621,329
Raw,221,10623,329
Raw,65,10623,329
Raw,102,10626,329
Raw,111,10630,329
Raw,105,10632,329
Raw,102,10636,329
Raw,127,10642,329
Raw,257,10644,329
Raw,125,10647,329
Raw,154,10654,329
Raw,126,10660,329
Raw,120,10667,329
Raw,118,10672,329
Raw,127,10679,329
Raw,11,10679,329
Raw,132,10680,329
Raw,121,10683,329
Raw,130,10692,329
Raw,130,10695,329
Raw,147,10700,329
Raw,103,10716,329
Raw,315,10720,329
Raw,109,10722,329
Raw,107,10725,329
Raw,103,10742,329
Raw,226,10745,329
Raw,142,10751,329
Raw,31,10753,329
Raw,82,10753,329
Raw,115,10755,329
Raw,206,10756,329
Raw,110,10756,329
Raw,114,10758,329
Raw,97,10760,329
Raw,114,10760,329
Raw,56,10764,329
Raw,12,10764,329
Raw,117,10766,329
Raw,129,10766,329
Raw,134,10767,329
Raw,308,10769,329
Raw,117,10770,329
Raw,71,10770,329
Raw,184,10771,329
Raw,103,10772,329
Raw,111,10779,329
Raw,106,10782,329
Raw,122,10786,329
Raw,122,10788,329
Raw,148,10790,329
Raw,208,10800,329
Raw,349,10804,329
Raw,19,10807,329
Raw,176,10814,329
Raw,28,10819,329
Raw,138,10820,329
Raw,117,10821,329
Raw,224,10824,329
Raw,183,10824,329
Raw,96,10827,329
Raw,138,10833,329
Raw,131,10836,329
Raw,75,10836,329
Raw,227,10839,329
Raw,71,10854,329
Raw,301,10863,329
Raw,47,10863,329
Raw,139,10867,329
Raw,79,10868,329
Raw,8,10868,329
Raw,330,10872,329
Raw,107,10877,329
Raw,126,10878,329
Raw,106,10881,329
Raw,102,10881,329
Raw,97,10881,329
Raw,190,10885,329
Raw,91,10885,329
Raw,32,10896,329
Raw,108,10902,329
Raw,135,10905,329
Raw,253,10906,329
Raw,114,10908,329
Raw,92,10909,329
Raw,111,10909,329
Raw,103,10918,329
Raw,121,10918,329
Raw,89,10920,329
Raw,205,10922,329
Raw,301,10929,329
Raw,64,10929,329
Raw,225,10930,329
Raw,125,10949,329
Raw,97,10957,329
Raw,125,10957,329
Raw,100,10957,329
Raw,111,10966,329
Raw,118,10967,329
Raw,240,10974,329
Raw,104,10974,329
Raw,98,10977,329
Raw,81,10979,329
Raw,146,10984,329
Raw,11,10984,329
Raw,117,10986,329
Raw,232,10987,329
Raw,57,11001,329
Raw,98,11001,329
Raw,253,11003,329
Raw,92,11009,329
Raw,33,11010,329
Raw,112,11010,329
Raw,244,11011,329
Raw,102,11012,329
Raw,105,11012,329
Raw,99,11017,329
Raw,263,11017,329
Raw,198,11025,329
Raw,102,11040,329
Raw,135,11041,329
Raw,128,11042,329
Raw,86,11043,329
Raw,325,11046,329
Raw,133,11062,329
Raw,92,11062,329
Raw,98,11064,329
Raw,123,11072,329
Raw,100,11083,329
Raw,276,11084,329
Raw,98,11089,329
Raw,154,11106,329
Raw,40,11106,329
Raw,113,11108,329
Raw,294,11115,329
Raw,74,11121,329
Raw,118,11121,329
Raw,120,11123,329
Raw,124,11127,329
Raw,126,11139,329
Raw,103,11142,329
Raw,135,11146,329
Raw,134,11149,329
Raw,214,11151,329
Raw,322,11155,329
Raw,231,11169,329
Raw,138,11172,329
Raw,115,11172,329
Raw,115,11182,329
Raw,116,11182,329
Raw,218,11185,329
Raw,280,11186,329
Raw,99,11193,329
Raw,214,11207,329
Raw,173,11209,329
Raw,123,11210,329
Raw,233,11213,329
Raw,3,11218,329
Raw,17,11223,329
Raw,117,11227,329
Raw,116,11236,329
Raw,122,11240,329
Raw,126,11248,329
Raw,108,11259,329
Raw,69,11260,329
Raw,25,11271,329
Raw,108,11277,329
Raw,128,11280,329
Raw,122,11284,329
Raw,98,11286,329
Raw,259,11291,329
Raw,82,11291,329
Raw,101,11309,329
Raw,101,11312,329
Raw,134,11314,329
Raw,117,11321,329
Raw,20,11323,329
Raw,132,11326,329
Raw,25,11329,329
Raw,227,11331,329
Raw,78,11332,329
Raw,110,11335,329
Raw,249,11336,329
Raw,118,11345,329
Raw,101,11349,329
Raw,230,11351,329
Raw,34,11352,329
Raw,10,11352,329
Raw,122,11355,329
Raw,129,11358,329
Raw,126,11365,329
Raw,88,11367,329
Raw,124,11375,329
Raw,101,11376,329
Raw,152,11378,329
Raw,110,11380,329
Raw,82,11380,329
Raw,135,11385,329
Raw,119,11390,329
Raw,121,11391,329
Raw,126,11397,329
Raw,93,11400,329
Raw,128,11409,329
Raw,125,11417,329
Raw,137,11419,329
Raw,105,11429,329
Raw,117,11429,329
Raw,120,11431,329
Raw,122,11434,329
Raw,165,11436,329
Raw,136,11437,329
Raw,81,11437,329
Raw,50,11444,329
Raw,123,11462,329
Raw,200,11483,329
Raw,112,11491,329
Raw,123,11499,329
Raw,131,11503,329
Raw,301,11504,329
Raw,197,11514,329
Raw,106,11518,329
Raw,94,11519,329
Raw,109,11520,329
Raw,122,11520,329
Raw,123,11528,329
Raw,106,11528,329
Raw,162,11529,329
Raw,231,11530,329
Raw,311,11537,329
Raw,21,11545,329
Raw,120,11555,329
Raw,51,11559,329
Raw,166,11563,329
Raw,280,11564,329
Raw,111,11566,329
Raw,88,11570,329
Raw,112,11570,329
Raw,122,11570,329
Raw,223,11572,329
Raw,20,11574,329
Raw,71,11585,329
Raw,91,11585,329
Raw,111,11594,329
Raw,87,11596,329
Raw,7,11604,329
Raw,118,11615,329
Raw,4,11615,329
Raw,34,11623,329
Raw,128,11633,329
Raw,87,11635,329
Raw,107,11638,329
Raw,254,11639,329
Raw,118,11644,329
Raw,125,11647,329
Raw,144,11648,329
Raw,79,11650,329
Raw,114,11665,329
Raw,174,11674,329
Raw,344,11677,329
Raw,311,11682,329
Raw,107,11692,329
Raw,119,11706,329
Raw,73,11709,329
Raw,281,11713,329
Raw,163,11718,329
Raw,193,11719,329
Raw,122,11723,329
Raw,13,11723,329
Raw,55,11725,329
Raw,109,11732,329
Raw,121,11733,329
Raw,302,11737,329
Raw,245,11745,329
Raw,151,11747,329
Raw,113,11747,329
Raw,112,11749,329
Raw,77,11755,329
Raw,209,11756,329
Raw,114,11765,329
Raw,145,11767,329
Raw,122,11775,329
Raw,116,11777,329
Raw,110,11797,329
Raw,122,11799,329
Raw,128,11801,329
Raw,15,11801,329
Raw,96,11811,329
Raw,82,11813,329
Raw,115,11817,329
Raw,132,11824,329
Raw,185,11825,329
Raw,12,11832,329
Raw,210,11835,329
Raw,100,11841,329
Raw,117,11843,329
Raw,131,11845,329
Raw,233,11848,329
Raw,118,11849,329
Raw,130,11870,329
Raw,235,11872,329
Raw,124,11876,329
Raw,32,11878,329
Raw,198,11880,329
Raw,113,11881,329
Raw,78,11887,329
Raw,102,11888,329
Raw,114,11894,329
Raw,120,11899,329
Raw,226,11913,329
Raw,18,11918,329
Raw,122,11934,329
Raw,116,11935,329
Raw,96,11935,329
Raw,113,11938,329
Raw,99,11940,329
Raw,36,11940,329
Raw,105,11943,329
Raw,113,11943,329
Raw,19,11965,329
Raw,126,11966,329
Raw,124,11979,329
Raw,184,11980,329
Raw,106,11984,329
Raw,301,11986,329
Raw,52,11989,329
Raw,90,11989,329
Raw,114,11990,329
Raw,225,11996,329
Raw,107,12000,329
Raw,3,12008,329
Raw,91,12011,329
Raw,123,12019,329
Raw,124,12031,329
Raw,240,12034,329
Raw,346,12038,329
Raw,261,12041,329
Raw,139,12043,329
Raw,227,12046,329
Raw,139,12047,329
Raw,112,12066,329
Raw,72,12068,329
Raw,67,12072,329
Raw,3,12079,329
Raw,309,12081,329
Raw,127,12089,329
Raw,95,12092,329
Raw,65,12094,329
Raw,120,12095,329
Raw,262,12114,329
Raw,194,12116,329
Raw,236,12118,329
Raw,130,12126,329
Raw,108,12136,329
Raw,70,12148,329
Raw,186,12152,329
Raw,110,12152,329
Raw,121,12156,329
Raw,82,12162,329
Raw,111,12163,329
Raw,122,12170,329
Raw,259,12172,329
Raw,234,12177,329
Raw,16,12184,329
Raw,235,12186,329
Raw,109,12189,329
Raw,108,12189,329
Raw,6,12191,329
Raw,20,12191,329
Raw,177,12198,329
Raw,35,12198,329
Raw,85,12200,329
Raw,111,12201,329
Raw,116,12215,329
Raw,117,12227,329
Raw,112,12227,329
Raw,238,12229,329
Raw,126,12230,329
Raw,101,12230,329
Raw,124,12235,329
Raw,121,12241,329
Raw,67,12244,329
Raw,194,12245,329
Raw,216,12248,329
Raw,122,12249,329
Raw,102,12255,329
Raw,285,12257,329
Raw,29,12260,329
Raw,154,12263,329
Raw,231,12266,329
Raw,101,12268,329
Raw,115,12277,329
Raw,10,12277,329
Raw,13,12277,329
Raw,220,12291,329
Raw,72,12291,329
Raw,89,12304,329
Raw,94,12304,329
Raw,124,12309,329
Raw,101,12312,329
Raw,120,12312,329
Raw,101,12325,329
Raw,108,12334,329
Raw,29,12334,329
Raw,119,12343,329
Raw,124,12348,329
Raw,101,12366,329
Raw,111,12366,329
Raw,115,12372,329
Raw,125,12379,329
Raw,93,12387,329
Raw,104,12387,329
Raw,96,12396,329
Raw,69,12398,329
Raw,119,12399,329
Raw,118,12404,329
Raw,54,12408,329
Raw,119,12425,329
Raw,103,12429,329
Raw,109,12431,329
Raw,112,12431,329
Raw,232,12443,329
Raw,91,12444,329
Raw,73,12451,329
Raw,223,12463,329
Raw,129,12463,329
Raw,237,12465,329
Raw,28,12465,329
Raw,105,12471,329
Raw,131,12478,329
Raw,83,12478,329
Raw,107,12480,329
Raw,117,12489,329
Raw,109,12489,329
Raw,6,12489,329
Raw,316,12491,329
Raw,118,12495,329
Raw,119,12496,329
Raw,46,12496,329
Raw,125,12511,329
Raw,91,12513,329
Raw,116,12516,329
Raw,56,12517,329
Raw,130,12520,329
Raw,39,12520,329
Raw,222,12525,329
Raw,113,12525,329
Raw,108,12527,329
Raw,49,12531,329
Raw,308,12546,329
Raw,120,12551,329
Raw,94,12558,329
Raw,102,12558,329
Raw,182,12559,329
Raw,108,12571,329
Raw,194,12574,329
Raw,132,12583,329
Raw,128,12589,329
Raw,109,12590,329
Raw,117,12590,329
Raw,105,12591,329
Raw,114,12597,329
Raw,82,12600,329
Raw,125,12601,329
Raw,127,12606,329
Raw,67,12615,329
Raw,117,12617,329
Raw,54,12627,329
Raw,13,12627,329
Raw,127,12630,329
Raw,151,12638,329
Raw,114,12642,329
Raw,207,12647,329
Raw,187,12649,329
Raw,110,12668,329
Raw,136,12669,329
Raw,121,12673,329
Raw,66,12673,329
Raw,248,12685,329
Raw,59,12685,329
Raw,97,12694,329
Raw,130,12699,329
Raw,242,12703,329
Raw,111,12712,329
Raw,188,12717,329
Raw,48,12722,329
Raw,267,12728,329
Raw,184,12734,329
Raw,115,12734,329
Raw,124,12739,329
Raw,111,12747,329
Raw,93,12751,329
Raw,201,12752,329
Raw,93,12769,329
Raw,133,12774,329
Raw,264,12780,329
Raw,104,12783,329
Raw,236,12797,329
Raw,115,12798,329
Raw,118,12802,329
Raw,17,12805,329
Raw,249,12810,329
Raw,122,12810,329
Raw,102,12813,329
Raw,137,12815,329
Raw,234,12819,329
Raw,76,12828,329
Raw,108,12844,329
Raw,17,12852,329
Raw,63,12855,329
Raw,126,12856,329
Raw,81,12856,329
Raw,294,12868,329
Raw,180,12869,329
Raw,165,12881,329
Raw,91,12883,329
Raw,11,12886,329
Raw,169,12889,329
Raw,306,12900,329
Raw,120,12902,329
Raw,123,12908,329
Raw,76,12912,329
Raw,228,12915,329
Raw,75,12921,329
Raw,97,12929,329
Raw,104,12929,329
Raw,89,12929,329
Raw,216,12937,329
Raw,93,12948,329
Raw,78,12948,329
Raw,137,12964,329
Raw,104,12966,329
Raw,181,12972,329
Raw,302,12973,329
Raw,7,12973,329
Raw,97,12979,329
Raw,108,12984,329
Raw,102,12985,329
Raw,197,12987,329
Raw,125,13002,329
Raw,122,13005,329
Raw,143,13009,329
Raw,243,13020,329
Raw,113,13022,329
Raw,217,13028,329
Raw,97,13033,329
Raw,269,13049,329
Raw,135,13053,329
Raw,123,13055,329
Raw,201,13060,329
Raw,349,13063,329
Raw,103,13064,329
Raw,168,13074,329
Raw,126,13077,329
Raw,100,13083,329
Raw,169,13084,329
Raw,56,13089,329
Raw,126,13090,329
Raw,99,13095,329
Raw,103,13098,329
Raw,250,13100,329
Raw,176,13105,329
Raw,127,13106,329
Raw,15,13111,329
Raw,101,13114,329
Raw,80,13115,329
Raw,108,13120,329
Raw,106,13123,329
Raw,12,13123,329
Raw,102,13124,329
Raw,103,13124,329
Raw,110,13128,329
Raw,209,13129,329
Raw,132,13135,329
Raw,59,13141,329
Raw,175,13146,329
Raw,259,13171,329
Raw,109,13171,329
Raw,113,13171,329
Raw,113,13173,329
Raw,52,13177,329
Raw,127,13178,329
Raw,278,13183,329
Raw,126,13188,329
Raw,99,13190,329
Raw,87,13190,329
Raw,220,13195,329
Raw,43,13197,329
Raw,112,13199,329
Raw,128,13206,329
Raw,98,13206,329
Raw,122,13211,329
Raw,126,13211,329
Raw,116,13219,329
Raw,197,13221,329
Raw,106,13221,329
Raw,93,13224,329
Raw,97,13229,329
Raw,244,13232,329
Raw,125,13233,329
Raw,108,13233,329
Raw,118,13235,329
Raw,113,13237,329
Raw,62,13237,329
Raw,122,13245,329
Raw,95,13247,329
Raw,132,13254,329
Raw,120,13254,329
Raw,80,13265,329
Raw,100,13274,329
Raw,120,13283,329
Raw,154,13283,329
Raw,50,13294,329
Raw,135,13295,329
Raw,123,13296,329
Raw,49,13299,329
Raw,115,13307,329
Raw,249,13309,329
Raw,243,13321,329
Raw,123,13323,329
Raw,236,13346,329
Raw,252,13347,329
Raw,123,13353,329
Raw,102,13356,329
Raw,347,13366,329
Raw,110,13367,329
Raw,130,13369,329
Raw,121,13376,329
Raw,95,13377,329
Raw,134,13380,329
Raw,121,13380,329
Raw,114,13381,329
Raw,117,13382,329
Raw,214,13398,329
Raw,202,13401,329
Raw,87,13401,329
Raw,138,13402,329
Raw,81,13402,329
Raw,243,13406,329
Raw,131,13414,329
Raw,344,13419,329
Raw,312,13421,329
Raw,220,13423,329
Raw,131,13423,329
Raw,135,13429,329
Raw,33,13429,329
Raw,146,13431,329
Raw,201,13431,329
Raw,135,13443,329
Raw,41,13444,329
Raw,290,13452,329
Raw,95,13461,329
Raw,335,13463,329
Raw,210,13466,329
Raw,119,13466,329
Raw,201,13468,329
Raw,325,13471,329
Raw,97,13474,329
Raw,112,13481,329
Raw,342,13484,329
Raw,137,13490,329
Raw,113,13490,329
Raw,179,13496,329
Raw,131,13498,329
Raw,255,13507,329
Raw,12,13508,329
Raw,345,13509,329
Raw,126,13513,329
Raw,126,13530,329
Raw,285,13530,329
Raw,53,13535,329
Raw,285,13552,329
Raw,129,13553,329
Raw,67,13553,329
Raw,121,13556,329
Raw,255,13588,329
Raw,88,13591,329
Raw,93,13599,329
Raw,248,13609,329
Raw,121,13617,329
Raw,116,13617,329
Raw,185,13618,329
Raw,104,13627,329
Raw,149,13629,329
Raw,335,13632,329
Raw,106,13633,329
Raw,113,13639,329
Raw,105,13639,329
Raw,117,13656,329
Raw,96,13661,329
Raw,101,13668,329
Raw,124,13669,329
Raw,107,13670,329
Raw,102,13691,329
Raw,242,13695,329
Raw,4,13696,329
Raw,239,13700,329
Raw,226,13701,329
Raw,214,13702,329
Raw,110,13703,329
Raw,127,13708,329
Raw,138,13710,329
Raw,115,13711,329
Raw,120,13721,329
Raw,133,13721,329
Raw,165,13722,329
Raw,187,13726,329
Raw,306,13730,329
Raw,130,13731,329
Raw,11,13734,329
Raw,25,13735,329
Raw,75,13737,329
Raw,122,13737,329
Raw,249,13740,329
Raw,80,13752,329
Raw,121,13752,329
Raw,16,13759,329
Raw,140,13761,329
Raw,114,13767,329
Raw,99,13767,329
Raw,120,13771,329
Raw,242,13778,329
Raw,231,13778,329
Raw,108,13780,329
Raw,82,13780,329
Raw,96,13789,329
Raw,59,13800,329
Raw,128,13804,329
Raw,57,13806,329
Raw,227,13810,329
Raw,116,13812,329
Raw,202,13812,329
Raw,243,13820,329
Raw,221,13821,329
Raw,273,13822,329
Raw,308,13825,329
Raw,35,13830,329
Raw,15,13835,329
Raw,63,13837,329
Raw,96,13839,329
Raw,132,13842,329
Raw,119,13858,329
Raw,123,13859,329
Raw,15,13859,329
Raw,95,13860,329
Raw,136,13867,329
Raw,206,13873,329
Raw,95,13876,329
Raw,114,13886,329
Raw,110,13888,329
Raw,113,13891,329
Raw,113,13891,329
Raw,188,13893,329
Raw,111,13893,329
Raw,14,13901,329
Raw,154,13908,329
Raw,127,13911,329
Raw,122,13913,329
Raw,34,13913,329
Raw,143,13924,329
Raw,105,13924,329
Raw,203,13925,329
Raw,128,13925,329
Raw,213,13936,329
Raw,26,13937,329
Raw,243,13939,329
Raw,133,13942,329
Raw,202,13948,329
Raw,9,13962,329
Raw,122,13969,329
Raw,129,13969,329
Raw,220,13973,329
Raw,111,13977,329
Raw,263,13985,329
Raw,124,13988,329
Raw,5,13988,329
Raw,112,13995,329
Raw,129,13996,329
Raw,102,13996,329
Raw,136,13998,329
Raw,100,14001,329
Raw,90,14005,329
Raw,90,14006,329
Raw,196,14013,329
Raw,103,14026,329
Raw,6,14027,329
Raw,217,14029,329
Raw,44,14031,329
Raw,116,14039,329
Raw,102,14039,329
Raw,209,14040,329
Raw,220,14042,329
Raw,100,14055,329
Raw,78,14055,329
Raw,224,14057,329
Raw,93,14057,329
Raw,107,14058,329
Raw,106,14072,329
Raw,89,14072,329
Raw,267,14073,329
Raw,88,14075,329
Raw,193,14092,329
Raw,129,14092,329
Raw,115,14106,329
Raw,120,14106,329
Raw,92,14106,329
Raw,194,14117,329
Raw,108,14117,329
Raw,123,14127,329
Raw,171,14131,329
Raw,122,14132,329
Raw,223,14132,329
Raw,106,14134,329
Raw,88,14135,329
Raw,112,14142,329
Raw,235,14145,329
Raw,128,14149,329
Raw,328,14153,329
Raw,109,14155,329
Raw,116,14162,329
Raw,113,14162,329
Raw,102,14170,329
Raw,58,14170,329
Raw,113,14173,329
Raw,232,14177,329
Raw,142,14191,329
Raw,86,14195,329
Raw,90,14199,329
Raw,26,14201,329
Raw,101,14212,329
Raw,114,14214,329
Raw,77,14214,329
Raw,64,14214,329
Raw,242,14219,329
Raw,113,14220,329
Raw,121,14223,329
Raw,130,14223,329
Raw,104,14231,329
Raw,107,14238,329
Raw,104,14244,329
Raw,108,14247,329
Raw,114,14248,329
Raw,247,14250,329
Raw,135,14254,329
Raw,229,14257,329
Raw,326,14264,329
Raw,117,14267,329
Raw,334,14271,329
Raw,57,14280,329
Raw,116,14298,329
Raw,125,14302,329
Raw,130,14303,329
Raw,332,14307,329
Raw,111,14307,329
Raw,176,14316,329
Raw,103,14317,329
Raw,116,14322,329
Raw,157,14329,329
Raw,219,14334,329
Raw,59,14335,329
Raw,78,14335,329
Raw,101,14341,329
Raw,239,14350,329
Raw,110,14356,329
Raw,97,14356,329
Raw,111,14371,329
Raw,110,14394,329
Raw,127,14398,329
Raw,96,14398,329
Raw,65,14411,329
Raw,207,14415,329
Raw,72,14416,329
Raw,111,14419,329
Raw,112,14424,329
Raw,107,14424,329
Raw,112,14431,329
Raw,94,14431,329
Raw,329,14432,329
Raw,51,14440,329
Raw,28,14448,329
Raw,232,14452,329
Raw,190,14454,329
Raw,228,14456,329
Raw,52,14456,329
Raw,106,14457,329
Raw,76,14458,329
Raw,207,14459,329
Raw,94,14459,329
Raw,111,14462,329
Raw,3,14462,329
Raw,130,14470,329
Raw,140,14472,329
Raw,116,14478,329
Raw,90,14479,329
Raw,179,14482,329
Raw,108,14486,329
Raw,114,14486,329
Raw,99,14491,329
Raw,283,14493,329
Raw,117,14504,329
Raw,259,14507,329
Raw,124,14516,329
Raw,204,14517,329
Raw,97,14522,329
Raw,268,14522,329
Raw,237,14533,329
Raw,101,14540,329
Raw,293,14541,329
Raw,69,14541,329
Raw,42,14555,329
Raw,46,14556,329
Raw,127,14557,329
Raw,113,14560,329
Raw,111,14573,329
Raw,290,14574,329
Raw,120,14575,329
Raw,202,14579,329
Raw,349,14581,329
Raw,113,14587,329
Raw,54,14587,329
Raw,155,14588,329
Raw,235,14589,329
Raw,135,14594,329
Raw,130,14595,329
Raw,61,14602,329
Raw,91,14606,329
Raw,120,14606,329
Raw,101,14609,329
Raw,112,14610,329
Raw,149,14616,329
Raw,263,14633,329
Raw,112,14636,329
Raw,119,14638,329
Raw,90,14640,329
Raw,117,14642,329
Raw,122,14643,329
Raw,117,14646,329
Raw,110,14661,329
Raw,139,14662,329
Raw,241,14662,329
Raw,57,14662,329
Raw,238,14686,329
Raw,126,14692,329
Raw,106,14693,329
Raw,115,14697,329
Raw,230,14699,329
Raw,120,14700,329
Raw,68,14705,329
Raw,255,14706,329
Raw,209,14713,329
Raw,108,14724,329
Raw,118,14725,329
Raw,131,14727,329
Raw,345,14730,329
Raw,120,14731,329
Raw,112,14734,329
Raw,104,14734,329
Raw,75,14752,329
Raw,118,14763,329
Raw,120,14763,329
Raw,107,14768,329
Raw,116,14769,329
Raw,105,14770,329
Raw,82,14770,329
Raw,306,14777,329
Raw,215,14778,329
Raw,102,14779,329
Raw,51,14779,329
Raw,117,14782,329
Raw,40,14782,329
Raw,107,14783,329
Raw,244,14790,329
Raw,124,14800,329
Raw,268,14808,329
Raw,109,14812,329
Raw,122,14813,329
Raw,134,14814,329
Raw,109,14814,329
Raw,218,14815,329
Raw,116,14828,329
Raw,103,14829,329
Raw,178,14832,329
Raw,105,14837,329
Raw,28,14844,329
Raw,133,14845,329
Raw,95,14852,329
