Cut?,Counts,eventNumber,runNumber
Raw,86,0,351
Raw,96,1,351
Raw,46,1,351
Raw,101,3,351
Raw,119,4,351
Raw,58,5,351
Raw,102,6,351
Raw,93,7,351
Raw,49,8,351
Raw,102,9,351
Raw,84,10,351
Raw,102,11,351
Raw,104,12,351
Raw,118,13,351
Raw,97,14,351
Raw,101,15,351
Raw,118,16,351
Raw,113,18,351
Raw,118,19,351
Raw,114,20,351
Raw,112,21,351
Raw,109,22,351
Raw,68,23,351
Raw,118,24,351
Raw,112,25,351
Raw,125,26,351
Raw,82,27,351
Raw,76,28,351
Raw,288,29,351
Raw,100,30,351
Raw,123,31,351
Raw,114,32,351
Raw,129,34,351
Raw,118,35,351
Raw,103,36,351
Raw,77,37,351
Raw,49,38,351
Raw,113,39,351
Raw,82,40,351
Raw,103,41,351
Raw,113,42,351
Raw,125,43,351
Raw,29,44,351
Raw,131,45,351
Raw,110,46,351
Raw,114,47,351
Raw,97,48,351
Raw,101,49,351
Raw,62,50,351
Raw,50,51,351
Raw,136,52,351
Raw,70,53,351
Raw,107,54,351
Raw,98,55,351
Raw,104,56,351
Raw,81,57,351
Raw,213,58,351
Raw,63,59,351
Raw,112,60,351
Raw,124,61,351
Raw,101,62,351
Raw,121,63,351
Raw,102,64,351
Raw,90,65,351
Raw,125,66,351
Raw,94,67,351
Raw,77,68,351
Raw,84,69,351
Raw,116,71,351
Raw,110,72,351
Raw,153,73,351
Raw,152,74,351
Raw,68,75,351
Raw,113,76,351
Raw,103,77,351
Raw,129,78,351
Raw,111,79,351
Raw,120,80,351
Raw,96,81,351
Raw,95,82,351
Raw,114,83,351
Raw,96,84,351
Raw,92,85,351
Raw,59,86,351
Raw,116,87,351
Raw,113,88,351
Raw,123,89,351
Raw,124,90,351
Raw,13,90,351
Raw,95,91,351
Raw,133,92,351
Raw,108,93,351
Raw,111,94,351
Raw,111,95,351
Raw,50,96,351
Raw,119,97,351
Raw,109,98,351
Raw,114,99,351
Raw,188,100,351
Raw,96,101,351
Raw,113,102,351
Raw,119,103,351
Raw,83,105,351
Raw,99,106,351
Raw,137,108,351
Raw,127,109,351
Raw,99,110,351
Raw,121,111,351
Raw,114,112,351
Raw,132,113,351
Raw,93,114,351
Raw,114,115,351
Raw,40,116,351
Raw,99,117,351
Raw,96,118,351
Raw,21,118,351
Raw,102,119,351
Raw,62,120,351
Raw,117,121,351
Raw,87,122,351
Raw,203,123,351
Raw,118,124,351
Raw,93,125,351
Raw,57,126,351
Raw,125,127,351
Raw,69,129,351
Raw,169,130,351
Raw,130,131,351
Raw,147,132,351
Raw,94,133,351
Raw,106,134,351
Raw,103,135,351
Raw,50,136,351
Raw,38,136,351
Raw,133,137,351
Raw,105,138,351
Raw,125,139,351
Raw,100,140,351
Raw,116,141,351
Raw,116,142,351
Raw,135,143,351
Raw,85,144,351
Raw,71,145,351
Raw,91,146,351
Raw,110,147,351
Raw,106,148,351
Raw,173,149,351
Raw,118,150,351
Raw,100,152,351
Raw,286,153,351
Raw,74,154,351
Raw,93,155,351
Raw,72,156,351
Raw,117,157,351
Raw,84,158,351
Raw,108,159,351
Raw,80,160,351
Raw,122,161,351
Raw,88,162,351
Raw,84,163,351
Raw,130,164,351
Raw,92,165,351
Raw,116,166,351
Raw,136,167,351
Raw,100,168,351
Raw,108,169,351
Raw,103,170,351
Raw,116,171,351
Raw,112,172,351
Raw,142,173,351
Raw,107,174,351
Raw,49,175,351
Raw,119,176,351
Raw,100,177,351
Raw,111,178,351
Raw,121,179,351
Raw,118,180,351
Raw,106,181,351
Raw,119,182,351
Raw,105,183,351
Raw,120,184,351
Raw,105,185,351
Raw,96,186,351
Raw,77,187,351
Raw,112,188,351
Raw,121,189,351
Raw,101,190,351
Raw,102,191,351
Raw,111,192,351
Raw,105,193,351
Raw,75,194,351
Raw,114,195,351
Raw,119,196,351
Raw,110,197,351
Raw,70,198,351
Raw,112,199,351
Raw,116,200,351
Raw,110,201,351
Raw,123,202,351
Raw,117,203,351
Raw,119,204,351
Raw,95,205,351
Raw,192,206,351
Raw,93,207,351
Raw,112,208,351
Raw,106,209,351
Raw,116,210,351
Raw,91,211,351
Raw,101,212,351
Raw,96,213,351
Raw,99,214,351
Raw,61,215,351
Raw,70,216,351
Raw,95,217,351
Raw,117,218,351
Raw,6,218,351
Raw,42,219,351
Raw,101,220,351
Raw,114,221,351
Raw,118,222,351
Raw,109,223,351
Raw,95,224,351
Raw,94,225,351
Raw,115,226,351
Raw,109,227,351
Raw,195,228,351
Raw,86,229,351
Raw,109,230,351
Raw,11,230,351
Raw,97,231,351
Raw,104,232,351
Raw,124,233,351
Raw,74,234,351
Raw,178,235,351
Raw,64,236,351
Raw,112,237,351
Raw,121,238,351
Raw,73,239,351
Raw,97,240,351
Raw,119,241,351
Raw,95,242,351
Raw,116,243,351
Raw,84,244,351
Raw,135,245,351
Raw,97,246,351
Raw,98,247,351
Raw,59,248,351
Raw,116,250,351
Raw,120,252,351
Raw,47,253,351
Raw,92,254,351
Raw,117,255,351
Raw,117,256,351
Raw,89,257,351
Raw,105,258,351
Raw,10,259,351
Raw,64,259,351
Raw,118,260,351
Raw,106,261,351
Raw,91,262,351
Raw,110,263,351
Raw,119,264,351
Raw,138,265,351
Raw,112,266,351
Raw,121,267,351
Raw,87,268,351
Raw,112,269,351
Raw,81,269,351
Raw,95,270,351
Raw,113,271,351
Raw,76,272,351
Raw,109,274,351
Raw,116,275,351
Raw,98,276,351
Raw,111,277,351
Raw,108,278,351
Raw,170,281,351
Raw,38,281,351
Raw,65,282,351
Raw,116,283,351
Raw,100,284,351
Raw,113,285,351
Raw,124,286,351
Raw,106,287,351
Raw,104,288,351
Raw,87,289,351
Raw,122,290,351
Raw,104,291,351
Raw,112,292,351
Raw,82,293,351
Raw,85,294,351
Raw,119,295,351
Raw,102,296,351
Raw,112,297,351
Raw,70,298,351
Raw,91,299,351
Raw,118,301,351
Raw,105,302,351
Raw,92,303,351
Raw,98,304,351
Raw,106,305,351
Raw,88,306,351
Raw,130,307,351
Raw,102,308,351
Raw,64,309,351
Raw,94,310,351
Raw,119,311,351
Raw,103,312,351
Raw,132,313,351
Raw,125,314,351
Raw,204,315,351
Raw,98,316,351
Raw,92,317,351
Raw,119,318,351
Raw,95,319,351
Raw,117,320,351
Raw,97,321,351
Raw,106,322,351
Raw,115,323,351
Raw,91,324,351
Raw,130,325,351
Raw,108,326,351
Raw,124,327,351
Raw,85,328,351
Raw,99,329,351
Raw,95,330,351
Raw,41,330,351
Raw,139,331,351
Raw,111,332,351
Raw,100,333,351
Raw,109,334,351
Raw,118,336,351
Raw,117,338,351
Raw,121,339,351
Raw,111,340,351
Raw,99,341,351
Raw,96,342,351
Raw,127,343,351
Raw,206,344,351
Raw,106,345,351
Raw,113,346,351
Raw,67,347,351
Raw,102,348,351
Raw,201,349,351
Raw,125,350,351
Raw,94,351,351
Raw,99,352,351
Raw,100,354,351
Raw,121,355,351
Raw,97,356,351
Raw,59,357,351
Raw,104,358,351
Raw,91,359,351
Raw,51,360,351
Raw,109,361,351
Raw,111,362,351
Raw,93,363,351
Raw,107,364,351
Raw,115,365,351
Raw,249,366,351
Raw,86,366,351
Raw,106,368,351
Raw,31,369,351
Raw,128,370,351
Raw,105,371,351
Raw,122,372,351
Raw,130,373,351
Raw,107,374,351
Raw,11,374,351
Raw,99,375,351
Raw,100,377,351
Raw,94,378,351
Raw,98,379,351
Raw,87,380,351
Raw,153,381,351
Raw,67,382,351
Raw,77,383,351
Raw,86,384,351
Raw,116,385,351
Raw,151,386,351
Raw,100,387,351
Raw,91,388,351
Raw,115,389,351
Raw,86,390,351
Raw,107,391,351
Raw,88,392,351
Raw,111,393,351
Raw,117,394,351
Raw,113,396,351
Raw,122,397,351
Raw,15,397,351
Raw,116,398,351
Raw,67,399,351
Raw,109,400,351
Raw,92,401,351
Raw,61,402,351
Raw,116,403,351
Raw,115,404,351
Raw,106,405,351
Raw,105,406,351
Raw,109,407,351
Raw,101,408,351
Raw,78,409,351
Raw,124,410,351
Raw,108,411,351
Raw,48,411,351
Raw,89,412,351
Raw,66,414,351
Raw,75,415,351
Raw,110,416,351
Raw,118,417,351
Raw,106,419,351
Raw,115,420,351
Raw,103,421,351
Raw,102,422,351
Raw,107,423,351
Raw,115,424,351
Raw,86,425,351
Raw,86,426,351
Raw,122,427,351
Raw,117,429,351
Raw,107,430,351
Raw,98,431,351
Raw,101,432,351
Raw,72,433,351
Raw,91,434,351
Raw,93,435,351
Raw,108,436,351
Raw,59,437,351
Raw,122,438,351
Raw,22,438,351
Raw,99,439,351
Raw,72,440,351
Raw,72,441,351
Raw,31,442,351
Raw,111,443,351
Raw,102,444,351
Raw,85,445,351
Raw,103,446,351
Raw,94,447,351
Raw,111,448,351
Raw,72,449,351
Raw,105,450,351
Raw,134,451,351
Raw,104,452,351
Raw,71,453,351
Raw,156,454,351
Raw,121,455,351
Raw,112,456,351
Raw,105,457,351
Raw,117,458,351
Raw,198,459,351
Raw,103,460,351
Raw,127,461,351
Raw,93,462,351
Raw,101,464,351
Raw,72,465,351
Raw,111,466,351
Raw,94,467,351
Raw,89,468,351
Raw,54,469,351
Raw,101,471,351
Raw,115,472,351
Raw,103,474,351
Raw,109,475,351
Raw,104,475,351
Raw,96,476,351
Raw,89,477,351
Raw,57,478,351
Raw,164,479,351
Raw,108,479,351
Raw,175,480,351
Raw,118,481,351
Raw,94,482,351
Raw,102,483,351
Raw,33,484,351
Raw,105,484,351
Raw,103,485,351
Raw,115,486,351
Raw,100,487,351
Raw,69,488,351
Raw,81,488,351
Raw,123,489,351
Raw,92,490,351
Raw,58,491,351
Raw,104,492,351
Raw,119,493,351
Raw,320,494,351
Raw,113,495,351
Raw,110,496,351
Raw,109,497,351
Raw,168,498,351
Raw,126,500,351
Raw,86,501,351
Raw,116,502,351
Raw,124,503,351
Raw,86,504,351
Raw,129,505,351
Raw,118,506,351
Raw,105,507,351
Raw,101,508,351
Raw,129,509,351
Raw,101,510,351
Raw,99,511,351
Raw,115,512,351
Raw,116,513,351
Raw,118,514,351
Raw,125,515,351
Raw,85,516,351
Raw,78,517,351
Raw,91,518,351
Raw,124,519,351
Raw,110,520,351
Raw,126,521,351
Raw,113,522,351
Raw,113,523,351
Raw,115,524,351
Raw,67,525,351
Raw,103,526,351
Raw,132,527,351
Raw,123,528,351
Raw,120,529,351
Raw,112,530,351
Raw,8,530,351
Raw,124,531,351
Raw,118,532,351
Raw,246,533,351
Raw,53,535,351
Raw,90,536,351
Raw,98,537,351
Raw,119,538,351
Raw,98,539,351
Raw,305,540,351
Raw,199,540,351
Raw,86,541,351
Raw,114,542,351
Raw,94,543,351
Raw,101,544,351
Raw,120,545,351
Raw,98,546,351
Raw,224,547,351
Raw,108,548,351
Raw,94,549,351
Raw,75,550,351
Raw,81,551,351
Raw,92,552,351
Raw,102,553,351
Raw,90,554,351
Raw,121,555,351
Raw,72,556,351
Raw,109,557,351
Raw,92,559,351
Raw,43,559,351
Raw,117,560,351
Raw,131,561,351
Raw,110,562,351
Raw,108,563,351
Raw,111,564,351
Raw,97,565,351
Raw,98,566,351
Raw,35,566,351
Raw,105,567,351
Raw,106,570,351
Raw,86,571,351
Raw,67,573,351
Raw,110,574,351
Raw,106,575,351
Raw,84,576,351
Raw,123,578,351
Raw,100,579,351
Raw,95,580,351
Raw,105,581,351
Raw,113,582,351
Raw,102,583,351
Raw,90,584,351
Raw,106,585,351
Raw,100,586,351
Raw,100,587,351
Raw,203,588,351
Raw,102,589,351
Raw,128,590,351
Raw,112,591,351
Raw,103,592,351
Raw,108,593,351
Raw,95,594,351
Raw,155,596,351
Raw,107,597,351
Raw,126,599,351
Raw,96,600,351
Raw,104,601,351
Raw,99,602,351
Raw,11,602,351
Raw,98,603,351
Raw,121,604,351
Raw,102,605,351
Raw,99,606,351
Raw,114,607,351
Raw,63,608,351
Raw,114,609,351
Raw,112,610,351
Raw,94,611,351
Raw,102,612,351
Raw,99,613,351
Raw,131,614,351
Raw,99,615,351
Raw,113,616,351
Raw,108,617,351
Raw,99,618,351
Raw,114,619,351
Raw,107,620,351
Raw,110,621,351
Raw,95,623,351
Raw,96,624,351
Raw,110,625,351
Raw,6,625,351
Raw,110,626,351
Raw,40,626,351
Raw,113,627,351
Raw,111,628,351
Raw,125,629,351
Raw,102,630,351
Raw,67,631,351
Raw,96,632,351
Raw,82,633,351
Raw,105,634,351
Raw,105,635,351
Raw,66,636,351
Raw,115,637,351
Raw,108,638,351
Raw,122,639,351
Raw,57,640,351
Raw,95,641,351
Raw,84,642,351
Raw,76,643,351
Raw,134,644,351
Raw,122,645,351
Raw,68,646,351
Raw,84,648,351
Raw,39,649,351
Raw,213,652,351
Raw,212,652,351
Raw,124,653,351
Raw,86,654,351
Raw,111,655,351
Raw,105,656,351
Raw,113,657,351
Raw,187,658,351
Raw,94,659,351
Raw,98,660,351
Raw,91,661,351
Raw,164,662,351
Raw,97,663,351
Raw,122,664,351
Raw,114,665,351
Raw,124,666,351
Raw,125,667,351
Raw,99,668,351
Raw,123,669,351
Raw,28,670,351
Raw,72,671,351
Raw,92,672,351
Raw,94,673,351
Raw,77,675,351
Raw,119,676,351
Raw,111,677,351
Raw,51,678,351
Raw,66,679,351
Raw,177,680,351
Raw,105,681,351
Raw,110,681,351
Raw,46,681,351
Raw,126,682,351
Raw,103,683,351
Raw,87,684,351
Raw,101,685,351
Raw,67,686,351
Raw,98,688,351
Raw,128,689,351
Raw,82,690,351
Raw,101,691,351
Raw,116,692,351
Raw,109,693,351
Raw,104,694,351
Raw,183,695,351
Raw,184,696,351
Raw,118,697,351
Raw,115,698,351
Raw,115,699,351
Raw,57,700,351
Raw,94,701,351
Raw,98,702,351
Raw,114,703,351
Raw,171,704,351
Raw,103,705,351
Raw,107,706,351
Raw,108,707,351
Raw,100,708,351
Raw,110,709,351
Raw,115,710,351
Raw,107,711,351
Raw,101,713,351
Raw,110,714,351
Raw,106,715,351
Raw,110,716,351
Raw,117,717,351
Raw,82,718,351
Raw,124,719,351
Raw,161,720,351
Raw,108,721,351
Raw,112,722,351
Raw,217,723,351
Raw,107,724,351
Raw,102,725,351
Raw,101,727,351
Raw,101,728,351
Raw,117,729,351
Raw,106,731,351
Raw,185,732,351
Raw,117,733,351
Raw,126,734,351
Raw,113,735,351
Raw,112,736,351
Raw,125,738,351
Raw,90,739,351
Raw,18,740,351
Raw,276,741,351
Raw,115,742,351
Raw,11,742,351
Raw,89,743,351
Raw,87,744,351
Raw,93,745,351
Raw,114,746,351
Raw,116,747,351
Raw,99,748,351
Raw,62,749,351
Raw,95,751,351
Raw,33,751,351
Raw,102,752,351
Raw,93,753,351
Raw,79,754,351
Raw,102,755,351
Raw,93,756,351
Raw,47,757,351
Raw,38,757,351
Raw,120,758,351
Raw,106,759,351
Raw,112,761,351
Raw,113,762,351
Raw,100,764,351
Raw,121,765,351
Raw,107,766,351
Raw,120,767,351
Raw,118,769,351
Raw,104,770,351
Raw,128,771,351
Raw,202,772,351
Raw,106,773,351
Raw,83,774,351
Raw,99,775,351
Raw,92,776,351
Raw,111,777,351
Raw,107,778,351
Raw,107,779,351
Raw,71,780,351
Raw,214,781,351
Raw,53,781,351
Raw,88,782,351
Raw,80,783,351
Raw,85,784,351
Raw,9,785,351
Raw,87,785,351
Raw,148,786,351
Raw,102,787,351
Raw,105,788,351
Raw,113,789,351
Raw,72,790,351
Raw,101,791,351
Raw,102,792,351
Raw,97,793,351
Raw,122,794,351
Raw,117,795,351
Raw,115,796,351
Raw,89,797,351
Raw,106,798,351
Raw,3,798,351
Raw,8,798,351
Raw,90,799,351
Raw,108,800,351
Raw,105,801,351
Raw,106,802,351
Raw,99,803,351
Raw,128,804,351
Raw,52,805,351
Raw,82,806,351
Raw,124,807,351
Raw,102,808,351
Raw,107,809,351
Raw,121,810,351
Raw,74,811,351
Raw,79,812,351
Raw,53,813,351
Raw,116,814,351
Raw,139,815,351
Raw,107,816,351
Raw,118,817,351
Raw,105,818,351
Raw,132,819,351
Raw,122,820,351
Raw,97,821,351
Raw,105,822,351
Raw,109,823,351
Raw,90,824,351
Raw,115,826,351
Raw,99,827,351
Raw,45,828,351
Raw,99,829,351
Raw,130,830,351
Raw,91,831,351
Raw,140,832,351
Raw,126,833,351
Raw,77,834,351
Raw,95,835,351
Raw,107,836,351
Raw,73,837,351
Raw,111,838,351
Raw,106,839,351
Raw,110,841,351
Raw,110,842,351
Raw,94,843,351
Raw,110,845,351
Raw,51,847,351
Raw,45,847,351
Raw,101,849,351
Raw,16,849,351
Raw,109,850,351
Raw,103,851,351
Raw,97,852,351
Raw,99,853,351
Raw,120,854,351
Raw,112,855,351
Raw,49,856,351
Raw,92,857,351
Raw,84,858,351
Raw,121,859,351
Raw,97,860,351
Raw,109,861,351
Raw,33,862,351
Raw,80,862,351
Raw,124,863,351
Raw,97,864,351
Raw,98,865,351
Raw,114,866,351
Raw,106,867,351
Raw,101,868,351
Raw,118,869,351
Raw,221,870,351
Raw,96,871,351
Raw,99,872,351
Raw,129,873,351
Raw,163,874,351
Raw,108,875,351
Raw,93,876,351
Raw,88,877,351
Raw,115,878,351
Raw,68,879,351
Raw,177,880,351
Raw,107,881,351
Raw,93,882,351
Raw,112,883,351
Raw,117,884,351
Raw,100,885,351
Raw,101,886,351
Raw,96,887,351
Raw,183,888,351
Raw,116,889,351
Raw,21,889,351
Raw,92,890,351
Raw,89,891,351
Raw,130,892,351
Raw,97,893,351
Raw,110,894,351
Raw,106,895,351
Raw,93,895,351
Raw,57,896,351
Raw,99,897,351
Raw,115,898,351
Raw,91,899,351
Raw,124,900,351
Raw,115,901,351
Raw,123,902,351
Raw,121,903,351
Raw,103,904,351
Raw,86,905,351
Raw,127,906,351
Raw,112,907,351
Raw,105,908,351
Raw,25,909,351
Raw,128,910,351
Raw,122,911,351
Raw,107,912,351
Raw,58,913,351
Raw,113,914,351
Raw,48,915,351
Raw,128,916,351
Raw,66,917,351
Raw,99,918,351
Raw,111,919,351
Raw,108,920,351
Raw,73,921,351
Raw,97,922,351
Raw,100,923,351
Raw,128,925,351
Raw,116,926,351
Raw,115,927,351
Raw,106,928,351
Raw,106,929,351
Raw,127,930,351
Raw,115,931,351
Raw,95,932,351
Raw,98,933,351
Raw,111,934,351
Raw,107,935,351
Raw,102,936,351
Raw,96,937,351
Raw,99,938,351
Raw,26,938,351
Raw,105,939,351
Raw,119,940,351
Raw,95,941,351
Raw,115,942,351
Raw,111,943,351
Raw,115,944,351
Raw,115,945,351
Raw,109,946,351
Raw,75,947,351
Raw,90,948,351
Raw,105,949,351
Raw,112,949,351
Raw,86,950,351
Raw,102,951,351
Raw,104,952,351
Raw,96,953,351
Raw,99,955,351
Raw,54,956,351
Raw,104,957,351
Raw,90,958,351
Raw,100,959,351
Raw,51,960,351
Raw,107,961,351
Raw,118,962,351
Raw,82,963,351
Raw,117,964,351
Raw,102,965,351
Raw,127,966,351
Raw,111,967,351
Raw,100,968,351
Raw,98,969,351
Raw,112,970,351
Raw,175,971,351
Raw,107,972,351
Raw,102,973,351
Raw,108,974,351
Raw,108,975,351
Raw,296,976,351
Raw,61,976,351
Raw,88,977,351
Raw,104,978,351
Raw,3,979,351
Raw,119,980,351
Raw,84,980,351
Raw,231,981,351
Raw,155,982,351
Raw,121,983,351
Raw,124,984,351
Raw,94,985,351
Raw,82,986,351
Raw,55,988,351
Raw,59,989,351
Raw,117,991,351
Raw,121,992,351
Raw,319,994,351
Raw,96,995,351
Raw,184,996,351
Raw,129,997,351
Raw,190,998,351
Raw,96,998,351
Raw,114,999,351
Raw,77,1000,351
Raw,97,1001,351
Raw,228,1002,351
Raw,124,1003,351
Raw,117,1004,351
Raw,14,1004,351
Raw,84,1005,351
Raw,69,1007,351
Raw,34,1007,351
Raw,86,1009,351
Raw,101,1010,351
Raw,89,1011,351
Raw,108,1012,351
Raw,100,1013,351
Raw,99,1014,351
Raw,96,1015,351
Raw,98,1016,351
Raw,67,1017,351
Raw,114,1018,351
Raw,121,1019,351
Raw,98,1020,351
Raw,117,1022,351
Raw,114,1023,351
Raw,67,1024,351
Raw,79,1025,351
Raw,126,1026,351
Raw,121,1027,351
Raw,96,1028,351
Raw,95,1029,351
Raw,90,1030,351
Raw,69,1031,351
Raw,86,1032,351
Raw,10,1033,351
Raw,8,1033,351
Raw,76,1034,351
Raw,110,1035,351
Raw,49,1036,351
Raw,120,1037,351
Raw,99,1039,351
Raw,118,1040,351
Raw,119,1041,351
Raw,158,1042,351
Raw,110,1043,351
Raw,112,1045,351
Raw,115,1046,351
Raw,130,1047,351
Raw,114,1048,351
Raw,128,1049,351
Raw,104,1050,351
Raw,104,1051,351
Raw,101,1052,351
Raw,121,1053,351
Raw,98,1054,351
Raw,117,1055,351
Raw,125,1056,351
Raw,112,1057,351
Raw,122,1058,351
Raw,107,1059,351
Raw,111,1060,351
Raw,97,1061,351
Raw,219,1063,351
Raw,56,1064,351
Raw,81,1065,351
Raw,100,1066,351
Raw,116,1067,351
Raw,126,1068,351
Raw,94,1069,351
Raw,110,1070,351
Raw,88,1071,351
Raw,153,1072,351
Raw,116,1073,351
Raw,99,1075,351
Raw,84,1076,351
Raw,106,1077,351
Raw,74,1078,351
Raw,98,1079,351
Raw,108,1080,351
Raw,77,1081,351
Raw,104,1082,351
Raw,98,1083,351
Raw,11,1084,351
Raw,76,1085,351
Raw,112,1086,351
Raw,115,1088,351
Raw,106,1089,351
Raw,110,1090,351
Raw,126,1091,351
Raw,125,1092,351
Raw,106,1094,351
Raw,131,1095,351
Raw,90,1096,351
Raw,106,1097,351
Raw,106,1098,351
Raw,116,1099,351
Raw,103,1100,351
Raw,101,1101,351
Raw,100,1102,351
Raw,221,1103,351
Raw,114,1104,351
Raw,106,1105,351
Raw,95,1106,351
Raw,52,1108,351
Raw,98,1109,351
Raw,108,1110,351
Raw,122,1111,351
Raw,56,1112,351
Raw,117,1113,351
Raw,10,1113,351
Raw,118,1115,351
Raw,101,1116,351
Raw,108,1117,351
Raw,77,1118,351
Raw,96,1119,351
Raw,112,1120,351
Raw,111,1121,351
Raw,151,1122,351
Raw,114,1123,351
Raw,103,1124,351
Raw,212,1125,351
Raw,96,1126,351
Raw,106,1128,351
Raw,108,1129,351
Raw,109,1130,351
Raw,101,1131,351
Raw,114,1132,351
Raw,132,1134,351
Raw,103,1135,351
Raw,124,1136,351
Raw,219,1137,351
Raw,150,1138,351
Raw,126,1139,351
Raw,113,1140,351
Raw,103,1141,351
Raw,39,1141,351
Raw,105,1142,351
Raw,248,1143,351
Raw,91,1144,351
Raw,100,1145,351
Raw,53,1146,351
Raw,214,1147,351
Raw,95,1149,351
Raw,66,1150,351
Raw,156,1151,351
Raw,55,1152,351
Raw,115,1153,351
Raw,119,1154,351
Raw,48,1155,351
Raw,110,1156,351
Raw,76,1157,351
Raw,48,1158,351
Raw,83,1158,351
Raw,111,1159,351
Raw,121,1160,351
Raw,111,1161,351
Raw,17,1161,351
Raw,116,1162,351
Raw,108,1163,351
Raw,108,1164,351
Raw,91,1165,351
Raw,113,1166,351
Raw,104,1167,351
Raw,110,1168,351
Raw,108,1171,351
Raw,80,1172,351
Raw,107,1173,351
Raw,115,1174,351
Raw,116,1175,351
Raw,120,1176,351
Raw,146,1177,351
Raw,121,1178,351
Raw,102,1179,351
Raw,117,1180,351
Raw,64,1181,351
Raw,97,1183,351
Raw,96,1184,351
Raw,103,1185,351
Raw,87,1188,351
Raw,90,1189,351
Raw,119,1190,351
Raw,79,1191,351
Raw,110,1192,351
Raw,110,1193,351
Raw,86,1194,351
Raw,99,1195,351
Raw,218,1197,351
Raw,65,1198,351
Raw,118,1199,351
Raw,111,1200,351
Raw,110,1201,351
Raw,12,1201,351
Raw,90,1202,351
Raw,134,1203,351
Raw,90,1205,351
Raw,117,1206,351
Raw,185,1207,351
Raw,45,1208,351
Raw,172,1209,351
Raw,118,1210,351
Raw,17,1210,351
Raw,104,1211,351
Raw,52,1211,351
Raw,99,1212,351
Raw,109,1213,351
Raw,160,1214,351
Raw,83,1215,351
Raw,104,1216,351
Raw,101,1217,351
Raw,196,1218,351
Raw,76,1219,351
Raw,88,1220,351
Raw,5,1221,351
Raw,120,1222,351
Raw,123,1223,351
Raw,106,1224,351
Raw,118,1225,351
Raw,158,1226,351
Raw,58,1228,351
Raw,65,1229,351
Raw,100,1230,351
Raw,24,1230,351
Raw,106,1231,351
Raw,76,1232,351
Raw,98,1233,351
Raw,10,1233,351
Raw,89,1234,351
Raw,108,1235,351
Raw,96,1237,351
Raw,84,1238,351
Raw,91,1239,351
Raw,88,1240,351
Raw,99,1241,351
Raw,97,1242,351
Raw,121,1243,351
Raw,107,1244,351
Raw,115,1245,351
Raw,4,1245,351
Raw,97,1246,351
Raw,118,1247,351
Raw,109,1248,351
Raw,115,1249,351
Raw,26,1250,351
Raw,121,1251,351
Raw,121,1253,351
Raw,112,1254,351
Raw,177,1255,351
Raw,101,1256,351
Raw,99,1257,351
Raw,90,1258,351
Raw,90,1259,351
Raw,124,1260,351
Raw,303,1261,351
Raw,117,1262,351
Raw,116,1263,351
Raw,72,1264,351
Raw,106,1265,351
Raw,33,1265,351
Raw,111,1266,351
Raw,63,1268,351
Raw,110,1269,351
Raw,112,1270,351
Raw,101,1271,351
Raw,120,1272,351
Raw,107,1273,351
Raw,102,1274,351
Raw,98,1275,351
Raw,108,1276,351
Raw,78,1277,351
Raw,96,1278,351
Raw,118,1279,351
Raw,101,1280,351
Raw,86,1281,351
Raw,105,1282,351
Raw,119,1283,351
Raw,153,1284,351
Raw,110,1285,351
Raw,105,1286,351
Raw,111,1287,351
Raw,114,1288,351
Raw,101,1289,351
Raw,41,1290,351
Raw,102,1291,351
Raw,109,1292,351
Raw,113,1293,351
Raw,111,1294,351
Raw,209,1296,351
Raw,128,1297,351
Raw,112,1298,351
Raw,93,1299,351
Raw,108,1300,351
Raw,111,1301,351
Raw,101,1302,351
Raw,152,1303,351
Raw,127,1304,351
Raw,114,1305,351
Raw,111,1306,351
Raw,94,1307,351
Raw,83,1308,351
Raw,5,1310,351
Raw,144,1311,351
Raw,110,1312,351
Raw,95,1313,351
Raw,117,1314,351
Raw,124,1315,351
Raw,111,1316,351
Raw,117,1317,351
Raw,130,1318,351
Raw,107,1319,351
Raw,119,1320,351
Raw,109,1321,351
Raw,102,1322,351
Raw,63,1323,351
Raw,110,1324,351
Raw,159,1325,351
Raw,122,1326,351
Raw,196,1327,351
Raw,90,1328,351
Raw,76,1329,351
Raw,59,1330,351
Raw,99,1332,351
Raw,98,1333,351
Raw,164,1334,351
Raw,122,1335,351
Raw,106,1336,351
Raw,90,1338,351
Raw,89,1339,351
Raw,120,1341,351
Raw,113,1342,351
Raw,77,1343,351
Raw,96,1344,351
Raw,143,1345,351
Raw,60,1346,351
Raw,90,1346,351
Raw,109,1347,351
Raw,103,1348,351
Raw,91,1349,351
Raw,118,1350,351
Raw,188,1351,351
Raw,99,1352,351
Raw,95,1353,351
Raw,128,1354,351
Raw,73,1355,351
Raw,104,1356,351
Raw,121,1357,351
Raw,133,1358,351
Raw,81,1359,351
Raw,107,1360,351
Raw,103,1361,351
Raw,111,1362,351
Raw,81,1363,351
Raw,106,1364,351
Raw,105,1365,351
Raw,106,1366,351
Raw,124,1368,351
Raw,103,1369,351
Raw,125,1372,351
Raw,121,1373,351
Raw,95,1375,351
Raw,114,1376,351
Raw,113,1377,351
Raw,96,1378,351
Raw,119,1379,351
Raw,104,1380,351
Raw,106,1381,351
Raw,101,1382,351
Raw,73,1383,351
Raw,82,1384,351
Raw,103,1386,351
Raw,118,1387,351
Raw,119,1388,351
Raw,169,1389,351
Raw,128,1390,351
Raw,119,1392,351
Raw,116,1393,351
Raw,92,1394,351
Raw,91,1395,351
Raw,121,1396,351
Raw,113,1398,351
Raw,9,1398,351
Raw,87,1399,351
Raw,120,1400,351
Raw,100,1401,351
Raw,112,1402,351
Raw,113,1403,351
Raw,65,1404,351
Raw,107,1405,351
Raw,92,1406,351
Raw,131,1407,351
Raw,110,1408,351
Raw,106,1409,351
Raw,100,1410,351
Raw,106,1411,351
Raw,116,1412,351
Raw,88,1413,351
Raw,163,1414,351
Raw,57,1415,351
Raw,62,1416,351
Raw,96,1417,351
Raw,115,1418,351
Raw,115,1419,351
Raw,132,1420,351
Raw,96,1421,351
Raw,90,1422,351
Raw,91,1423,351
Raw,98,1424,351
Raw,102,1425,351
Raw,118,1426,351
Raw,110,1427,351
Raw,172,1429,351
Raw,101,1430,351
Raw,113,1432,351
Raw,103,1433,351
Raw,133,1434,351
Raw,113,1435,351
Raw,110,1436,351
Raw,111,1437,351
Raw,120,1439,351
Raw,97,1440,351
Raw,83,1441,351
Raw,99,1442,351
Raw,116,1443,351
Raw,65,1444,351
Raw,156,1445,351
Raw,95,1446,351
Raw,136,1447,351
Raw,21,1448,351
Raw,11,1449,351
Raw,92,1451,351
Raw,103,1453,351
Raw,94,1454,351
Raw,319,1455,351
Raw,109,1455,351
Raw,93,1456,351
Raw,128,1457,351
Raw,106,1458,351
Raw,310,1459,351
Raw,70,1460,351
Raw,107,1462,351
Raw,103,1463,351
Raw,93,1464,351
Raw,113,1465,351
Raw,103,1466,351
Raw,115,1467,351
Raw,94,1468,351
Raw,209,1469,351
Raw,69,1470,351
Raw,100,1471,351
Raw,130,1472,351
Raw,118,1473,351
Raw,82,1474,351
Raw,118,1476,351
Raw,119,1477,351
Raw,110,1478,351
Raw,110,1479,351
Raw,115,1480,351
Raw,152,1481,351
Raw,41,1482,351
Raw,109,1482,351
Raw,121,1483,351
Raw,100,1484,351
Raw,122,1486,351
Raw,113,1487,351
Raw,101,1488,351
Raw,90,1489,351
Raw,79,1490,351
Raw,117,1491,351
Raw,113,1492,351
Raw,121,1493,351
Raw,103,1494,351
Raw,190,1495,351
Raw,120,1496,351
Raw,123,1497,351
Raw,115,1498,351
Raw,222,1499,351
Raw,121,1500,351
Raw,126,1501,351
Raw,119,1502,351
Raw,110,1503,351
Raw,106,1504,351
Raw,79,1505,351
Raw,109,1506,351
Raw,111,1507,351
Raw,127,1508,351
Raw,120,1509,351
Raw,117,1510,351
Raw,102,1512,351
Raw,95,1513,351
Raw,93,1514,351
Raw,90,1515,351
Raw,114,1516,351
Raw,118,1517,351
Raw,148,1518,351
Raw,101,1519,351
Raw,104,1520,351
Raw,96,1521,351
Raw,105,1522,351
Raw,13,1522,351
Raw,201,1523,351
Raw,232,1525,351
Raw,124,1526,351
Raw,71,1527,351
Raw,43,1528,351
Raw,87,1529,351
Raw,95,1530,351
Raw,82,1531,351
Raw,110,1532,351
Raw,118,1533,351
Raw,118,1536,351
Raw,129,1537,351
Raw,123,1538,351
Raw,105,1539,351
Raw,209,1540,351
Raw,14,1541,351
Raw,182,1542,351
Raw,44,1543,351
Raw,124,1544,351
Raw,93,1545,351
Raw,39,1546,351
Raw,85,1546,351
Raw,118,1547,351
Raw,81,1548,351
Raw,106,1549,351
Raw,126,1550,351
Raw,98,1551,351
Raw,110,1552,351
Raw,96,1553,351
Raw,125,1554,351
Raw,105,1555,351
Raw,103,1555,351
Raw,113,1556,351
Raw,115,1557,351
Raw,107,1558,351
Raw,100,1559,351
Raw,74,1560,351
Raw,96,1561,351
Raw,116,1562,351
Raw,107,1563,351
Raw,126,1564,351
Raw,114,1565,351
Raw,109,1566,351
Raw,124,1567,351
Raw,13,1568,351
Raw,121,1569,351
Raw,98,1570,351
Raw,102,1571,351
Raw,107,1572,351
Raw,120,1573,351
Raw,106,1574,351
Raw,119,1575,351
Raw,122,1576,351
Raw,95,1577,351
Raw,136,1578,351
Raw,65,1579,351
Raw,98,1581,351
Raw,98,1582,351
Raw,173,1583,351
Raw,99,1584,351
Raw,106,1585,351
Raw,104,1586,351
Raw,107,1587,351
Raw,11,1588,351
Raw,125,1588,351
Raw,116,1589,351
Raw,107,1590,351
Raw,109,1591,351
Raw,105,1593,351
Raw,184,1594,351
Raw,56,1595,351
Raw,105,1597,351
Raw,21,1598,351
Raw,158,1600,351
Raw,111,1602,351
Raw,95,1603,351
Raw,113,1604,351
Raw,116,1605,351
Raw,130,1606,351
Raw,111,1608,351
Raw,120,1609,351
Raw,79,1610,351
Raw,124,1611,351
Raw,46,1611,351
Raw,111,1612,351
Raw,129,1615,351
Raw,117,1617,351
Raw,93,1618,351
Raw,88,1619,351
Raw,97,1620,351
Raw,121,1621,351
Raw,104,1622,351
Raw,99,1623,351
Raw,19,1624,351
Raw,104,1625,351
Raw,105,1626,351
Raw,124,1627,351
Raw,86,1628,351
Raw,86,1629,351
Raw,104,1630,351
Raw,103,1631,351
Raw,64,1632,351
Raw,106,1633,351
Raw,35,1634,351
Raw,120,1634,351
Raw,109,1635,351
Raw,72,1636,351
Raw,98,1637,351
Raw,97,1638,351
Raw,114,1639,351
Raw,114,1640,351
Raw,86,1641,351
Raw,99,1642,351
Raw,78,1643,351
Raw,119,1644,351
Raw,153,1645,351
Raw,174,1646,351
Raw,105,1646,351
Raw,120,1647,351
Raw,9,1649,351
Raw,104,1650,351
Raw,101,1651,351
Raw,120,1652,351
Raw,98,1653,351
Raw,104,1654,351
Raw,85,1655,351
Raw,116,1656,351
Raw,73,1657,351
Raw,80,1658,351
Raw,69,1659,351
Raw,104,1660,351
Raw,114,1661,351
Raw,123,1662,351
Raw,115,1663,351
Raw,171,1664,351
Raw,108,1665,351
Raw,165,1666,351
Raw,79,1667,351
Raw,116,1668,351
Raw,96,1669,351
Raw,10,1669,351
Raw,124,1670,351
Raw,113,1671,351
Raw,108,1672,351
Raw,71,1673,351
Raw,94,1674,351
Raw,95,1675,351
Raw,105,1676,351
Raw,97,1677,351
Raw,124,1678,351
Raw,119,1679,351
Raw,122,1680,351
Raw,127,1681,351
Raw,123,1682,351
Raw,95,1683,351
Raw,78,1684,351
Raw,59,1685,351
Raw,125,1686,351
Raw,72,1687,351
Raw,110,1688,351
Raw,104,1689,351
Raw,21,1689,351
Raw,92,1691,351
Raw,120,1692,351
Raw,154,1693,351
Raw,103,1694,351
Raw,104,1695,351
Raw,116,1696,351
Raw,81,1697,351
Raw,87,1698,351
Raw,119,1700,351
Raw,122,1701,351
Raw,9,1702,351
Raw,38,1702,351
Raw,95,1703,351
Raw,100,1704,351
Raw,119,1706,351
Raw,98,1707,351
Raw,109,1708,351
Raw,75,1709,351
Raw,102,1710,351
Raw,201,1711,351
Raw,102,1712,351
Raw,88,1714,351
Raw,111,1715,351
Raw,85,1716,351
Raw,59,1717,351
Raw,100,1718,351
Raw,134,1719,351
Raw,137,1720,351
Raw,121,1721,351
Raw,107,1722,351
Raw,66,1723,351
Raw,109,1724,351
Raw,75,1725,351
Raw,54,1726,351
Raw,97,1728,351
Raw,138,1729,351
Raw,97,1730,351
Raw,89,1731,351
Raw,266,1732,351
Raw,18,1733,351
Raw,65,1733,351
Raw,95,1734,351
Raw,114,1735,351
Raw,119,1736,351
Raw,104,1737,351
Raw,105,1738,351
Raw,104,1739,351
Raw,16,1740,351
Raw,95,1741,351
Raw,117,1742,351
Raw,92,1744,351
Raw,121,1745,351
Raw,103,1746,351
Raw,71,1748,351
Raw,89,1749,351
Raw,125,1750,351
Raw,49,1750,351
Raw,120,1751,351
Raw,96,1752,351
Raw,189,1753,351
Raw,92,1754,351
Raw,100,1755,351
Raw,88,1756,351
Raw,115,1757,351
Raw,179,1758,351
Raw,100,1760,351
Raw,193,1761,351
Raw,89,1762,351
Raw,108,1763,351
Raw,106,1764,351
Raw,111,1765,351
Raw,98,1766,351
Raw,104,1767,351
Raw,89,1768,351
Raw,123,1769,351
Raw,233,1770,351
Raw,101,1771,351
Raw,101,1772,351
Raw,100,1774,351
Raw,51,1775,351
Raw,83,1776,351
Raw,133,1777,351
Raw,102,1778,351
Raw,88,1779,351
Raw,111,1780,351
Raw,82,1781,351
Raw,121,1782,351
Raw,88,1783,351
Raw,9,1784,351
Raw,125,1784,351
Raw,280,1785,351
Raw,130,1786,351
Raw,199,1787,351
Raw,126,1788,351
Raw,103,1789,351
Raw,135,1791,351
Raw,118,1792,351
Raw,103,1793,351
Raw,119,1794,351
Raw,113,1795,351
Raw,113,1796,351
Raw,9,1796,351
Raw,90,1797,351
Raw,105,1798,351
Raw,177,1799,351
Raw,99,1800,351
Raw,198,1802,351
Raw,4,1802,351
Raw,91,1803,351
Raw,111,1804,351
Raw,114,1805,351
Raw,7,1805,351
Raw,189,1806,351
Raw,15,1806,351
Raw,118,1807,351
Raw,107,1808,351
Raw,91,1809,351
Raw,95,1810,351
Raw,162,1811,351
Raw,94,1812,351
Raw,105,1813,351
Raw,111,1814,351
Raw,100,1816,351
Raw,57,1817,351
Raw,130,1818,351
Raw,102,1819,351
Raw,128,1820,351
Raw,92,1821,351
Raw,93,1822,351
Raw,102,1823,351
Raw,42,1824,351
Raw,108,1825,351
Raw,193,1826,351
Raw,57,1828,351
Raw,117,1829,351
Raw,49,1830,351
Raw,126,1831,351
Raw,118,1832,351
Raw,76,1833,351
Raw,93,1833,351
Raw,108,1834,351
Raw,107,1835,351
Raw,71,1836,351
Raw,105,1837,351
Raw,92,1838,351
Raw,14,1838,351
Raw,96,1839,351
Raw,98,1840,351
Raw,106,1841,351
Raw,118,1842,351
Raw,103,1843,351
Raw,110,1844,351
Raw,90,1846,351
Raw,114,1847,351
Raw,92,1848,351
Raw,114,1848,351
Raw,106,1849,351
Raw,111,1850,351
Raw,113,1851,351
Raw,71,1852,351
Raw,116,1853,351
Raw,119,1854,351
Raw,89,1855,351
Raw,114,1856,351
Raw,94,1857,351
Raw,80,1858,351
Raw,161,1859,351
Raw,104,1860,351
Raw,84,1861,351
Raw,111,1862,351
Raw,56,1863,351
Raw,103,1864,351
Raw,64,1865,351
Raw,194,1866,351
Raw,108,1867,351
Raw,105,1868,351
Raw,97,1869,351
Raw,84,1870,351
Raw,118,1871,351
Raw,81,1872,351
Raw,97,1873,351
Raw,98,1875,351
Raw,107,1876,351
Raw,92,1878,351
Raw,122,1879,351
Raw,14,1880,351
Raw,10,1880,351
Raw,119,1881,351
Raw,111,1882,351
Raw,179,1883,351
Raw,99,1884,351
Raw,107,1885,351
Raw,92,1886,351
Raw,18,1886,351
Raw,195,1887,351
Raw,122,1889,351
Raw,113,1890,351
Raw,117,1891,351
Raw,106,1892,351
Raw,76,1893,351
Raw,85,1894,351
Raw,97,1895,351
Raw,117,1897,351
Raw,109,1898,351
Raw,134,1899,351
Raw,85,1900,351
Raw,3,1901,351
Raw,79,1902,351
Raw,173,1903,351
Raw,100,1904,351
Raw,103,1905,351
Raw,181,1906,351
Raw,99,1907,351
Raw,75,1908,351
Raw,63,1909,351
Raw,70,1910,351
Raw,66,1911,351
Raw,29,1912,351
Raw,87,1913,351
Raw,81,1914,351
Raw,93,1915,351
Raw,109,1916,351
Raw,100,1917,351
Raw,100,1918,351
Raw,92,1919,351
Raw,114,1920,351
Raw,116,1921,351
Raw,108,1922,351
Raw,120,1923,351
Raw,82,1924,351
Raw,98,1925,351
Raw,91,1926,351
Raw,129,1927,351
Raw,95,1928,351
Raw,90,1929,351
Raw,167,1930,351
Raw,130,1931,351
Raw,200,1932,351
Raw,113,1934,351
Raw,105,1935,351
Raw,190,1936,351
Raw,94,1937,351
Raw,119,1938,351
Raw,98,1939,351
Raw,53,1940,351
Raw,128,1941,351
Raw,64,1942,351
Raw,102,1943,351
Raw,121,1944,351
Raw,128,1945,351
Raw,16,1945,351
Raw,111,1946,351
Raw,109,1947,351
Raw,112,1948,351
Raw,295,1949,351
Raw,109,1949,351
Raw,79,1949,351
Raw,113,1950,351
Raw,114,1951,351
Raw,109,1952,351
Raw,98,1953,351
Raw,111,1954,351
Raw,91,1955,351
Raw,63,1957,351
Raw,193,1958,351
Raw,91,1959,351
Raw,89,1960,351
Raw,4,1960,351
Raw,192,1961,351
Raw,93,1962,351
Raw,104,1963,351
Raw,10,1963,351
Raw,102,1964,351
Raw,136,1965,351
Raw,124,1966,351
Raw,86,1967,351
Raw,11,1968,351
Raw,102,1969,351
Raw,104,1970,351
Raw,108,1971,351
Raw,119,1972,351
Raw,302,1973,351
Raw,109,1974,351
Raw,97,1975,351
Raw,112,1976,351
Raw,94,1977,351
Raw,92,1978,351
Raw,108,1980,351
Raw,110,1981,351
Raw,66,1982,351
Raw,69,1983,351
Raw,125,1984,351
Raw,107,1985,351
Raw,109,1986,351
Raw,141,1987,351
Raw,100,1988,351
Raw,110,1989,351
Raw,115,1990,351
Raw,108,1991,351
Raw,306,1992,351
Raw,115,1993,351
Raw,119,1994,351
Raw,107,1995,351
Raw,91,1996,351
Raw,123,1997,351
Raw,98,1998,351
Raw,167,1999,351
Raw,108,2000,351
Raw,106,2001,351
Raw,100,2002,351
Raw,106,2003,351
Raw,26,2004,351
Raw,60,2004,351
Raw,5,2005,351
Raw,112,2006,351
Raw,15,2006,351
Raw,89,2007,351
Raw,113,2008,351
Raw,118,2009,351
Raw,115,2010,351
Raw,97,2011,351
Raw,106,2012,351
Raw,60,2013,351
Raw,71,2014,351
Raw,105,2015,351
Raw,114,2016,351
Raw,92,2017,351
Raw,225,2018,351
Raw,107,2019,351
Raw,109,2020,351
Raw,126,2021,351
Raw,125,2022,351
Raw,91,2023,351
Raw,106,2024,351
Raw,112,2025,351
Raw,106,2026,351
Raw,109,2027,351
Raw,103,2028,351
Raw,84,2029,351
Raw,97,2030,351
Raw,92,2031,351
Raw,122,2032,351
Raw,90,2033,351
Raw,57,2034,351
Raw,119,2035,351
Raw,92,2036,351
Raw,128,2037,351
Raw,83,2038,351
Raw,102,2039,351
Raw,130,2041,351
Raw,109,2042,351
Raw,104,2043,351
Raw,82,2044,351
Raw,182,2045,351
Raw,120,2046,351
Raw,105,2047,351
Raw,117,2048,351
Raw,113,2049,351
Raw,55,2050,351
Raw,125,2051,351
Raw,100,2053,351
Raw,112,2054,351
Raw,107,2055,351
Raw,36,2055,351
Raw,5,2055,351
Raw,90,2056,351
Raw,107,2057,351
Raw,98,2058,351
Raw,104,2059,351
Raw,102,2060,351
Raw,79,2062,351
Raw,118,2063,351
Raw,56,2064,351
Raw,95,2065,351
Raw,103,2066,351
Raw,104,2067,351
Raw,139,2068,351
Raw,101,2069,351
Raw,106,2070,351
Raw,107,2071,351
Raw,115,2072,351
Raw,112,2073,351
Raw,122,2074,351
Raw,71,2075,351
Raw,96,2076,351
Raw,129,2077,351
Raw,214,2078,351
Raw,179,2079,351
Raw,110,2080,351
Raw,117,2081,351
Raw,121,2082,351
Raw,96,2083,351
Raw,106,2084,351
Raw,204,2085,351
Raw,105,2085,351
Raw,90,2087,351
Raw,104,2088,351
Raw,93,2089,351
Raw,109,2090,351
Raw,97,2091,351
Raw,99,2092,351
Raw,114,2093,351
Raw,111,2094,351
Raw,99,2095,351
Raw,112,2096,351
Raw,108,2097,351
Raw,148,2098,351
Raw,117,2099,351
Raw,92,2100,351
Raw,109,2101,351
Raw,108,2102,351
Raw,105,2103,351
Raw,106,2104,351
Raw,107,2105,351
Raw,111,2106,351
Raw,123,2107,351
Raw,105,2107,351
Raw,68,2108,351
Raw,98,2109,351
Raw,106,2110,351
Raw,91,2111,351
Raw,108,2112,351
Raw,92,2113,351
Raw,106,2114,351
Raw,95,2115,351
Raw,50,2116,351
Raw,103,2117,351
Raw,130,2118,351
Raw,140,2119,351
Raw,124,2120,351
Raw,117,2121,351
Raw,111,2122,351
Raw,113,2124,351
Raw,175,2125,351
Raw,108,2126,351
Raw,105,2127,351
Raw,94,2128,351
Raw,25,2128,351
Raw,112,2129,351
Raw,125,2130,351
Raw,125,2131,351
Raw,116,2132,351
Raw,128,2133,351
Raw,123,2134,351
Raw,75,2135,351
Raw,112,2137,351
Raw,107,2138,351
Raw,110,2139,351
Raw,88,2140,351
Raw,123,2141,351
Raw,95,2142,351
Raw,120,2143,351
Raw,112,2144,351
Raw,87,2145,351
Raw,113,2146,351
Raw,118,2147,351
Raw,132,2148,351
Raw,109,2149,351
Raw,190,2150,351
Raw,91,2151,351
Raw,126,2152,351
Raw,185,2153,351
Raw,97,2154,351
Raw,87,2155,351
Raw,107,2156,351
Raw,123,2157,351
Raw,90,2158,351
Raw,94,2159,351
Raw,137,2160,351
Raw,121,2161,351
Raw,96,2162,351
Raw,107,2163,351
Raw,101,2165,351
Raw,68,2166,351
Raw,125,2167,351
Raw,119,2168,351
Raw,104,2169,351
Raw,110,2170,351
Raw,8,2170,351
Raw,129,2171,351
Raw,120,2172,351
Raw,121,2173,351
Raw,93,2174,351
Raw,80,2175,351
Raw,20,2176,351
Raw,73,2177,351
Raw,124,2179,351
Raw,110,2181,351
Raw,63,2182,351
Raw,112,2183,351
Raw,111,2184,351
Raw,100,2185,351
Raw,20,2185,351
Raw,116,2186,351
Raw,122,2187,351
Raw,112,2188,351
Raw,103,2189,351
Raw,106,2191,351
Raw,116,2192,351
Raw,86,2193,351
Raw,90,2194,351
Raw,192,2195,351
Raw,102,2196,351
Raw,124,2197,351
Raw,101,2198,351
Raw,34,2199,351
Raw,12,2199,351
Raw,68,2200,351
Raw,114,2201,351
Raw,76,2202,351
Raw,91,2203,351
Raw,90,2204,351
Raw,98,2205,351
Raw,90,2206,351
Raw,116,2207,351
Raw,84,2209,351
Raw,100,2210,351
Raw,107,2211,351
Raw,123,2212,351
Raw,115,2213,351
Raw,88,2214,351
Raw,118,2215,351
Raw,92,2216,351
Raw,116,2218,351
Raw,72,2219,351
Raw,124,2220,351
Raw,116,2221,351
Raw,96,2222,351
Raw,121,2223,351
Raw,103,2224,351
Raw,101,2225,351
Raw,106,2226,351
Raw,88,2227,351
Raw,96,2228,351
Raw,105,2229,351
Raw,181,2231,351
Raw,117,2232,351
Raw,94,2233,351
Raw,39,2233,351
Raw,108,2234,351
Raw,108,2235,351
Raw,111,2236,351
Raw,12,2236,351
Raw,76,2237,351
Raw,37,2237,351
Raw,110,2238,351
Raw,77,2240,351
Raw,120,2241,351
Raw,120,2242,351
Raw,97,2243,351
Raw,93,2245,351
Raw,123,2250,351
Raw,113,2251,351
Raw,100,2252,351
Raw,93,2253,351
Raw,117,2254,351
Raw,114,2255,351
Raw,108,2256,351
Raw,123,2257,351
Raw,182,2259,351
Raw,110,2260,351
Raw,129,2261,351
Raw,112,2261,351
Raw,101,2262,351
Raw,111,2263,351
Raw,102,2264,351
Raw,124,2265,351
Raw,52,2266,351
Raw,107,2267,351
Raw,103,2268,351
Raw,132,2269,351
Raw,123,2270,351
Raw,109,2272,351
Raw,117,2273,351
Raw,98,2274,351
Raw,101,2275,351
Raw,108,2276,351
Raw,109,2277,351
Raw,112,2278,351
Raw,87,2279,351
Raw,76,2280,351
Raw,201,2281,351
Raw,92,2281,351
Raw,105,2282,351
Raw,99,2283,351
Raw,107,2284,351
Raw,102,2285,351
Raw,108,2286,351
Raw,120,2287,351
Raw,120,2288,351
Raw,110,2289,351
Raw,123,2290,351
Raw,89,2291,351
Raw,167,2292,351
Raw,88,2293,351
Raw,86,2294,351
Raw,98,2295,351
Raw,114,2296,351
Raw,100,2297,351
Raw,119,2298,351
Raw,106,2299,351
Raw,83,2301,351
Raw,118,2302,351
Raw,130,2303,351
Raw,87,2304,351
Raw,138,2307,351
Raw,130,2308,351
Raw,103,2309,351
Raw,107,2310,351
Raw,67,2311,351
Raw,86,2312,351
Raw,128,2313,351
Raw,125,2314,351
Raw,113,2315,351
Raw,89,2316,351
Raw,122,2317,351
Raw,101,2318,351
Raw,103,2319,351
Raw,181,2320,351
Raw,55,2321,351
Raw,94,2322,351
Raw,107,2323,351
Raw,109,2324,351
Raw,314,2325,351
Raw,102,2326,351
Raw,89,2328,351
Raw,115,2329,351
Raw,184,2330,351
Raw,165,2332,351
Raw,80,2333,351
Raw,78,2334,351
Raw,93,2335,351
Raw,104,2336,351
Raw,100,2337,351
Raw,93,2338,351
Raw,114,2339,351
Raw,103,2340,351
Raw,115,2341,351
Raw,91,2343,351
Raw,133,2344,351
Raw,118,2345,351
Raw,76,2346,351
Raw,109,2347,351
Raw,100,2348,351
Raw,107,2349,351
Raw,83,2350,351
Raw,97,2351,351
Raw,92,2352,351
Raw,91,2353,351
Raw,91,2354,351
Raw,97,2355,351
Raw,101,2356,351
Raw,115,2357,351
Raw,102,2358,351
Raw,95,2359,351
Raw,112,2360,351
Raw,112,2361,351
Raw,70,2362,351
Raw,101,2363,351
Raw,101,2364,351
Raw,104,2365,351
Raw,203,2366,351
Raw,107,2366,351
Raw,106,2367,351
Raw,88,2368,351
Raw,114,2369,351
Raw,95,2370,351
Raw,129,2371,351
Raw,48,2371,351
Raw,62,2371,351
Raw,100,2372,351
Raw,130,2373,351
Raw,183,2374,351
Raw,95,2375,351
Raw,98,2376,351
Raw,88,2377,351
Raw,225,2378,351
Raw,107,2379,351
Raw,16,2380,351
Raw,82,2380,351
Raw,85,2381,351
Raw,14,2382,351
Raw,110,2383,351
Raw,51,2384,351
Raw,91,2385,351
Raw,103,2386,351
Raw,114,2387,351
Raw,59,2389,351
Raw,90,2390,351
Raw,78,2391,351
Raw,112,2392,351
Raw,105,2393,351
Raw,103,2394,351
Raw,51,2395,351
Raw,78,2396,351
Raw,88,2397,351
Raw,117,2398,351
Raw,89,2399,351
Raw,105,2400,351
Raw,308,2401,351
Raw,109,2402,351
Raw,117,2403,351
Raw,84,2404,351
Raw,107,2406,351
Raw,88,2407,351
Raw,106,2408,351
Raw,121,2409,351
Raw,111,2410,351
Raw,128,2412,351
Raw,107,2413,351
Raw,95,2414,351
Raw,84,2416,351
Raw,81,2417,351
Raw,12,2417,351
Raw,67,2418,351
Raw,107,2419,351
Raw,96,2420,351
Raw,117,2421,351
Raw,111,2427,351
Raw,94,2428,351
Raw,103,2429,351
Raw,98,2430,351
Raw,109,2431,351
Raw,105,2432,351
Raw,121,2433,351
Raw,112,2434,351
Raw,96,2435,351
Raw,193,2436,351
Raw,111,2438,351
Raw,114,2439,351
Raw,121,2440,351
Raw,95,2441,351
Raw,108,2442,351
Raw,10,2443,351
Raw,51,2443,351
Raw,127,2444,351
Raw,75,2446,351
Raw,100,2447,351
Raw,117,2448,351
Raw,121,2449,351
Raw,115,2450,351
Raw,124,2451,351
Raw,126,2452,351
Raw,88,2453,351
Raw,109,2454,351
Raw,114,2455,351
Raw,108,2456,351
Raw,228,2457,351
Raw,122,2458,351
Raw,105,2459,351
Raw,13,2460,351
Raw,114,2461,351
Raw,88,2462,351
Raw,133,2463,351
Raw,104,2464,351
Raw,125,2466,351
Raw,108,2467,351
Raw,120,2468,351
Raw,110,2469,351
Raw,120,2470,351
Raw,59,2471,351
Raw,82,2472,351
Raw,8,2472,351
Raw,118,2473,351
Raw,99,2474,351
Raw,123,2475,351
Raw,105,2476,351
Raw,73,2477,351
Raw,104,2478,351
Raw,124,2480,351
Raw,109,2481,351
Raw,99,2483,351
Raw,99,2484,351
Raw,69,2485,351
Raw,127,2486,351
Raw,98,2487,351
Raw,109,2488,351
Raw,108,2489,351
Raw,182,2491,351
Raw,124,2492,351
Raw,109,2493,351
Raw,55,2494,351
Raw,105,2495,351
Raw,110,2496,351
Raw,123,2497,351
Raw,115,2498,351
Raw,109,2500,351
Raw,86,2501,351
Raw,96,2502,351
Raw,111,2503,351
Raw,108,2504,351
Raw,86,2505,351
Raw,95,2506,351
Raw,120,2507,351
Raw,74,2508,351
Raw,134,2509,351
Raw,117,2510,351
Raw,106,2511,351
Raw,107,2512,351
Raw,104,2513,351
Raw,101,2514,351
Raw,22,2514,351
Raw,97,2515,351
Raw,104,2516,351
Raw,136,2517,351
Raw,129,2519,351
Raw,44,2519,351
Raw,98,2520,351
Raw,57,2521,351
Raw,99,2522,351
Raw,103,2523,351
Raw,109,2524,351
Raw,101,2525,351
Raw,112,2526,351
Raw,215,2527,351
Raw,132,2528,351
Raw,93,2529,351
Raw,114,2530,351
Raw,79,2532,351
Raw,79,2533,351
Raw,80,2534,351
Raw,116,2535,351
Raw,119,2536,351
Raw,87,2537,351
Raw,94,2538,351
Raw,102,2539,351
Raw,107,2540,351
Raw,138,2541,351
Raw,92,2542,351
Raw,128,2543,351
Raw,108,2544,351
Raw,113,2545,351
Raw,63,2546,351
Raw,105,2547,351
Raw,104,2548,351
Raw,115,2549,351
Raw,130,2550,351
Raw,107,2551,351
Raw,95,2553,351
Raw,68,2554,351
Raw,105,2555,351
Raw,115,2556,351
Raw,102,2557,351
Raw,129,2558,351
Raw,25,2559,351
Raw,92,2560,351
Raw,53,2561,351
Raw,120,2562,351
Raw,122,2563,351
Raw,68,2564,351
Raw,75,2565,351
Raw,97,2566,351
Raw,90,2567,351
Raw,101,2568,351
Raw,119,2569,351
Raw,61,2570,351
Raw,114,2571,351
Raw,119,2572,351
Raw,112,2573,351
Raw,178,2574,351
Raw,90,2575,351
Raw,112,2576,351
Raw,124,2577,351
Raw,101,2578,351
Raw,98,2579,351
Raw,97,2580,351
Raw,117,2581,351
Raw,93,2582,351
Raw,136,2583,351
Raw,115,2584,351
Raw,104,2585,351
Raw,116,2586,351
Raw,128,2587,351
Raw,101,2588,351
Raw,51,2589,351
Raw,108,2590,351
Raw,111,2591,351
Raw,68,2593,351
Raw,147,2594,351
Raw,90,2595,351
Raw,98,2596,351
Raw,119,2597,351
Raw,107,2598,351
Raw,123,2599,351
Raw,104,2600,351
Raw,170,2601,351
Raw,115,2602,351
Raw,106,2604,351
Raw,120,2605,351
Raw,103,2606,351
Raw,117,2608,351
Raw,115,2609,351
Raw,95,2611,351
Raw,119,2612,351
Raw,82,2613,351
Raw,124,2614,351
Raw,99,2614,351
Raw,97,2615,351
Raw,124,2616,351
Raw,105,2617,351
Raw,112,2618,351
Raw,90,2619,351
Raw,108,2620,351
Raw,53,2621,351
Raw,107,2622,351
Raw,107,2623,351
Raw,122,2624,351
Raw,54,2625,351
Raw,119,2626,351
Raw,110,2627,351
Raw,96,2629,351
Raw,107,2630,351
Raw,119,2632,351
Raw,72,2633,351
Raw,116,2634,351
Raw,119,2635,351
Raw,108,2636,351
Raw,101,2637,351
Raw,105,2638,351
Raw,219,2639,351
Raw,112,2640,351
Raw,111,2641,351
Raw,99,2642,351
Raw,95,2643,351
Raw,111,2644,351
Raw,233,2645,351
Raw,162,2646,351
Raw,99,2647,351
Raw,83,2648,351
Raw,142,2649,351
Raw,114,2650,351
Raw,95,2651,351
Raw,102,2652,351
Raw,75,2653,351
Raw,122,2654,351
Raw,95,2655,351
Raw,109,2656,351
Raw,119,2657,351
Raw,78,2658,351
Raw,91,2659,351
Raw,105,2660,351
Raw,97,2661,351
Raw,94,2662,351
Raw,115,2663,351
Raw,24,2664,351
Raw,107,2665,351
Raw,117,2666,351
Raw,11,2667,351
Raw,110,2668,351
Raw,86,2669,351
Raw,114,2670,351
Raw,88,2671,351
Raw,216,2672,351
Raw,104,2673,351
Raw,46,2673,351
Raw,88,2674,351
Raw,74,2675,351
Raw,99,2676,351
Raw,98,2677,351
Raw,37,2677,351
Raw,114,2678,351
Raw,88,2679,351
Raw,118,2680,351
Raw,81,2682,351
Raw,36,2682,351
Raw,113,2683,351
Raw,107,2684,351
Raw,117,2685,351
Raw,84,2686,351
Raw,99,2687,351
Raw,315,2688,351
Raw,97,2689,351
Raw,84,2690,351
Raw,105,2691,351
Raw,117,2692,351
Raw,88,2693,351
Raw,56,2694,351
Raw,102,2695,351
Raw,46,2696,351
Raw,144,2697,351
Raw,106,2698,351
Raw,184,2699,351
Raw,100,2700,351
Raw,109,2701,351
Raw,54,2703,351
Raw,104,2704,351
Raw,250,2705,351
Raw,83,2705,351
Raw,85,2706,351
Raw,127,2707,351
Raw,104,2708,351
Raw,105,2709,351
Raw,52,2711,351
Raw,112,2712,351
Raw,91,2713,351
Raw,89,2714,351
Raw,105,2715,351
Raw,87,2716,351
Raw,125,2717,351
Raw,119,2718,351
Raw,110,2719,351
Raw,97,2720,351
Raw,76,2721,351
Raw,103,2722,351
Raw,69,2722,351
Raw,100,2723,351
Raw,66,2724,351
Raw,104,2725,351
Raw,119,2726,351
Raw,131,2727,351
Raw,111,2728,351
Raw,152,2729,351
Raw,97,2729,351
Raw,89,2730,351
Raw,118,2731,351
Raw,71,2732,351
Raw,88,2733,351
Raw,99,2734,351
Raw,105,2735,351
Raw,115,2736,351
Raw,73,2737,351
Raw,105,2738,351
Raw,94,2739,351
Raw,65,2740,351
Raw,91,2741,351
Raw,48,2742,351
Raw,131,2743,351
Raw,101,2744,351
Raw,105,2745,351
Raw,100,2746,351
Raw,100,2747,351
Raw,112,2748,351
Raw,49,2749,351
Raw,116,2750,351
Raw,121,2752,351
Raw,101,2753,351
Raw,103,2754,351
Raw,98,2755,351
Raw,113,2756,351
Raw,76,2757,351
Raw,87,2758,351
Raw,95,2759,351
Raw,114,2761,351
Raw,122,2762,351
Raw,117,2763,351
Raw,107,2764,351
Raw,114,2765,351
Raw,29,2766,351
Raw,110,2767,351
Raw,102,2769,351
Raw,100,2770,351
Raw,111,2771,351
Raw,108,2772,351
Raw,102,2773,351
Raw,102,2774,351
Raw,66,2775,351
Raw,194,2776,351
Raw,37,2777,351
Raw,104,2778,351
Raw,103,2779,351
Raw,71,2780,351
Raw,99,2781,351
Raw,88,2782,351
Raw,109,2783,351
Raw,102,2784,351
Raw,86,2785,351
Raw,110,2786,351
Raw,69,2787,351
Raw,116,2788,351
Raw,103,2789,351
Raw,113,2790,351
Raw,103,2791,351
Raw,82,2792,351
Raw,110,2793,351
Raw,109,2794,351
Raw,121,2795,351
Raw,105,2796,351
Raw,103,2797,351
Raw,114,2798,351
Raw,108,2799,351
Raw,131,2800,351
Raw,75,2801,351
Raw,101,2803,351
Raw,129,2805,351
Raw,84,2806,351
Raw,122,2807,351
Raw,38,2807,351
Raw,97,2808,351
Raw,76,2809,351
Raw,148,2810,351
Raw,129,2810,351
Raw,109,2812,351
Raw,66,2813,351
Raw,102,2814,351
Raw,221,2815,351
Raw,117,2816,351
Raw,165,2817,351
Raw,123,2818,351
Raw,230,2819,351
Raw,126,2820,351
Raw,113,2821,351
Raw,103,2822,351
Raw,116,2823,351
Raw,114,2824,351
Raw,115,2825,351
Raw,82,2826,351
Raw,108,2827,351
Raw,11,2827,351
Raw,123,2828,351
Raw,123,2829,351
Raw,103,2831,351
Raw,188,2833,351
Raw,24,2833,351
Raw,90,2834,351
Raw,100,2835,351
Raw,105,2836,351
Raw,116,2837,351
Raw,103,2838,351
Raw,115,2840,351
Raw,78,2841,351
Raw,96,2842,351
Raw,115,2843,351
Raw,118,2844,351
Raw,110,2845,351
Raw,103,2846,351
Raw,123,2847,351
Raw,104,2848,351
Raw,10,2848,351
Raw,107,2849,351
Raw,99,2850,351
Raw,101,2851,351
Raw,85,2852,351
Raw,107,2853,351
Raw,109,2854,351
Raw,146,2855,351
Raw,111,2856,351
Raw,162,2857,351
Raw,116,2858,351
Raw,104,2859,351
Raw,74,2859,351
Raw,105,2860,351
Raw,101,2861,351
Raw,45,2861,351
Raw,101,2862,351
Raw,115,2865,351
Raw,118,2866,351
Raw,147,2867,351
Raw,151,2868,351
Raw,100,2869,351
Raw,64,2870,351
Raw,107,2871,351
Raw,119,2872,351
Raw,116,2873,351
Raw,201,2874,351
Raw,80,2875,351
Raw,105,2876,351
Raw,122,2877,351
Raw,18,2877,351
Raw,102,2880,351
Raw,63,2881,351
Raw,107,2882,351
Raw,122,2883,351
Raw,89,2884,351
Raw,119,2885,351
Raw,114,2888,351
Raw,121,2889,351
Raw,93,2890,351
Raw,106,2891,351
Raw,77,2892,351
Raw,122,2894,351
Raw,96,2895,351
Raw,166,2896,351
Raw,111,2897,351
Raw,71,2898,351
Raw,99,2899,351
Raw,14,2899,351
Raw,105,2900,351
Raw,109,2901,351
Raw,114,2902,351
Raw,108,2903,351
Raw,95,2904,351
Raw,90,2905,351
Raw,134,2906,351
Raw,122,2908,351
Raw,79,2909,351
Raw,90,2910,351
Raw,216,2911,351
Raw,129,2912,351
Raw,108,2913,351
Raw,108,2914,351
Raw,116,2915,351
Raw,126,2916,351
Raw,122,2917,351
Raw,79,2918,351
Raw,102,2919,351
Raw,76,2920,351
Raw,74,2921,351
Raw,127,2922,351
Raw,109,2923,351
Raw,73,2924,351
Raw,50,2925,351
Raw,106,2925,351
Raw,201,2926,351
Raw,64,2927,351
Raw,110,2928,351
Raw,84,2929,351
Raw,108,2930,351
Raw,112,2931,351
Raw,106,2932,351
Raw,112,2933,351
Raw,126,2934,351
Raw,102,2935,351
Raw,216,2936,351
Raw,93,2937,351
Raw,94,2938,351
Raw,173,2939,351
Raw,102,2940,351
Raw,115,2941,351
Raw,68,2942,351
Raw,320,2943,351
Raw,89,2944,351
Raw,103,2945,351
Raw,129,2946,351
Raw,126,2947,351
Raw,101,2948,351
Raw,113,2949,351
Raw,192,2950,351
Raw,25,2950,351
Raw,108,2951,351
Raw,84,2952,351
Raw,110,2953,351
Raw,117,2954,351
Raw,132,2955,351
Raw,105,2956,351
Raw,90,2957,351
Raw,132,2958,351
Raw,9,2959,351
Raw,98,2961,351
Raw,86,2962,351
Raw,100,2963,351
Raw,103,2964,351
Raw,104,2965,351
Raw,112,2966,351
Raw,123,2967,351
Raw,89,2968,351
Raw,67,2969,351
Raw,117,2970,351
Raw,115,2971,351
Raw,92,2972,351
Raw,160,2973,351
Raw,162,2974,351
Raw,20,2974,351
Raw,85,2975,351
Raw,115,2976,351
Raw,113,2977,351
Raw,104,2978,351
Raw,285,2979,351
Raw,104,2980,351
Raw,121,2981,351
Raw,118,2982,351
Raw,112,2983,351
Raw,107,2984,351
Raw,91,2985,351
Raw,90,2986,351
Raw,92,2987,351
Raw,115,2989,351
Raw,112,2990,351
Raw,75,2991,351
Raw,98,2991,351
Raw,99,2992,351
Raw,100,2993,351
Raw,88,2994,351
Raw,84,2995,351
Raw,116,2997,351
Raw,75,2997,351
Raw,65,2998,351
Raw,114,2999,351
Raw,94,3000,351
Raw,127,3001,351
Raw,80,3002,351
Raw,103,3003,351
Raw,103,3004,351
Raw,97,3005,351
Raw,121,3006,351
Raw,125,3008,351
Raw,112,3009,351
Raw,61,3010,351
Raw,120,3011,351
Raw,62,3012,351
Raw,115,3013,351
Raw,106,3014,351
Raw,162,3015,351
Raw,89,3016,351
Raw,108,3017,351
Raw,68,3018,351
Raw,99,3019,351
Raw,100,3020,351
Raw,97,3021,351
Raw,108,3022,351
Raw,89,3023,351
Raw,103,3025,351
Raw,49,3026,351
Raw,93,3027,351
Raw,6,3027,351
Raw,95,3028,351
Raw,78,3029,351
Raw,114,3030,351
Raw,110,3034,351
Raw,159,3035,351
Raw,80,3036,351
Raw,116,3038,351
Raw,71,3039,351
Raw,84,3040,351
Raw,101,3041,351
Raw,97,3042,351
Raw,92,3043,351
Raw,108,3044,351
Raw,42,3045,351
Raw,112,3046,351
Raw,109,3047,351
Raw,110,3048,351
Raw,115,3049,351
Raw,114,3050,351
Raw,92,3051,351
Raw,101,3052,351
Raw,110,3053,351
Raw,80,3054,351
Raw,97,3056,351
Raw,62,3058,351
Raw,125,3059,351
Raw,78,3061,351
Raw,182,3062,351
Raw,59,3063,351
Raw,106,3064,351
Raw,90,3065,351
Raw,60,3066,351
Raw,100,3068,351
Raw,101,3069,351
Raw,112,3070,351
Raw,88,3071,351
Raw,41,3072,351
Raw,202,3073,351
Raw,23,3073,351
Raw,109,3074,351
Raw,109,3075,351
Raw,97,3076,351
Raw,104,3077,351
Raw,115,3078,351
Raw,88,3079,351
Raw,8,3080,351
Raw,93,3080,351
Raw,112,3082,351
Raw,109,3083,351
Raw,128,3084,351
Raw,101,3085,351
Raw,100,3086,351
Raw,107,3087,351
Raw,92,3088,351
Raw,94,3089,351
Raw,199,3090,351
Raw,7,3091,351
Raw,124,3092,351
Raw,185,3093,351
Raw,9,3093,351
Raw,113,3094,351
Raw,93,3095,351
Raw,111,3096,351
Raw,101,3097,351
Raw,58,3099,351
Raw,315,3100,351
Raw,65,3102,351
Raw,116,3103,351
Raw,123,3104,351
Raw,105,3105,351
Raw,108,3106,351
Raw,56,3108,351
Raw,110,3109,351
Raw,101,3110,351
Raw,94,3111,351
Raw,53,3112,351
Raw,58,3113,351
Raw,119,3114,351
Raw,120,3115,351
Raw,106,3116,351
Raw,139,3117,351
Raw,102,3118,351
Raw,106,3119,351
Raw,123,3120,351
Raw,101,3121,351
Raw,84,3122,351
Raw,114,3123,351
Raw,55,3124,351
Raw,71,3125,351
Raw,225,3126,351
Raw,98,3127,351
Raw,117,3128,351
Raw,107,3129,351
Raw,88,3130,351
Raw,101,3131,351
Raw,99,3132,351
Raw,113,3133,351
Raw,84,3134,351
Raw,122,3135,351
Raw,113,3136,351
Raw,121,3137,351
Raw,106,3138,351
Raw,114,3139,351
Raw,70,3140,351
Raw,72,3141,351
Raw,122,3142,351
Raw,104,3143,351
Raw,99,3144,351
Raw,107,3145,351
Raw,67,3146,351
Raw,98,3147,351
Raw,118,3148,351
Raw,118,3149,351
Raw,69,3150,351
Raw,92,3151,351
Raw,129,3152,351
Raw,111,3153,351
Raw,111,3154,351
Raw,214,3155,351
Raw,65,3156,351
Raw,91,3159,351
Raw,69,3160,351
Raw,118,3161,351
Raw,107,3162,351
Raw,96,3163,351
Raw,87,3164,351
Raw,75,3165,351
Raw,112,3167,351
Raw,67,3168,351
Raw,12,3168,351
Raw,94,3169,351
Raw,84,3170,351
Raw,118,3171,351
Raw,99,3172,351
Raw,106,3173,351
Raw,57,3174,351
Raw,110,3175,351
Raw,125,3176,351
Raw,119,3177,351
Raw,119,3178,351
Raw,104,3179,351
Raw,110,3180,351
Raw,118,3181,351
Raw,101,3182,351
Raw,120,3183,351
Raw,88,3184,351
Raw,76,3185,351
Raw,88,3186,351
Raw,111,3187,351
Raw,127,3188,351
Raw,57,3190,351
Raw,106,3192,351
Raw,106,3194,351
Raw,103,3195,351
Raw,111,3196,351
Raw,183,3197,351
Raw,107,3198,351
Raw,128,3200,351
Raw,109,3201,351
Raw,85,3202,351
Raw,71,3203,351
Raw,107,3204,351
Raw,97,3205,351
Raw,98,3206,351
Raw,106,3207,351
Raw,104,3208,351
Raw,88,3209,351
Raw,101,3210,351
Raw,115,3211,351
Raw,115,3212,351
Raw,62,3213,351
Raw,107,3214,351
Raw,103,3215,351
Raw,73,3216,351
Raw,101,3217,351
Raw,123,3218,351
Raw,91,3219,351
Raw,80,3220,351
Raw,92,3222,351
Raw,107,3223,351
Raw,96,3224,351
Raw,93,3225,351
Raw,143,3226,351
Raw,111,3227,351
Raw,84,3228,351
Raw,54,3229,351
Raw,90,3230,351
Raw,111,3231,351
Raw,111,3232,351
Raw,104,3233,351
Raw,55,3234,351
Raw,188,3235,351
Raw,52,3236,351
Raw,87,3237,351
Raw,108,3238,351
Raw,116,3239,351
Raw,72,3240,351
Raw,105,3241,351
Raw,120,3242,351
Raw,111,3243,351
Raw,110,3244,351
Raw,83,3245,351
Raw,102,3246,351
Raw,113,3247,351
Raw,94,3248,351
Raw,85,3249,351
Raw,99,3250,351
Raw,95,3251,351
Raw,112,3252,351
Raw,103,3253,351
Raw,90,3254,351
Raw,269,3255,351
Raw,5,3255,351
Raw,96,3256,351
Raw,113,3257,351
Raw,129,3258,351
Raw,84,3259,351
Raw,104,3260,351
Raw,156,3261,351
Raw,93,3262,351
Raw,117,3263,351
Raw,81,3264,351
Raw,110,3265,351
Raw,110,3266,351
Raw,85,3267,351
Raw,128,3268,351
Raw,113,3269,351
Raw,92,3270,351
Raw,107,3271,351
Raw,107,3272,351
Raw,94,3273,351
Raw,113,3274,351
Raw,90,3275,351
Raw,119,3276,351
Raw,104,3277,351
Raw,113,3278,351
Raw,100,3279,351
Raw,54,3280,351
Raw,58,3281,351
Raw,13,3282,351
Raw,109,3283,351
Raw,110,3284,351
Raw,61,3285,351
Raw,101,3286,351
Raw,102,3287,351
Raw,85,3288,351
Raw,112,3289,351
Raw,91,3290,351
Raw,73,3291,351
Raw,35,3291,351
Raw,96,3292,351
Raw,82,3293,351
Raw,113,3294,351
Raw,104,3295,351
Raw,119,3296,351
Raw,19,3297,351
Raw,11,3297,351
Raw,134,3298,351
Raw,135,3299,351
Raw,102,3300,351
Raw,93,3301,351
Raw,117,3302,351
Raw,98,3304,351
Raw,114,3305,351
Raw,81,3306,351
Raw,111,3307,351
Raw,59,3308,351
Raw,113,3309,351
Raw,285,3310,351
Raw,99,3311,351
Raw,112,3312,351
Raw,106,3313,351
Raw,110,3314,351
Raw,99,3315,351
Raw,143,3316,351
Raw,53,3317,351
Raw,135,3318,351
Raw,76,3319,351
Raw,98,3320,351
Raw,71,3321,351
Raw,175,3322,351
Raw,21,3323,351
Raw,92,3324,351
Raw,115,3325,351
Raw,114,3326,351
Raw,10,3327,351
Raw,113,3328,351
Raw,110,3329,351
Raw,88,3330,351
Raw,183,3331,351
Raw,108,3332,351
Raw,126,3333,351
Raw,99,3334,351
Raw,100,3335,351
Raw,107,3336,351
Raw,90,3337,351
Raw,111,3338,351
Raw,101,3339,351
Raw,97,3341,351
Raw,100,3342,351
Raw,81,3343,351
Raw,116,3344,351
Raw,285,3344,351
Raw,125,3345,351
Raw,118,3346,351
Raw,90,3348,351
Raw,117,3349,351
Raw,102,3350,351
Raw,99,3351,351
Raw,121,3352,351
Raw,63,3353,351
Raw,167,3354,351
Raw,88,3354,351
Raw,61,3355,351
Raw,189,3356,351
Raw,122,3357,351
Raw,108,3358,351
Raw,115,3359,351
Raw,105,3362,351
Raw,135,3363,351
Raw,106,3364,351
Raw,117,3365,351
Raw,109,3366,351
Raw,93,3367,351
Raw,107,3368,351
Raw,28,3368,351
Raw,108,3369,351
Raw,118,3370,351
Raw,100,3371,351
Raw,117,3372,351
Raw,113,3373,351
Raw,111,3374,351
Raw,72,3375,351
Raw,99,3376,351
Raw,110,3378,351
Raw,101,3379,351
Raw,125,3380,351
Raw,101,3382,351
Raw,107,3383,351
Raw,72,3384,351
Raw,101,3385,351
Raw,81,3386,351
Raw,115,3387,351
Raw,111,3388,351
Raw,86,3389,351
Raw,86,3390,351
Raw,112,3391,351
Raw,100,3392,351
Raw,118,3393,351
Raw,212,3394,351
Raw,136,3395,351
Raw,113,3396,351
Raw,81,3397,351
Raw,120,3398,351
Raw,80,3400,351
Raw,50,3401,351
Raw,111,3402,351
Raw,95,3403,351
Raw,109,3404,351
Raw,220,3405,351
Raw,110,3405,351
Raw,86,3406,351
Raw,148,3407,351
Raw,8,3407,351
Raw,110,3408,351
Raw,79,3409,351
Raw,80,3410,351
Raw,98,3411,351
Raw,60,3412,351
Raw,103,3413,351
Raw,115,3414,351
Raw,127,3415,351
Raw,108,3416,351
Raw,103,3417,351
Raw,162,3418,351
Raw,98,3419,351
Raw,121,3420,351
Raw,103,3421,351
Raw,134,3422,351
Raw,113,3423,351
Raw,129,3424,351
Raw,131,3425,351
Raw,63,3426,351
Raw,107,3427,351
Raw,123,3428,351
Raw,104,3429,351
Raw,123,3430,351
Raw,110,3431,351
Raw,113,3432,351
Raw,105,3433,351
Raw,94,3434,351
Raw,125,3435,351
Raw,83,3436,351
Raw,105,3437,351
Raw,93,3439,351
Raw,119,3440,351
Raw,38,3441,351
Raw,90,3441,351
Raw,102,3442,351
Raw,87,3443,351
Raw,103,3444,351
Raw,126,3445,351
Raw,53,3446,351
Raw,96,3447,351
Raw,104,3448,351
Raw,25,3449,351
Raw,13,3449,351
Raw,69,3450,351
Raw,92,3451,351
Raw,254,3452,351
Raw,36,3452,351
Raw,98,3453,351
Raw,118,3454,351
Raw,87,3455,351
Raw,96,3456,351
Raw,87,3457,351
Raw,71,3458,351
Raw,113,3459,351
Raw,99,3460,351
Raw,119,3461,351
Raw,143,3462,351
Raw,102,3463,351
Raw,83,3464,351
Raw,111,3465,351
Raw,106,3466,351
Raw,171,3468,351
Raw,97,3469,351
Raw,101,3470,351
Raw,91,3471,351
Raw,95,3472,351
Raw,44,3473,351
Raw,100,3473,351
Raw,107,3474,351
Raw,114,3475,351
Raw,78,3476,351
Raw,94,3477,351
Raw,108,3478,351
Raw,100,3479,351
Raw,109,3480,351
Raw,94,3481,351
Raw,102,3482,351
Raw,91,3483,351
Raw,109,3484,351
Raw,99,3485,351
Raw,207,3486,351
Raw,74,3487,351
Raw,83,3488,351
Raw,105,3489,351
Raw,123,3490,351
Raw,106,3491,351
Raw,102,3493,351
Raw,97,3494,351
Raw,134,3495,351
Raw,125,3496,351
Raw,94,3497,351
Raw,114,3498,351
Raw,207,3499,351
Raw,83,3501,351
Raw,183,3502,351
Raw,80,3503,351
Raw,99,3504,351
Raw,122,3505,351
Raw,103,3506,351
Raw,75,3507,351
Raw,102,3508,351
Raw,111,3509,351
Raw,122,3511,351
Raw,103,3512,351
Raw,7,3513,351
Raw,62,3513,351
Raw,100,3514,351
Raw,129,3515,351
Raw,115,3516,351
Raw,125,3517,351
Raw,106,3518,351
Raw,84,3519,351
Raw,109,3520,351
Raw,70,3521,351
Raw,68,3522,351
Raw,120,3523,351
Raw,100,3524,351
Raw,99,3525,351
Raw,97,3527,351
Raw,103,3528,351
Raw,66,3529,351
Raw,130,3530,351
Raw,96,3531,351
Raw,92,3532,351
Raw,108,3534,351
Raw,115,3535,351
Raw,94,3536,351
Raw,81,3537,351
Raw,98,3539,351
Raw,108,3540,351
Raw,99,3541,351
Raw,9,3543,351
Raw,11,3543,351
Raw,80,3544,351
Raw,83,3545,351
Raw,90,3546,351
Raw,105,3547,351
Raw,181,3548,351
Raw,210,3549,351
Raw,75,3551,351
Raw,69,3552,351
Raw,108,3553,351
Raw,311,3554,351
Raw,136,3555,351
Raw,103,3556,351
Raw,69,3557,351
Raw,223,3558,351
Raw,285,3559,351
Raw,112,3561,351
Raw,60,3562,351
Raw,123,3563,351
Raw,53,3564,351
Raw,100,3565,351
Raw,128,3566,351
Raw,81,3567,351
Raw,129,3568,351
Raw,119,3570,351
Raw,177,3571,351
Raw,85,3572,351
Raw,91,3573,351
Raw,106,3574,351
Raw,112,3575,351
Raw,92,3576,351
Raw,84,3577,351
Raw,49,3578,351
Raw,104,3579,351
Raw,72,3580,351
Raw,122,3581,351
Raw,94,3582,351
Raw,172,3583,351
Raw,114,3584,351
Raw,119,3585,351
Raw,98,3586,351
Raw,98,3587,351
Raw,103,3588,351
Raw,110,3590,351
Raw,74,3591,351
Raw,110,3592,351
Raw,91,3593,351
Raw,95,3594,351
Raw,106,3595,351
Raw,132,3596,351
Raw,73,3597,351
Raw,189,3598,351
Raw,129,3599,351
Raw,71,3600,351
Raw,102,3601,351
Raw,215,3602,351
Raw,96,3603,351
Raw,110,3604,351
Raw,100,3605,351
Raw,121,3606,351
Raw,121,3607,351
Raw,109,3608,351
Raw,266,3608,351
Raw,218,3610,351
Raw,152,3611,351
Raw,230,3612,351
Raw,111,3612,351
Raw,102,3613,351
Raw,116,3614,351
Raw,129,3615,351
Raw,101,3616,351
Raw,86,3618,351
Raw,82,3619,351
Raw,112,3621,351
Raw,10,3621,351
Raw,46,3622,351
Raw,175,3623,351
Raw,115,3624,351
Raw,90,3625,351
Raw,122,3626,351
Raw,76,3627,351
Raw,56,3628,351
Raw,102,3629,351
Raw,107,3630,351
Raw,114,3631,351
Raw,95,3632,351
Raw,111,3633,351
Raw,120,3634,351
Raw,126,3635,351
Raw,116,3636,351
Raw,121,3637,351
Raw,118,3638,351
Raw,88,3639,351
Raw,110,3640,351
Raw,52,3641,351
Raw,105,3642,351
Raw,91,3643,351
Raw,40,3644,351
Raw,98,3644,351
Raw,106,3645,351
Raw,129,3646,351
Raw,113,3647,351
Raw,117,3648,351
Raw,118,3649,351
Raw,39,3650,351
Raw,131,3650,351
Raw,111,3651,351
Raw,82,3652,351
Raw,102,3653,351
Raw,98,3654,351
Raw,101,3655,351
Raw,111,3656,351
Raw,102,3658,351
Raw,92,3659,351
Raw,103,3660,351
Raw,72,3661,351
Raw,89,3662,351
Raw,114,3663,351
Raw,106,3664,351
Raw,112,3665,351
Raw,112,3666,351
Raw,71,3667,351
Raw,130,3667,351
Raw,121,3669,351
Raw,105,3670,351
Raw,103,3671,351
Raw,113,3672,351
Raw,101,3673,351
Raw,107,3674,351
Raw,106,3674,351
Raw,41,3674,351
Raw,56,3675,351
Raw,85,3676,351
Raw,103,3677,351
Raw,132,3678,351
Raw,100,3679,351
Raw,98,3680,351
Raw,116,3681,351
Raw,86,3682,351
Raw,102,3683,351
Raw,97,3684,351
Raw,89,3685,351
Raw,93,3686,351
Raw,86,3687,351
Raw,87,3689,351
Raw,120,3690,351
Raw,9,3691,351
Raw,94,3691,351
Raw,99,3692,351
Raw,158,3693,351
Raw,103,3694,351
Raw,71,3695,351
Raw,213,3696,351
Raw,81,3697,351
Raw,116,3698,351
Raw,104,3699,351
Raw,96,3701,351
Raw,78,3702,351
Raw,84,3703,351
Raw,115,3704,351
Raw,95,3705,351
Raw,120,3706,351
Raw,88,3707,351
Raw,131,3708,351
Raw,101,3709,351
Raw,95,3710,351
Raw,123,3711,351
Raw,85,3712,351
Raw,83,3713,351
Raw,104,3714,351
Raw,110,3715,351
Raw,59,3716,351
Raw,120,3717,351
Raw,110,3718,351
Raw,68,3720,351
Raw,89,3721,351
Raw,92,3722,351
Raw,110,3723,351
Raw,114,3724,351
Raw,95,3725,351
Raw,95,3726,351
Raw,67,3727,351
Raw,86,3728,351
Raw,117,3729,351
Raw,104,3730,351
Raw,101,3731,351
Raw,103,3732,351
Raw,110,3733,351
Raw,116,3735,351
Raw,118,3736,351
Raw,103,3737,351
Raw,103,3738,351
Raw,118,3739,351
Raw,86,3740,351
Raw,71,3741,351
Raw,109,3742,351
Raw,95,3743,351
Raw,64,3744,351
Raw,90,3745,351
Raw,108,3746,351
Raw,98,3747,351
Raw,121,3748,351
Raw,80,3749,351
Raw,215,3750,351
Raw,111,3751,351
Raw,108,3752,351
Raw,111,3753,351
Raw,93,3754,351
Raw,73,3755,351
Raw,97,3757,351
Raw,112,3758,351
Raw,225,3759,351
Raw,129,3760,351
Raw,104,3761,351
Raw,178,3762,351
Raw,98,3763,351
Raw,90,3764,351
Raw,82,3765,351
Raw,74,3766,351
Raw,147,3767,351
Raw,109,3768,351
Raw,106,3769,351
Raw,102,3770,351
Raw,100,3772,351
Raw,153,3773,351
Raw,96,3775,351
Raw,156,3776,351
Raw,125,3777,351
Raw,173,3778,351
Raw,100,3779,351
