Cut?,Counts,eventNumber,runNumber
Raw,106,6,328
Raw,205,8,328
Raw,123,9,328
Raw,157,12,328
Raw,43,18,328
Raw,56,20,328
Raw,185,22,328
Raw,116,23,328
Raw,103,24,328
Raw,114,25,328
Raw,110,26,328
Raw,113,29,328
Raw,3,30,328
Raw,94,33,328
Raw,127,37,328
Raw,124,38,328
Raw,120,39,328
Raw,111,41,328
Raw,110,43,328
Raw,124,44,328
Raw,133,47,328
Raw,121,48,328
Raw,72,51,328
Raw,91,53,328
Raw,119,54,328
Raw,121,56,328
Raw,55,57,328
Raw,102,59,328
Raw,183,60,328
Raw,54,61,328
Raw,140,63,328
Raw,33,63,328
Raw,106,64,328
Raw,145,67,328
Raw,118,70,328
Raw,109,72,328
Raw,167,73,328
Raw,121,78,328
Raw,22,81,328
Raw,115,83,328
Raw,128,85,328
Raw,116,86,328
Raw,101,87,328
Raw,81,88,328
Raw,17,91,328
Raw,116,93,328
Raw,97,94,328
Raw,100,95,328
Raw,101,96,328
Raw,95,97,328
Raw,91,98,328
Raw,123,99,328
Raw,52,100,328
Raw,121,102,328
Raw,130,104,328
Raw,15,107,328
Raw,109,108,328
Raw,125,112,328
Raw,104,118,328
Raw,62,121,328
Raw,131,122,328
Raw,121,123,328
Raw,65,125,328
Raw,107,131,328
Raw,145,133,328
Raw,117,134,328
Raw,62,135,328
Raw,123,136,328
Raw,108,138,328
Raw,15,139,328
Raw,110,140,328
Raw,114,145,328
Raw,108,147,328
Raw,66,150,328
Raw,145,154,328
Raw,89,155,328
Raw,112,157,328
Raw,87,158,328
Raw,90,160,328
Raw,123,161,328
Raw,131,163,328
Raw,133,166,328
Raw,103,169,328
Raw,36,171,328
Raw,104,175,328
Raw,148,177,328
Raw,111,188,328
Raw,124,189,328
Raw,120,190,328
Raw,97,191,328
Raw,43,192,328
Raw,89,193,328
Raw,131,194,328
Raw,51,196,328
Raw,118,200,328
Raw,99,202,328
Raw,117,203,328
Raw,129,204,328
Raw,129,205,328
Raw,101,206,328
Raw,119,207,328
Raw,199,209,328
Raw,189,210,328
Raw,135,215,328
Raw,108,219,328
Raw,122,220,328
Raw,123,222,328
Raw,105,224,328
Raw,111,228,328
Raw,116,229,328
Raw,117,230,328
Raw,114,231,328
Raw,139,234,328
Raw,108,235,328
Raw,93,237,328
Raw,80,238,328
Raw,109,241,328
Raw,129,242,328
Raw,98,248,328
Raw,120,249,328
Raw,111,250,328
Raw,113,252,328
Raw,9,252,328
Raw,128,253,328
Raw,102,254,328
Raw,220,256,328
Raw,120,257,328
Raw,127,258,328
Raw,127,260,328
Raw,110,261,328
Raw,49,261,328
Raw,35,265,328
Raw,122,266,328
Raw,112,267,328
Raw,130,270,328
Raw,15,272,328
Raw,168,275,328
Raw,206,278,328
Raw,120,279,328
Raw,126,281,328
Raw,152,282,328
Raw,113,283,328
Raw,107,284,328
Raw,50,285,328
Raw,125,286,328
Raw,130,287,328
Raw,101,288,328
Raw,4,288,328
Raw,112,290,328
Raw,134,291,328
Raw,119,292,328
Raw,113,293,328
Raw,81,295,328
Raw,123,296,328
Raw,118,297,328
Raw,120,299,328
Raw,36,303,328
Raw,130,305,328
Raw,120,308,328
Raw,118,309,328
Raw,118,311,328
Raw,106,313,328
Raw,120,314,328
Raw,108,315,328
Raw,112,316,328
Raw,123,318,328
Raw,76,319,328
Raw,119,320,328
Raw,89,321,328
Raw,113,322,328
Raw,31,322,328
Raw,118,323,328
Raw,138,324,328
Raw,148,329,328
Raw,82,335,328
Raw,197,336,328
Raw,122,337,328
Raw,127,338,328
Raw,116,339,328
Raw,129,340,328
Raw,103,341,328
Raw,107,342,328
Raw,83,343,328
Raw,139,344,328
Raw,134,345,328
Raw,118,347,328
Raw,125,348,328
Raw,115,351,328
Raw,74,353,328
Raw,13,354,328
Raw,113,356,328
Raw,8,360,328
Raw,120,361,328
Raw,125,362,328
Raw,8,363,328
Raw,123,366,328
Raw,82,368,328
Raw,111,370,328
Raw,77,371,328
Raw,74,372,328
Raw,119,373,328
Raw,272,375,328
Raw,116,376,328
Raw,126,378,328
Raw,112,386,328
Raw,210,387,328
Raw,28,388,328
Raw,111,389,328
Raw,164,391,328
Raw,115,392,328
Raw,3,394,328
Raw,113,395,328
Raw,113,397,328
Raw,134,399,328
Raw,109,400,328
Raw,117,403,328
Raw,115,404,328
Raw,198,405,328
Raw,142,406,328
Raw,115,408,328
Raw,137,409,328
Raw,17,412,328
Raw,137,413,328
Raw,42,416,328
Raw,122,417,328
Raw,25,420,328
Raw,122,422,328
Raw,118,424,328
Raw,9,425,328
Raw,185,427,328
Raw,124,428,328
Raw,132,432,328
Raw,108,434,328
Raw,149,435,328
Raw,79,436,328
Raw,106,437,328
Raw,124,440,328
Raw,119,441,328
Raw,121,443,328
Raw,97,444,328
Raw,119,445,328
Raw,110,446,328
Raw,128,447,328
Raw,118,448,328
Raw,127,455,328
Raw,3,456,328
Raw,100,457,328
Raw,13,464,328
Raw,72,465,328
Raw,115,467,328
Raw,88,470,328
Raw,141,472,328
Raw,119,475,328
Raw,97,476,328
Raw,3,477,328
Raw,90,481,328
Raw,114,484,328
Raw,3,487,328
Raw,6,487,328
Raw,113,488,328
Raw,90,490,328
Raw,106,491,328
Raw,53,492,328
Raw,66,493,328
Raw,122,494,328
Raw,106,500,328
Raw,140,501,328
Raw,111,502,328
Raw,117,503,328
Raw,121,504,328
Raw,132,507,328
Raw,126,509,328
Raw,92,510,328
Raw,108,513,328
Raw,141,517,328
Raw,114,520,328
Raw,127,521,328
Raw,208,526,328
Raw,92,529,328
Raw,39,530,328
Raw,46,533,328
Raw,107,534,328
Raw,70,536,328
Raw,84,537,328
Raw,91,538,328
Raw,121,539,328
Raw,100,541,328
Raw,98,542,328
Raw,130,543,328
Raw,135,544,328
Raw,108,545,328
Raw,39,546,328
Raw,100,547,328
Raw,60,548,328
Raw,126,549,328
Raw,122,550,328
Raw,114,551,328
Raw,111,553,328
Raw,87,554,328
Raw,92,555,328
Raw,104,556,328
Raw,102,557,328
Raw,16,558,328
Raw,212,559,328
Raw,243,559,328
Raw,84,560,328
Raw,105,561,328
Raw,119,562,328
Raw,115,563,328
Raw,45,563,328
Raw,109,564,328
Raw,112,565,328
Raw,132,567,328
Raw,125,568,328
Raw,102,569,328
Raw,102,570,328
Raw,92,571,328
Raw,116,572,328
Raw,116,573,328
Raw,110,574,328
Raw,120,575,328
Raw,134,576,328
Raw,128,577,328
Raw,107,578,328
Raw,133,579,328
Raw,139,580,328
Raw,127,581,328
Raw,81,582,328
Raw,216,583,328
Raw,71,584,328
Raw,116,585,328
Raw,106,586,328
Raw,131,587,328
Raw,157,588,328
Raw,94,589,328
Raw,64,590,328
Raw,63,591,328
Raw,121,592,328
Raw,84,593,328
Raw,128,594,328
Raw,115,595,328
Raw,86,596,328
Raw,142,598,328
Raw,111,599,328
Raw,88,600,328
Raw,64,601,328
Raw,144,602,328
Raw,73,603,328
Raw,123,604,328
Raw,127,605,328
Raw,84,606,328
Raw,105,607,328
Raw,97,608,328
Raw,140,609,328
Raw,129,610,328
Raw,110,611,328
Raw,110,612,328
Raw,110,613,328
Raw,104,614,328
Raw,111,615,328
Raw,128,616,328
Raw,117,617,328
Raw,14,618,328
Raw,99,619,328
Raw,125,620,328
Raw,151,621,328
Raw,105,622,328
Raw,124,623,328
Raw,78,624,328
Raw,115,625,328
Raw,130,626,328
Raw,115,627,328
Raw,109,628,328
Raw,127,629,328
Raw,123,630,328
Raw,109,631,328
Raw,95,632,328
Raw,115,633,328
Raw,108,634,328
Raw,103,635,328
Raw,47,636,328
Raw,137,636,328
Raw,116,637,328
Raw,123,638,328
Raw,119,639,328
Raw,145,640,328
Raw,102,641,328
Raw,109,642,328
Raw,124,643,328
Raw,113,644,328
Raw,135,645,328
Raw,120,647,328
Raw,93,648,328
Raw,99,649,328
Raw,72,650,328
Raw,103,651,328
Raw,106,653,328
Raw,121,655,328
Raw,21,655,328
Raw,56,656,328
Raw,38,656,328
Raw,85,657,328
Raw,108,658,328
Raw,84,659,328
Raw,128,660,328
Raw,110,661,328
Raw,93,662,328
Raw,222,663,328
Raw,141,664,328
Raw,113,665,328
Raw,101,666,328
Raw,105,667,328
Raw,174,668,328
Raw,117,669,328
Raw,127,671,328
Raw,81,672,328
Raw,238,673,328
Raw,118,674,328
Raw,114,675,328
Raw,127,676,328
Raw,88,677,328
Raw,92,678,328
Raw,163,680,328
Raw,134,681,328
Raw,64,682,328
Raw,124,683,328
Raw,160,685,328
Raw,120,686,328
Raw,78,687,328
Raw,109,688,328
Raw,80,689,328
Raw,175,690,328
Raw,115,691,328
Raw,173,693,328
Raw,121,694,328
Raw,148,695,328
Raw,114,696,328
Raw,127,698,328
Raw,119,699,328
Raw,164,700,328
Raw,96,702,328
Raw,128,703,328
Raw,98,704,328
Raw,131,705,328
Raw,160,706,328
Raw,110,707,328
Raw,41,708,328
Raw,98,709,328
Raw,133,710,328
Raw,88,711,328
Raw,105,712,328
Raw,137,713,328
Raw,112,714,328
Raw,120,715,328
Raw,82,716,328
Raw,115,717,328
Raw,89,718,328
Raw,126,719,328
Raw,107,720,328
Raw,113,721,328
Raw,118,722,328
Raw,95,723,328
Raw,123,724,328
Raw,104,725,328
Raw,122,726,328
Raw,115,727,328
Raw,138,728,328
Raw,117,729,328
Raw,143,730,328
Raw,118,731,328
Raw,121,732,328
Raw,120,733,328
Raw,73,734,328
Raw,118,735,328
Raw,126,736,328
Raw,116,737,328
Raw,72,738,328
Raw,96,739,328
Raw,98,740,328
Raw,110,741,328
Raw,176,742,328
Raw,76,743,328
Raw,115,744,328
Raw,100,745,328
Raw,115,746,328
Raw,109,748,328
Raw,109,749,328
Raw,111,750,328
Raw,153,751,328
Raw,107,752,328
Raw,137,753,328
Raw,113,757,328
Raw,128,758,328
Raw,98,759,328
Raw,129,761,328
Raw,125,762,328
Raw,134,763,328
Raw,21,763,328
Raw,77,764,328
Raw,123,765,328
Raw,5,765,328
Raw,122,766,328
Raw,133,767,328
Raw,70,768,328
Raw,119,769,328
Raw,115,770,328
Raw,127,771,328
Raw,118,772,328
Raw,7,772,328
Raw,36,773,328
Raw,129,774,328
Raw,123,775,328
Raw,219,776,328
Raw,101,777,328
Raw,89,778,328
Raw,59,779,328
Raw,247,780,328
Raw,152,780,328
Raw,118,781,328
Raw,125,782,328
Raw,37,783,328
Raw,56,784,328
Raw,90,785,328
Raw,89,786,328
Raw,115,787,328
Raw,115,788,328
Raw,116,790,328
Raw,112,791,328
Raw,121,792,328
Raw,118,793,328
Raw,131,794,328
Raw,115,795,328
Raw,70,796,328
Raw,126,798,328
Raw,133,799,328
Raw,119,800,328
Raw,74,801,328
Raw,187,802,328
Raw,108,803,328
Raw,121,804,328
Raw,95,806,328
Raw,117,807,328
Raw,6,808,328
Raw,115,810,328
Raw,125,811,328
Raw,148,812,328
Raw,106,813,328
Raw,125,814,328
Raw,113,815,328
Raw,100,816,328
Raw,44,818,328
Raw,117,819,328
Raw,123,820,328
Raw,127,821,328
Raw,118,822,328
Raw,270,822,328
Raw,108,823,328
Raw,92,824,328
Raw,101,825,328
Raw,117,826,328
Raw,98,827,328
Raw,74,828,328
Raw,116,829,328
Raw,120,830,328
Raw,129,831,328
Raw,141,832,328
Raw,130,833,328
Raw,103,834,328
Raw,134,835,328
Raw,43,836,328
Raw,86,836,328
Raw,115,838,328
Raw,112,839,328
Raw,132,840,328
Raw,112,841,328
Raw,131,842,328
Raw,115,843,328
Raw,195,844,328
Raw,55,844,328
Raw,352,845,328
Raw,122,846,328
Raw,104,847,328
Raw,122,848,328
Raw,128,849,328
Raw,92,850,328
Raw,103,851,328
Raw,74,852,328
Raw,135,853,328
Raw,104,854,328
Raw,55,855,328
Raw,135,856,328
Raw,113,857,328
Raw,114,858,328
Raw,125,859,328
Raw,104,860,328
Raw,110,861,328
Raw,73,862,328
Raw,127,863,328
Raw,130,864,328
Raw,125,865,328
Raw,117,866,328
Raw,128,867,328
Raw,134,868,328
Raw,163,870,328
Raw,120,871,328
Raw,110,872,328
Raw,132,873,328
Raw,113,874,328
Raw,126,875,328
Raw,106,876,328
Raw,90,877,328
Raw,113,878,328
Raw,123,879,328
Raw,103,880,328
Raw,114,881,328
Raw,110,882,328
Raw,98,883,328
Raw,121,884,328
Raw,66,885,328
Raw,82,886,328
Raw,119,888,328
Raw,129,889,328
Raw,121,890,328
Raw,57,891,328
Raw,112,893,328
Raw,124,894,328
Raw,238,895,328
Raw,116,895,328
Raw,120,896,328
Raw,121,897,328
Raw,129,898,328
Raw,101,899,328
Raw,83,900,328
Raw,120,901,328
Raw,112,902,328
Raw,38,903,328
Raw,91,904,328
Raw,60,905,328
Raw,97,907,328
Raw,108,908,328
Raw,105,909,328
Raw,103,910,328
Raw,12,910,328
Raw,14,911,328
Raw,120,912,328
Raw,117,913,328
Raw,115,914,328
Raw,120,915,328
Raw,130,916,328
Raw,78,917,328
Raw,109,918,328
Raw,112,919,328
Raw,13,920,328
Raw,115,921,328
Raw,124,922,328
Raw,112,923,328
Raw,122,924,328
Raw,121,925,328
Raw,89,926,328
Raw,105,927,328
Raw,176,928,328
Raw,113,929,328
Raw,121,930,328
Raw,115,931,328
Raw,136,932,328
Raw,83,933,328
Raw,101,934,328
Raw,111,935,328
Raw,132,936,328
Raw,108,937,328
Raw,253,938,328
Raw,91,938,328
Raw,71,939,328
Raw,126,940,328
Raw,142,941,328
Raw,81,942,328
Raw,128,943,328
Raw,121,944,328
Raw,151,945,328
Raw,78,946,328
Raw,241,947,328
Raw,242,947,328
Raw,146,948,328
Raw,122,949,328
Raw,350,950,328
Raw,102,951,328
Raw,124,952,328
Raw,145,953,328
Raw,115,954,328
Raw,88,955,328
Raw,89,956,328
Raw,108,957,328
Raw,116,958,328
Raw,115,959,328
Raw,78,960,328
Raw,122,961,328
Raw,123,963,328
Raw,110,964,328
Raw,108,965,328
Raw,117,966,328
Raw,62,967,328
Raw,65,968,328
Raw,116,969,328
Raw,62,970,328
Raw,10,970,328
Raw,134,971,328
Raw,87,972,328
Raw,102,973,328
Raw,136,974,328
Raw,65,975,328
Raw,116,976,328
Raw,226,977,328
Raw,14,978,328
Raw,88,978,328
Raw,97,979,328
Raw,131,980,328
Raw,130,981,328
Raw,154,982,328
Raw,133,983,328
Raw,121,984,328
Raw,108,985,328
Raw,95,986,328
Raw,112,987,328
Raw,127,988,328
Raw,127,989,328
Raw,123,990,328
Raw,81,992,328
Raw,133,993,328
Raw,199,994,328
Raw,120,995,328
Raw,100,996,328
Raw,126,997,328
Raw,89,999,328
Raw,125,1000,328
Raw,229,1001,328
Raw,91,1002,328
Raw,103,1003,328
Raw,123,1004,328
Raw,70,1005,328
Raw,147,1006,328
Raw,45,1007,328
Raw,107,1008,328
Raw,114,1009,328
Raw,127,1010,328
Raw,157,1011,328
Raw,70,1012,328
Raw,102,1013,328
Raw,121,1014,328
Raw,135,1015,328
Raw,118,1017,328
Raw,116,1018,328
Raw,87,1019,328
Raw,144,1020,328
Raw,128,1021,328
Raw,128,1022,328
Raw,91,1023,328
Raw,142,1024,328
Raw,102,1025,328
Raw,102,1026,328
Raw,120,1027,328
Raw,77,1028,328
Raw,137,1029,328
Raw,115,1030,328
Raw,305,1031,328
Raw,130,1032,328
Raw,115,1036,328
Raw,122,1037,328
Raw,110,1038,328
Raw,126,1039,328
Raw,115,1040,328
Raw,137,1041,328
Raw,115,1043,328
Raw,139,1044,328
Raw,106,1046,328
Raw,110,1047,328
Raw,116,1048,328
Raw,150,1049,328
Raw,127,1051,328
Raw,83,1052,328
Raw,17,1053,328
Raw,233,1054,328
Raw,9,1055,328
Raw,106,1057,328
Raw,112,1058,328
Raw,122,1059,328
Raw,113,1060,328
Raw,104,1061,328
Raw,101,1062,328
Raw,131,1063,328
Raw,106,1064,328
Raw,127,1065,328
Raw,131,1066,328
Raw,179,1067,328
Raw,124,1068,328
Raw,119,1069,328
Raw,119,1070,328
Raw,108,1071,328
Raw,101,1072,328
Raw,113,1073,328
Raw,131,1074,328
Raw,8,1074,328
Raw,136,1075,328
Raw,248,1076,328
Raw,100,1076,328
Raw,176,1077,328
Raw,134,1079,328
Raw,133,1081,328
Raw,120,1083,328
Raw,114,1084,328
Raw,126,1085,328
Raw,230,1086,328
Raw,124,1086,328
Raw,115,1087,328
Raw,132,1088,328
Raw,116,1089,328
Raw,115,1090,328
Raw,208,1091,328
Raw,137,1092,328
Raw,129,1093,328
Raw,94,1094,328
Raw,113,1095,328
Raw,111,1096,328
Raw,125,1097,328
Raw,95,1098,328
Raw,84,1099,328
Raw,115,1100,328
Raw,80,1101,328
Raw,111,1102,328
Raw,90,1103,328
Raw,125,1104,328
Raw,317,1105,328
Raw,94,1106,328
Raw,118,1107,328
Raw,221,1108,328
Raw,148,1109,328
Raw,110,1110,328
Raw,129,1111,328
Raw,122,1112,328
Raw,82,1113,328
Raw,137,1114,328
Raw,131,1115,328
Raw,111,1116,328
Raw,5,1117,328
Raw,108,1118,328
Raw,100,1119,328
Raw,74,1120,328
Raw,104,1121,328
Raw,105,1122,328
Raw,129,1123,328
Raw,68,1124,328
Raw,28,1125,328
Raw,128,1125,328
Raw,115,1126,328
Raw,88,1127,328
Raw,94,1128,328
Raw,52,1129,328
Raw,85,1130,328
Raw,12,1131,328
Raw,36,1132,328
Raw,128,1133,328
Raw,106,1134,328
Raw,117,1135,328
Raw,118,1136,328
Raw,147,1137,328
Raw,122,1138,328
Raw,89,1139,328
Raw,118,1140,328
Raw,116,1141,328
Raw,112,1143,328
Raw,131,1144,328
Raw,112,1145,328
Raw,122,1146,328
Raw,114,1147,328
Raw,58,1148,328
Raw,128,1149,328
Raw,92,1150,328
Raw,4,1150,328
Raw,86,1151,328
Raw,11,1152,328
Raw,69,1152,328
Raw,129,1153,328
Raw,94,1154,328
Raw,131,1155,328
Raw,125,1157,328
Raw,126,1158,328
Raw,112,1159,328
Raw,102,1161,328
Raw,131,1162,328
Raw,101,1163,328
Raw,106,1164,328
Raw,97,1165,328
Raw,116,1166,328
Raw,123,1168,328
Raw,101,1169,328
Raw,123,1170,328
Raw,12,1170,328
Raw,109,1172,328
Raw,95,1173,328
Raw,210,1174,328
Raw,174,1175,328
Raw,14,1175,328
Raw,119,1176,328
Raw,117,1177,328
Raw,125,1178,328
Raw,137,1179,328
Raw,39,1179,328
Raw,174,1181,328
Raw,111,1182,328
Raw,122,1184,328
Raw,189,1185,328
Raw,26,1185,328
Raw,122,1186,328
Raw,74,1187,328
Raw,106,1189,328
Raw,105,1190,328
Raw,127,1191,328
Raw,178,1192,328
Raw,118,1193,328
Raw,105,1194,328
Raw,103,1195,328
Raw,127,1196,328
Raw,103,1197,328
Raw,132,1198,328
Raw,111,1199,328
Raw,103,1200,328
Raw,106,1201,328
Raw,117,1202,328
Raw,100,1203,328
Raw,124,1204,328
Raw,121,1205,328
Raw,146,1206,328
Raw,170,1207,328
Raw,98,1208,328
Raw,104,1209,328
Raw,49,1209,328
Raw,136,1210,328
Raw,107,1211,328
Raw,76,1213,328
Raw,106,1214,328
Raw,72,1215,328
Raw,118,1216,328
Raw,106,1217,328
Raw,111,1218,328
Raw,136,1219,328
Raw,112,1220,328
Raw,113,1221,328
Raw,79,1222,328
Raw,96,1223,328
Raw,36,1224,328
Raw,13,1224,328
Raw,127,1225,328
Raw,135,1226,328
Raw,120,1227,328
Raw,129,1228,328
Raw,121,1229,328
Raw,106,1231,328
Raw,105,1232,328
Raw,120,1233,328
Raw,98,1234,328
Raw,135,1235,328
Raw,52,1236,328
Raw,33,1236,328
Raw,115,1237,328
Raw,90,1238,328
Raw,170,1239,328
Raw,107,1240,328
Raw,129,1241,328
Raw,99,1242,328
Raw,131,1243,328
Raw,102,1244,328
Raw,119,1245,328
Raw,136,1246,328
Raw,86,1247,328
Raw,90,1248,328
Raw,134,1249,328
Raw,126,1250,328
Raw,100,1251,328
Raw,114,1252,328
Raw,219,1253,328
Raw,120,1254,328
Raw,119,1255,328
Raw,66,1256,328
Raw,126,1257,328
Raw,132,1258,328
Raw,347,1259,328
Raw,114,1259,328
Raw,124,1260,328
Raw,125,1261,328
Raw,120,1262,328
Raw,119,1263,328
Raw,112,1264,328
Raw,136,1265,328
Raw,117,1266,328
Raw,202,1268,328
Raw,95,1269,328
Raw,126,1270,328
Raw,122,1271,328
Raw,13,1273,328
Raw,121,1274,328
Raw,76,1276,328
Raw,101,1277,328
Raw,109,1278,328
Raw,92,1280,328
Raw,97,1281,328
Raw,110,1282,328
Raw,127,1283,328
Raw,144,1284,328
Raw,16,1284,328
Raw,122,1285,328
Raw,120,1286,328
Raw,127,1287,328
Raw,171,1288,328
Raw,122,1289,328
Raw,118,1290,328
Raw,107,1291,328
Raw,153,1292,328
Raw,108,1293,328
Raw,88,1294,328
Raw,109,1295,328
Raw,147,1296,328
Raw,38,1296,328
Raw,111,1297,328
Raw,91,1298,328
Raw,85,1298,328
Raw,82,1299,328
Raw,87,1300,328
Raw,101,1301,328
Raw,110,1302,328
Raw,105,1303,328
Raw,88,1304,328
Raw,116,1305,328
Raw,146,1306,328
Raw,169,1307,328
Raw,105,1308,328
Raw,105,1309,328
Raw,111,1310,328
Raw,98,1311,328
Raw,112,1312,328
Raw,123,1313,328
Raw,120,1314,328
Raw,136,1315,328
Raw,97,1316,328
Raw,143,1317,328
Raw,90,1319,328
Raw,137,1320,328
Raw,94,1321,328
Raw,133,1322,328
Raw,52,1322,328
Raw,118,1323,328
Raw,131,1324,328
Raw,112,1325,328
Raw,210,1326,328
Raw,198,1327,328
Raw,80,1328,328
Raw,110,1329,328
Raw,224,1330,328
Raw,150,1331,328
Raw,117,1332,328
Raw,191,1333,328
Raw,69,1334,328
Raw,127,1335,328
Raw,127,1337,328
Raw,104,1338,328
Raw,85,1339,328
Raw,90,1340,328
Raw,184,1342,328
Raw,170,1343,328
Raw,108,1344,328
Raw,131,1345,328
Raw,119,1347,328
Raw,121,1348,328
Raw,135,1350,328
Raw,209,1351,328
Raw,103,1352,328
Raw,121,1354,328
Raw,111,1355,328
Raw,95,1356,328
Raw,129,1357,328
Raw,115,1358,328
Raw,105,1359,328
Raw,159,1360,328
Raw,121,1361,328
Raw,120,1362,328
Raw,130,1363,328
Raw,37,1363,328
Raw,116,1364,328
Raw,115,1365,328
Raw,124,1366,328
Raw,81,1367,328
Raw,89,1368,328
Raw,104,1369,328
Raw,99,1370,328
Raw,31,1370,328
Raw,132,1372,328
Raw,121,1373,328
Raw,92,1374,328
Raw,81,1375,328
Raw,131,1376,328
Raw,131,1377,328
Raw,123,1378,328
Raw,129,1380,328
Raw,100,1381,328
Raw,78,1382,328
Raw,124,1384,328
Raw,115,1385,328
Raw,124,1386,328
Raw,114,1387,328
Raw,102,1388,328
Raw,119,1389,328
Raw,116,1390,328
Raw,111,1391,328
Raw,106,1392,328
Raw,114,1393,328
Raw,106,1394,328
Raw,208,1395,328
Raw,54,1396,328
Raw,118,1397,328
Raw,115,1398,328
Raw,97,1399,328
Raw,97,1400,328
Raw,197,1401,328
Raw,165,1402,328
Raw,130,1404,328
Raw,149,1405,328
Raw,100,1406,328
Raw,128,1407,328
Raw,122,1408,328
Raw,112,1410,328
Raw,142,1411,328
Raw,77,1412,328
Raw,119,1413,328
Raw,26,1414,328
Raw,87,1414,328
Raw,51,1415,328
Raw,135,1416,328
Raw,121,1417,328
Raw,122,1418,328
Raw,118,1420,328
Raw,104,1421,328
Raw,95,1422,328
Raw,101,1423,328
Raw,61,1424,328
Raw,136,1425,328
Raw,129,1426,328
Raw,128,1427,328
Raw,342,1428,328
Raw,110,1428,328
Raw,105,1429,328
Raw,94,1430,328
Raw,215,1431,328
Raw,103,1432,328
Raw,127,1433,328
Raw,105,1434,328
Raw,129,1435,328
Raw,116,1436,328
Raw,8,1436,328
Raw,109,1437,328
Raw,131,1438,328
Raw,105,1439,328
Raw,132,1440,328
Raw,94,1441,328
Raw,110,1442,328
Raw,17,1443,328
Raw,130,1444,328
Raw,127,1445,328
Raw,111,1446,328
Raw,126,1447,328
Raw,117,1448,328
Raw,49,1449,328
Raw,112,1449,328
Raw,142,1450,328
Raw,114,1451,328
Raw,129,1453,328
Raw,120,1454,328
Raw,139,1455,328
Raw,120,1456,328
Raw,112,1457,328
Raw,133,1458,328
Raw,130,1459,328
Raw,85,1460,328
Raw,41,1460,328
Raw,133,1461,328
Raw,98,1462,328
Raw,105,1463,328
Raw,65,1464,328
Raw,108,1466,328
Raw,122,1467,328
Raw,139,1468,328
Raw,260,1469,328
Raw,33,1469,328
Raw,128,1470,328
Raw,118,1471,328
Raw,120,1472,328
Raw,108,1473,328
Raw,125,1474,328
Raw,214,1475,328
Raw,127,1476,328
Raw,119,1477,328
Raw,142,1478,328
Raw,87,1479,328
Raw,110,1480,328
Raw,109,1481,328
Raw,119,1482,328
Raw,98,1483,328
Raw,48,1483,328
Raw,73,1484,328
Raw,94,1485,328
Raw,112,1486,328
Raw,102,1487,328
Raw,111,1488,328
Raw,111,1489,328
Raw,207,1490,328
Raw,79,1491,328
Raw,126,1492,328
Raw,92,1493,328
Raw,72,1494,328
Raw,85,1495,328
Raw,124,1497,328
Raw,126,1498,328
Raw,120,1499,328
Raw,103,1500,328
Raw,109,1501,328
Raw,64,1502,328
Raw,135,1503,328
Raw,241,1504,328
Raw,104,1505,328
Raw,82,1506,328
Raw,80,1507,328
Raw,120,1508,328
Raw,16,1509,328
Raw,124,1510,328
Raw,93,1511,328
Raw,79,1512,328
Raw,111,1513,328
Raw,96,1514,328
Raw,131,1515,328
Raw,103,1517,328
Raw,98,1518,328
Raw,68,1519,328
Raw,125,1521,328
Raw,112,1522,328
Raw,125,1523,328
Raw,114,1524,328
Raw,103,1525,328
Raw,115,1526,328
Raw,119,1527,328
Raw,97,1528,328
Raw,111,1529,328
Raw,92,1530,328
Raw,122,1531,328
Raw,121,1532,328
Raw,109,1533,328
Raw,111,1534,328
Raw,117,1535,328
Raw,110,1536,328
Raw,74,1537,328
Raw,125,1538,328
Raw,59,1539,328
Raw,135,1540,328
Raw,162,1541,328
Raw,115,1543,328
Raw,65,1544,328
Raw,146,1545,328
Raw,118,1546,328
Raw,138,1547,328
Raw,126,1548,328
Raw,120,1549,328
Raw,116,1550,328
Raw,101,1551,328
Raw,100,1552,328
Raw,127,1553,328
Raw,126,1554,328
Raw,74,1555,328
Raw,116,1556,328
Raw,123,1557,328
Raw,35,1558,328
Raw,81,1558,328
Raw,96,1559,328
Raw,133,1561,328
Raw,117,1562,328
Raw,137,1563,328
Raw,88,1564,328
Raw,46,1566,328
Raw,105,1567,328
Raw,106,1568,328
Raw,103,1569,328
Raw,115,1570,328
Raw,126,1571,328
Raw,113,1572,328
Raw,64,1573,328
Raw,99,1574,328
Raw,104,1575,328
Raw,117,1576,328
Raw,114,1577,328
Raw,124,1578,328
Raw,102,1579,328
Raw,101,1580,328
Raw,103,1581,328
Raw,125,1582,328
Raw,95,1583,328
Raw,105,1584,328
Raw,107,1585,328
Raw,87,1586,328
Raw,72,1587,328
Raw,121,1588,328
Raw,181,1589,328
Raw,92,1590,328
Raw,82,1591,328
Raw,123,1592,328
Raw,108,1593,328
Raw,3,1593,328
Raw,119,1594,328
Raw,108,1595,328
Raw,125,1596,328
Raw,115,1597,328
Raw,67,1598,328
Raw,105,1599,328
Raw,117,1600,328
Raw,113,1601,328
Raw,102,1602,328
Raw,115,1603,328
Raw,44,1603,328
Raw,114,1604,328
Raw,128,1605,328
Raw,116,1606,328
Raw,102,1607,328
Raw,106,1608,328
Raw,65,1609,328
Raw,84,1611,328
Raw,109,1612,328
Raw,53,1613,328
Raw,111,1614,328
Raw,186,1615,328
Raw,106,1616,328
Raw,118,1617,328
Raw,6,1617,328
Raw,129,1618,328
Raw,95,1619,328
Raw,126,1620,328
Raw,170,1621,328
Raw,201,1621,328
Raw,113,1622,328
Raw,138,1623,328
Raw,123,1624,328
Raw,109,1625,328
Raw,93,1626,328
Raw,135,1628,328
Raw,105,1629,328
Raw,98,1630,328
Raw,112,1631,328
Raw,10,1631,328
Raw,133,1632,328
Raw,10,1632,328
Raw,84,1633,328
Raw,126,1634,328
Raw,129,1635,328
Raw,119,1636,328
Raw,111,1637,328
Raw,98,1638,328
Raw,183,1639,328
Raw,120,1640,328
Raw,33,1641,328
Raw,120,1641,328
Raw,132,1642,328
Raw,76,1643,328
Raw,118,1644,328
Raw,91,1645,328
Raw,110,1646,328
Raw,120,1647,328
Raw,119,1648,328
Raw,74,1649,328
Raw,136,1650,328
Raw,8,1650,328
Raw,146,1651,328
Raw,119,1652,328
Raw,100,1653,328
Raw,114,1654,328
Raw,129,1655,328
Raw,125,1656,328
Raw,83,1657,328
Raw,112,1658,328
Raw,113,1659,328
Raw,93,1660,328
Raw,108,1661,328
Raw,133,1662,328
Raw,132,1663,328
Raw,117,1664,328
Raw,144,1666,328
Raw,67,1667,328
Raw,97,1668,328
Raw,118,1669,328
Raw,101,1670,328
Raw,55,1671,328
Raw,62,1672,328
Raw,128,1673,328
Raw,119,1674,328
Raw,43,1674,328
Raw,122,1675,328
Raw,156,1676,328
Raw,127,1677,328
Raw,86,1678,328
Raw,126,1679,328
Raw,141,1680,328
Raw,116,1681,328
Raw,286,1682,328
Raw,107,1683,328
Raw,96,1684,328
Raw,125,1685,328
Raw,111,1686,328
Raw,33,1687,328
Raw,120,1688,328
Raw,64,1689,328
Raw,111,1691,328
Raw,150,1692,328
Raw,88,1693,328
Raw,118,1694,328
Raw,57,1695,328
Raw,116,1696,328
Raw,79,1697,328
Raw,120,1698,328
Raw,49,1699,328
Raw,17,1700,328
Raw,86,1700,328
Raw,117,1703,328
Raw,94,1704,328
Raw,103,1705,328
Raw,112,1708,328
Raw,77,1709,328
Raw,127,1710,328
Raw,118,1712,328
Raw,99,1713,328
Raw,103,1714,328
Raw,189,1715,328
Raw,152,1716,328
Raw,98,1719,328
Raw,69,1722,328
Raw,100,1723,328
Raw,16,1723,328
Raw,91,1724,328
Raw,101,1726,328
Raw,21,1727,328
Raw,128,1728,328
Raw,116,1729,328
Raw,16,1730,328
Raw,120,1731,328
Raw,131,1732,328
Raw,185,1733,328
Raw,124,1734,328
Raw,11,1736,328
Raw,76,1737,328
Raw,80,1738,328
Raw,93,1741,328
Raw,142,1742,328
Raw,110,1743,328
Raw,68,1744,328
Raw,118,1745,328
Raw,135,1746,328
Raw,184,1747,328
Raw,116,1748,328
Raw,16,1750,328
Raw,110,1751,328
Raw,97,1752,328
Raw,121,1753,328
Raw,114,1754,328
Raw,78,1755,328
Raw,107,1758,328
Raw,127,1759,328
Raw,90,1760,328
Raw,113,1761,328
Raw,94,1762,328
Raw,103,1763,328
Raw,121,1763,328
Raw,79,1764,328
Raw,15,1764,328
Raw,122,1765,328
Raw,96,1766,328
Raw,105,1767,328
Raw,117,1769,328
Raw,97,1770,328
Raw,123,1771,328
Raw,97,1772,328
Raw,109,1773,328
Raw,120,1774,328
Raw,114,1775,328
Raw,119,1776,328
Raw,133,1777,328
Raw,122,1778,328
Raw,119,1779,328
Raw,99,1780,328
Raw,124,1781,328
Raw,120,1782,328
Raw,99,1783,328
Raw,109,1785,328
Raw,123,1786,328
Raw,138,1787,328
Raw,117,1788,328
Raw,124,1790,328
Raw,118,1791,328
Raw,89,1792,328
Raw,114,1793,328
Raw,73,1794,328
Raw,109,1795,328
Raw,30,1796,328
Raw,107,1796,328
Raw,11,1797,328
Raw,110,1798,328
Raw,141,1799,328
Raw,188,1800,328
Raw,105,1801,328
Raw,115,1803,328
Raw,113,1805,328
Raw,103,1806,328
Raw,120,1807,328
Raw,121,1808,328
Raw,106,1809,328
Raw,111,1810,328
Raw,104,1811,328
Raw,112,1812,328
Raw,3,1812,328
Raw,109,1813,328
Raw,115,1814,328
Raw,68,1816,328
Raw,101,1817,328
Raw,104,1818,328
Raw,119,1819,328
Raw,114,1820,328
Raw,135,1821,328
Raw,101,1822,328
Raw,105,1823,328
Raw,116,1824,328
Raw,131,1825,328
Raw,145,1826,328
Raw,147,1827,328
Raw,168,1829,328
Raw,156,1830,328
Raw,61,1831,328
Raw,143,1832,328
Raw,149,1833,328
Raw,119,1834,328
Raw,39,1835,328
Raw,117,1837,328
Raw,49,1838,328
Raw,87,1838,328
Raw,142,1839,328
Raw,98,1840,328
Raw,139,1841,328
Raw,87,1842,328
Raw,112,1843,328
Raw,109,1844,328
Raw,105,1845,328
Raw,131,1846,328
Raw,58,1847,328
Raw,128,1848,328
Raw,135,1849,328
Raw,111,1850,328
Raw,70,1852,328
Raw,41,1853,328
Raw,175,1854,328
Raw,82,1855,328
Raw,125,1856,328
Raw,121,1857,328
Raw,126,1859,328
Raw,50,1860,328
Raw,90,1861,328
Raw,125,1862,328
Raw,158,1864,328
Raw,108,1865,328
Raw,114,1866,328
Raw,148,1867,328
Raw,123,1868,328
Raw,125,1869,328
Raw,30,1869,328
Raw,20,1869,328
Raw,121,1870,328
Raw,116,1871,328
Raw,3,1873,328
Raw,119,1874,328
Raw,123,1875,328
Raw,84,1876,328
Raw,82,1877,328
Raw,241,1878,328
Raw,95,1879,328
Raw,133,1880,328
Raw,132,1881,328
Raw,115,1882,328
Raw,89,1883,328
Raw,114,1885,328
Raw,117,1886,328
Raw,112,1887,328
Raw,124,1888,328
Raw,108,1889,328
Raw,111,1890,328
Raw,127,1891,328
Raw,105,1892,328
Raw,130,1893,328
Raw,103,1894,328
Raw,97,1895,328
Raw,116,1896,328
Raw,217,1898,328
Raw,86,1898,328
Raw,100,1899,328
Raw,176,1900,328
Raw,85,1901,328
Raw,138,1902,328
Raw,111,1903,328
Raw,127,1904,328
Raw,112,1905,328
Raw,117,1905,328
Raw,117,1906,328
Raw,121,1907,328
Raw,103,1908,328
Raw,104,1909,328
Raw,113,1910,328
Raw,142,1911,328
Raw,123,1912,328
Raw,118,1913,328
Raw,88,1914,328
Raw,123,1915,328
Raw,126,1917,328
Raw,96,1919,328
Raw,135,1921,328
Raw,120,1922,328
Raw,5,1922,328
Raw,119,1923,328
Raw,88,1924,328
Raw,117,1925,328
Raw,141,1926,328
Raw,121,1928,328
Raw,124,1929,328
Raw,31,1929,328
Raw,121,1930,328
Raw,142,1931,328
Raw,103,1932,328
Raw,241,1933,328
Raw,114,1934,328
Raw,96,1935,328
Raw,67,1936,328
Raw,82,1937,328
Raw,68,1939,328
Raw,127,1940,328
Raw,136,1941,328
Raw,90,1943,328
Raw,99,1944,328
Raw,7,1944,328
Raw,127,1945,328
Raw,95,1946,328
Raw,124,1947,328
Raw,119,1948,328
Raw,117,1949,328
Raw,134,1950,328
Raw,143,1951,328
Raw,113,1953,328
Raw,71,1954,328
Raw,118,1955,328
Raw,115,1956,328
Raw,113,1957,328
Raw,109,1958,328
Raw,51,1958,328
Raw,134,1959,328
Raw,148,1960,328
Raw,101,1961,328
Raw,121,1962,328
Raw,112,1963,328
Raw,109,1964,328
Raw,92,1965,328
Raw,115,1967,328
Raw,133,1968,328
Raw,120,1969,328
Raw,150,1970,328
Raw,109,1971,328
Raw,193,1972,328
Raw,109,1973,328
Raw,114,1974,328
Raw,123,1975,328
Raw,135,1976,328
Raw,122,1977,328
Raw,142,1978,328
Raw,106,1979,328
Raw,27,1979,328
Raw,113,1980,328
Raw,72,1981,328
Raw,150,1982,328
Raw,118,1983,328
Raw,89,1984,328
Raw,99,1985,328
Raw,124,1987,328
Raw,94,1988,328
Raw,114,1989,328
Raw,100,1990,328
Raw,204,1992,328
Raw,112,1993,328
Raw,121,1994,328
Raw,122,1995,328
Raw,99,1996,328
Raw,130,1997,328
Raw,219,1998,328
Raw,113,1999,328
Raw,191,2000,328
Raw,104,2001,328
Raw,133,2002,328
Raw,132,2003,328
Raw,123,2004,328
Raw,136,2005,328
Raw,107,2006,328
Raw,103,2008,328
Raw,132,2009,328
Raw,122,2010,328
Raw,19,2012,328
Raw,122,2012,328
Raw,108,2013,328
Raw,182,2014,328
Raw,139,2015,328
Raw,90,2016,328
Raw,111,2017,328
Raw,331,2018,328
Raw,116,2019,328
Raw,9,2019,328
Raw,118,2020,328
Raw,110,2021,328
Raw,111,2022,328
Raw,76,2023,328
Raw,122,2024,328
Raw,192,2025,328
Raw,117,2026,328
Raw,117,2027,328
Raw,140,2028,328
Raw,138,2029,328
Raw,92,2030,328
Raw,15,2031,328
Raw,64,2031,328
Raw,122,2032,328
Raw,8,2032,328
Raw,132,2035,328
Raw,75,2036,328
Raw,234,2037,328
Raw,267,2037,328
Raw,111,2038,328
Raw,117,2039,328
Raw,118,2040,328
Raw,133,2041,328
Raw,115,2042,328
Raw,104,2043,328
Raw,110,2044,328
Raw,96,2045,328
Raw,30,2046,328
Raw,135,2047,328
Raw,69,2048,328
Raw,138,2049,328
Raw,121,2050,328
Raw,38,2051,328
Raw,110,2051,328
Raw,116,2052,328
Raw,105,2053,328
Raw,125,2054,328
Raw,120,2055,328
Raw,130,2056,328
Raw,101,2056,328
Raw,101,2057,328
Raw,136,2058,328
Raw,117,2059,328
Raw,9,2060,328
Raw,129,2061,328
Raw,105,2062,328
Raw,8,2063,328
Raw,144,2064,328
Raw,54,2065,328
Raw,119,2066,328
Raw,145,2067,328
Raw,162,2068,328
Raw,122,2069,328
Raw,120,2070,328
Raw,109,2071,328
Raw,104,2072,328
Raw,109,2073,328
Raw,110,2074,328
Raw,34,2074,328
Raw,84,2075,328
Raw,129,2076,328
Raw,133,2077,328
Raw,113,2078,328
Raw,114,2079,328
Raw,23,2079,328
Raw,107,2080,328
Raw,121,2081,328
Raw,29,2082,328
Raw,119,2083,328
Raw,111,2084,328
Raw,104,2085,328
Raw,87,2086,328
Raw,111,2087,328
Raw,109,2088,328
Raw,4,2088,328
Raw,100,2089,328
Raw,6,2090,328
Raw,3,2090,328
Raw,109,2092,328
Raw,69,2093,328
Raw,115,2094,328
Raw,248,2094,328
Raw,121,2095,328
Raw,108,2096,328
Raw,101,2097,328
Raw,31,2097,328
Raw,99,2098,328
Raw,94,2099,328
Raw,124,2100,328
Raw,76,2101,328
Raw,118,2103,328
Raw,55,2103,328
Raw,137,2104,328
Raw,92,2105,328
Raw,126,2106,328
Raw,110,2108,328
Raw,107,2109,328
Raw,133,2110,328
Raw,118,2111,328
Raw,117,2112,328
Raw,127,2113,328
Raw,131,2114,328
Raw,119,2115,328
Raw,137,2116,328
Raw,151,2117,328
Raw,115,2118,328
Raw,121,2120,328
Raw,109,2121,328
Raw,39,2122,328
Raw,306,2124,328
Raw,113,2125,328
Raw,14,2125,328
Raw,129,2126,328
Raw,122,2127,328
Raw,122,2128,328
Raw,91,2129,328
Raw,128,2130,328
Raw,131,2131,328
Raw,135,2132,328
Raw,105,2133,328
Raw,75,2134,328
Raw,50,2135,328
Raw,122,2136,328
Raw,50,2137,328
Raw,125,2139,328
Raw,88,2140,328
Raw,114,2141,328
Raw,101,2142,328
Raw,40,2143,328
Raw,93,2144,328
Raw,119,2145,328
Raw,133,2146,328
Raw,112,2147,328
Raw,104,2148,328
Raw,164,2149,328
Raw,96,2150,328
Raw,97,2151,328
Raw,109,2152,328
Raw,88,2153,328
Raw,101,2154,328
Raw,100,2155,328
Raw,82,2156,328
Raw,96,2157,328
Raw,63,2158,328
Raw,224,2159,328
Raw,125,2160,328
Raw,184,2161,328
Raw,114,2162,328
Raw,93,2163,328
Raw,123,2164,328
Raw,98,2165,328
Raw,105,2166,328
Raw,14,2167,328
Raw,132,2167,328
Raw,95,2168,328
Raw,145,2169,328
Raw,76,2170,328
Raw,64,2171,328
Raw,129,2172,328
Raw,137,2173,328
Raw,140,2174,328
Raw,122,2175,328
Raw,108,2176,328
Raw,103,2177,328
Raw,116,2178,328
Raw,116,2179,328
Raw,121,2180,328
Raw,9,2180,328
Raw,127,2181,328
Raw,132,2182,328
Raw,77,2183,328
Raw,96,2185,328
Raw,47,2185,328
Raw,82,2186,328
Raw,126,2187,328
Raw,184,2188,328
Raw,178,2189,328
Raw,230,2190,328
Raw,124,2191,328
Raw,124,2192,328
Raw,167,2193,328
Raw,138,2193,328
Raw,82,2194,328
Raw,134,2195,328
Raw,110,2196,328
Raw,180,2197,328
Raw,184,2198,328
Raw,222,2199,328
Raw,121,2200,328
Raw,108,2201,328
Raw,139,2203,328
Raw,121,2204,328
Raw,114,2205,328
Raw,118,2206,328
Raw,90,2207,328
Raw,126,2208,328
Raw,127,2209,328
Raw,114,2210,328
Raw,117,2211,328
Raw,61,2211,328
Raw,43,2213,328
Raw,54,2213,328
Raw,114,2214,328
Raw,124,2215,328
Raw,169,2216,328
Raw,104,2217,328
Raw,127,2218,328
Raw,103,2220,328
Raw,110,2221,328
Raw,97,2222,328
Raw,127,2224,328
Raw,136,2225,328
Raw,104,2226,328
Raw,113,2227,328
Raw,112,2229,328
Raw,108,2230,328
Raw,113,2231,328
Raw,127,2232,328
Raw,201,2233,328
Raw,115,2234,328
Raw,104,2236,328
Raw,117,2237,328
Raw,86,2238,328
Raw,123,2239,328
Raw,115,2240,328
Raw,89,2242,328
Raw,122,2243,328
Raw,119,2244,328
Raw,96,2245,328
Raw,84,2246,328
Raw,126,2247,328
Raw,137,2248,328
Raw,120,2249,328
Raw,110,2249,328
Raw,3,2249,328
Raw,122,2250,328
Raw,130,2251,328
Raw,106,2252,328
Raw,154,2253,328
Raw,126,2254,328
Raw,118,2255,328
Raw,90,2256,328
Raw,119,2257,328
Raw,128,2258,328
Raw,173,2259,328
Raw,118,2260,328
Raw,117,2261,328
Raw,109,2263,328
Raw,122,2264,328
Raw,62,2265,328
Raw,202,2266,328
Raw,114,2267,328
Raw,60,2268,328
Raw,88,2268,328
Raw,124,2269,328
Raw,62,2270,328
Raw,224,2271,328
Raw,110,2272,328
Raw,120,2273,328
Raw,135,2274,328
Raw,216,2275,328
Raw,142,2276,328
Raw,44,2276,328
Raw,73,2277,328
Raw,40,2277,328
Raw,138,2278,328
Raw,112,2279,328
Raw,176,2280,328
Raw,113,2281,328
Raw,127,2283,328
Raw,136,2284,328
Raw,117,2285,328
Raw,138,2286,328
Raw,78,2287,328
Raw,117,2288,328
Raw,144,2290,328
Raw,109,2291,328
Raw,122,2292,328
Raw,125,2293,328
Raw,95,2294,328
Raw,78,2295,328
Raw,131,2296,328
Raw,131,2297,328
Raw,53,2297,328
Raw,108,2298,328
Raw,115,2299,328
Raw,132,2301,328
Raw,117,2302,328
Raw,122,2303,328
Raw,128,2304,328
Raw,127,2305,328
Raw,95,2307,328
Raw,116,2307,328
Raw,126,2308,328
Raw,134,2310,328
Raw,25,2310,328
Raw,103,2311,328
Raw,112,2312,328
Raw,131,2313,328
Raw,94,2314,328
Raw,120,2315,328
Raw,89,2315,328
Raw,89,2316,328
Raw,145,2317,328
Raw,125,2318,328
Raw,131,2319,328
Raw,114,2320,328
Raw,128,2321,328
Raw,116,2322,328
Raw,113,2323,328
Raw,139,2324,328
Raw,121,2324,328
Raw,120,2325,328
Raw,122,2326,328
Raw,114,2327,328
Raw,106,2328,328
Raw,80,2329,328
Raw,138,2330,328
Raw,51,2331,328
Raw,130,2331,328
Raw,124,2332,328
Raw,125,2333,328
Raw,119,2334,328
Raw,115,2335,328
Raw,203,2336,328
Raw,131,2337,328
Raw,95,2338,328
Raw,100,2339,328
Raw,114,2340,328
Raw,110,2341,328
Raw,123,2342,328
Raw,114,2343,328
Raw,141,2344,328
Raw,101,2345,328
Raw,156,2346,328
Raw,128,2347,328
Raw,68,2348,328
Raw,111,2349,328
Raw,121,2350,328
Raw,202,2351,328
Raw,108,2352,328
Raw,114,2353,328
Raw,106,2354,328
Raw,64,2355,328
Raw,128,2356,328
Raw,132,2357,328
Raw,121,2358,328
Raw,121,2359,328
Raw,106,2360,328
Raw,151,2361,328
Raw,59,2362,328
Raw,125,2362,328
Raw,119,2363,328
Raw,84,2363,328
Raw,101,2364,328
Raw,135,2365,328
Raw,108,2366,328
Raw,112,2367,328
Raw,98,2367,328
Raw,110,2368,328
Raw,81,2369,328
Raw,201,2370,328
Raw,99,2371,328
Raw,123,2372,328
Raw,80,2374,328
Raw,110,2375,328
Raw,125,2376,328
Raw,136,2377,328
Raw,97,2378,328
Raw,106,2379,328
Raw,198,2380,328
Raw,138,2381,328
Raw,120,2382,328
Raw,113,2383,328
Raw,111,2385,328
Raw,192,2386,328
Raw,116,2387,328
Raw,128,2388,328
Raw,114,2389,328
Raw,126,2391,328
Raw,130,2392,328
Raw,126,2393,328
Raw,122,2394,328
Raw,131,2395,328
Raw,118,2396,328
Raw,146,2397,328
Raw,167,2398,328
Raw,251,2399,328
Raw,129,2400,328
Raw,133,2402,328
Raw,61,2403,328
Raw,118,2404,328
Raw,157,2404,328
Raw,115,2405,328
Raw,128,2406,328
Raw,147,2407,328
Raw,122,2408,328
Raw,117,2409,328
Raw,121,2410,328
Raw,158,2411,328
Raw,94,2412,328
Raw,106,2413,328
Raw,193,2414,328
Raw,142,2415,328
Raw,161,2416,328
Raw,231,2417,328
Raw,107,2419,328
Raw,123,2420,328
Raw,105,2421,328
Raw,109,2422,328
Raw,90,2423,328
Raw,121,2424,328
Raw,101,2425,328
Raw,182,2427,328
Raw,116,2428,328
Raw,128,2429,328
Raw,125,2430,328
Raw,109,2431,328
Raw,102,2432,328
Raw,117,2433,328
Raw,67,2434,328
Raw,96,2435,328
Raw,71,2436,328
Raw,131,2438,328
Raw,105,2439,328
Raw,94,2440,328
Raw,107,2441,328
Raw,50,2442,328
Raw,113,2442,328
Raw,125,2443,328
Raw,114,2444,328
Raw,118,2445,328
Raw,115,2446,328
Raw,130,2447,328
Raw,90,2448,328
Raw,126,2449,328
Raw,98,2450,328
Raw,101,2451,328
Raw,135,2452,328
Raw,91,2453,328
Raw,129,2454,328
Raw,61,2455,328
Raw,111,2456,328
Raw,101,2457,328
Raw,126,2458,328
Raw,107,2459,328
Raw,111,2460,328
Raw,124,2462,328
Raw,63,2463,328
Raw,114,2464,328
Raw,139,2465,328
Raw,96,2466,328
Raw,192,2467,328
Raw,48,2468,328
Raw,336,2469,328
Raw,114,2470,328
Raw,96,2471,328
Raw,95,2472,328
Raw,104,2473,328
Raw,89,2474,328
Raw,131,2475,328
Raw,130,2476,328
Raw,101,2477,328
Raw,106,2478,328
Raw,11,2479,328
Raw,64,2480,328
Raw,132,2481,328
Raw,129,2482,328
Raw,143,2483,328
Raw,123,2484,328
Raw,123,2485,328
Raw,86,2486,328
Raw,228,2487,328
Raw,126,2488,328
Raw,228,2490,328
Raw,104,2490,328
Raw,127,2491,328
Raw,114,2492,328
Raw,116,2493,328
Raw,123,2493,328
Raw,111,2494,328
Raw,110,2495,328
Raw,115,2496,328
Raw,122,2497,328
Raw,115,2498,328
Raw,121,2499,328
Raw,111,2500,328
Raw,106,2501,328
Raw,106,2502,328
Raw,30,2502,328
Raw,131,2503,328
Raw,110,2504,328
Raw,116,2505,328
Raw,119,2506,328
Raw,114,2507,328
Raw,76,2508,328
Raw,121,2509,328
Raw,117,2510,328
Raw,107,2511,328
Raw,144,2512,328
Raw,116,2513,328
Raw,125,2514,328
Raw,99,2515,328
Raw,91,2516,328
Raw,54,2517,328
Raw,125,2518,328
Raw,99,2519,328
Raw,80,2520,328
Raw,142,2521,328
Raw,120,2522,328
Raw,20,2522,328
Raw,116,2523,328
Raw,128,2524,328
Raw,61,2525,328
Raw,116,2527,328
Raw,105,2528,328
Raw,113,2529,328
Raw,107,2530,328
Raw,121,2531,328
Raw,70,2533,328
Raw,133,2534,328
Raw,15,2535,328
Raw,98,2536,328
Raw,52,2536,328
Raw,82,2538,328
Raw,116,2539,328
Raw,58,2540,328
Raw,122,2541,328
Raw,125,2542,328
Raw,145,2543,328
Raw,83,2544,328
Raw,63,2545,328
Raw,53,2546,328
Raw,142,2547,328
Raw,111,2548,328
Raw,41,2549,328
Raw,95,2550,328
Raw,143,2551,328
Raw,107,2552,328
Raw,115,2553,328
Raw,53,2554,328
Raw,109,2555,328
Raw,114,2556,328
Raw,54,2557,328
Raw,106,2559,328
Raw,170,2560,328
Raw,220,2561,328
Raw,140,2562,328
Raw,67,2563,328
Raw,119,2565,328
Raw,131,2566,328
Raw,128,2567,328
Raw,68,2569,328
Raw,135,2570,328
Raw,85,2571,328
Raw,96,2572,328
Raw,226,2573,328
Raw,125,2574,328
Raw,112,2575,328
Raw,103,2576,328
Raw,91,2577,328
Raw,101,2578,328
Raw,115,2579,328
Raw,104,2580,328
Raw,122,2581,328
Raw,115,2582,328
Raw,104,2583,328
Raw,108,2584,328
Raw,114,2586,328
Raw,72,2587,328
Raw,113,2588,328
Raw,125,2589,328
Raw,127,2590,328
Raw,110,2591,328
Raw,108,2592,328
Raw,115,2594,328
Raw,126,2595,328
Raw,111,2597,328
Raw,113,2598,328
Raw,77,2599,328
Raw,139,2600,328
Raw,122,2602,328
Raw,125,2603,328
Raw,55,2604,328
Raw,121,2605,328
Raw,119,2606,328
Raw,107,2607,328
Raw,98,2608,328
Raw,133,2609,328
Raw,114,2610,328
Raw,98,2611,328
Raw,119,2612,328
Raw,131,2613,328
Raw,105,2614,328
Raw,102,2615,328
Raw,118,2616,328
Raw,139,2617,328
Raw,97,2618,328
Raw,113,2619,328
Raw,113,2620,328
Raw,123,2621,328
Raw,113,2622,328
Raw,89,2624,328
Raw,149,2625,328
Raw,110,2626,328
Raw,104,2629,328
Raw,114,2630,328
Raw,90,2631,328
Raw,105,2632,328
Raw,33,2633,328
Raw,105,2633,328
Raw,113,2634,328
Raw,109,2635,328
Raw,128,2636,328
Raw,119,2637,328
Raw,109,2638,328
Raw,252,2639,328
Raw,126,2640,328
Raw,104,2641,328
Raw,117,2642,328
Raw,121,2643,328
Raw,110,2646,328
Raw,144,2647,328
Raw,102,2648,328
Raw,101,2649,328
Raw,81,2650,328
Raw,121,2651,328
Raw,65,2652,328
Raw,103,2653,328
Raw,100,2654,328
Raw,96,2655,328
Raw,80,2656,328
Raw,118,2657,328
Raw,81,2658,328
Raw,109,2659,328
Raw,106,2660,328
Raw,131,2661,328
Raw,113,2662,328
Raw,120,2663,328
Raw,113,2664,328
Raw,10,2665,328
Raw,123,2665,328
Raw,128,2666,328
Raw,146,2667,328
Raw,128,2667,328
Raw,125,2668,328
Raw,121,2669,328
Raw,220,2670,328
Raw,123,2671,328
Raw,115,2672,328
Raw,112,2673,328
Raw,118,2674,328
Raw,104,2675,328
Raw,106,2676,328
Raw,112,2677,328
Raw,52,2678,328
Raw,125,2679,328
Raw,117,2680,328
Raw,232,2681,328
Raw,3,2681,328
Raw,122,2682,328
Raw,94,2683,328
Raw,124,2684,328
Raw,96,2685,328
Raw,113,2686,328
Raw,108,2687,328
Raw,8,2687,328
Raw,125,2688,328
Raw,339,2691,328
Raw,56,2691,328
Raw,107,2692,328
Raw,89,2693,328
Raw,116,2694,328
Raw,128,2695,328
Raw,104,2696,328
Raw,122,2697,328
Raw,255,2698,328
Raw,173,2699,328
Raw,128,2700,328
Raw,139,2701,328
Raw,106,2702,328
Raw,104,2703,328
Raw,104,2704,328
Raw,137,2706,328
Raw,181,2708,328
Raw,102,2708,328
Raw,108,2708,328
Raw,115,2709,328
Raw,121,2710,328
Raw,101,2711,328
Raw,88,2712,328
Raw,92,2713,328
Raw,78,2714,328
Raw,115,2715,328
Raw,136,2716,328
Raw,80,2717,328
Raw,123,2718,328
Raw,109,2719,328
Raw,107,2720,328
Raw,15,2721,328
Raw,82,2721,328
Raw,156,2722,328
Raw,105,2724,328
Raw,110,2725,328
Raw,96,2726,328
Raw,89,2727,328
Raw,92,2728,328
Raw,108,2729,328
Raw,66,2730,328
Raw,110,2731,328
Raw,196,2732,328
Raw,163,2733,328
Raw,90,2734,328
Raw,103,2735,328
Raw,116,2736,328
Raw,17,2737,328
Raw,117,2738,328
Raw,106,2739,328
Raw,121,2740,328
Raw,205,2741,328
Raw,127,2742,328
Raw,15,2743,328
Raw,95,2744,328
Raw,98,2745,328
Raw,163,2746,328
Raw,133,2747,328
Raw,110,2750,328
Raw,136,2751,328
Raw,126,2752,328
Raw,108,2753,328
Raw,165,2754,328
Raw,115,2755,328
Raw,76,2756,328
Raw,189,2757,328
Raw,121,2758,328
Raw,113,2759,328
Raw,111,2760,328
Raw,62,2761,328
Raw,92,2762,328
Raw,107,2763,328
Raw,102,2764,328
Raw,117,2765,328
Raw,130,2767,328
Raw,87,2768,328
Raw,120,2769,328
Raw,82,2770,328
Raw,98,2771,328
Raw,110,2772,328
Raw,139,2773,328
Raw,117,2774,328
Raw,127,2775,328
Raw,113,2776,328
Raw,123,2777,328
Raw,73,2778,328
Raw,102,2779,328
Raw,106,2780,328
Raw,134,2781,328
Raw,127,2782,328
Raw,97,2783,328
Raw,98,2784,328
Raw,98,2785,328
Raw,313,2787,328
Raw,112,2788,328
Raw,129,2789,328
Raw,91,2790,328
Raw,109,2791,328
Raw,15,2792,328
Raw,126,2792,328
Raw,42,2793,328
Raw,117,2793,328
Raw,179,2794,328
Raw,113,2795,328
Raw,90,2796,328
Raw,118,2797,328
Raw,62,2798,328
Raw,131,2799,328
Raw,33,2800,328
Raw,112,2801,328
Raw,139,2802,328
Raw,320,2802,328
Raw,103,2803,328
Raw,110,2804,328
Raw,123,2805,328
Raw,119,2806,328
Raw,133,2807,328
Raw,90,2808,328
Raw,101,2809,328
Raw,119,2811,328
Raw,179,2812,328
Raw,110,2813,328
Raw,116,2814,328
Raw,125,2815,328
Raw,70,2817,328
Raw,109,2818,328
Raw,88,2819,328
Raw,103,2821,328
Raw,105,2822,328
Raw,117,2823,328
Raw,218,2824,328
Raw,245,2824,328
Raw,148,2825,328
Raw,113,2826,328
Raw,243,2827,328
Raw,127,2828,328
Raw,126,2829,328
Raw,121,2830,328
Raw,119,2831,328
Raw,128,2832,328
Raw,110,2833,328
Raw,118,2834,328
Raw,92,2835,328
Raw,117,2836,328
Raw,129,2837,328
Raw,101,2838,328
Raw,121,2839,328
Raw,101,2840,328
Raw,95,2841,328
Raw,105,2842,328
Raw,98,2843,328
Raw,101,2844,328
Raw,113,2845,328
Raw,116,2846,328
Raw,61,2847,328
Raw,113,2848,328
Raw,87,2849,328
Raw,65,2850,328
Raw,112,2851,328
Raw,129,2852,328
Raw,91,2853,328
Raw,124,2854,328
Raw,107,2855,328
Raw,115,2856,328
Raw,124,2858,328
Raw,110,2859,328
Raw,121,2860,328
Raw,119,2861,328
Raw,130,2862,328
Raw,120,2863,328
Raw,127,2865,328
Raw,134,2866,328
Raw,96,2867,328
Raw,182,2868,328
Raw,120,2869,328
Raw,132,2870,328
Raw,119,2872,328
Raw,142,2873,328
Raw,118,2874,328
Raw,123,2875,328
Raw,119,2876,328
Raw,115,2878,328
Raw,122,2879,328
Raw,116,2881,328
Raw,124,2882,328
Raw,120,2883,328
Raw,89,2884,328
Raw,330,2886,328
Raw,85,2887,328
Raw,136,2888,328
Raw,142,2889,328
Raw,127,2890,328
Raw,114,2891,328
Raw,120,2893,328
Raw,125,2894,328
Raw,109,2895,328
Raw,95,2896,328
Raw,114,2897,328
Raw,128,2898,328
Raw,114,2899,328
Raw,55,2900,328
Raw,122,2901,328
Raw,120,2902,328
Raw,114,2903,328
Raw,109,2904,328
Raw,121,2905,328
Raw,111,2906,328
Raw,128,2907,328
Raw,53,2907,328
Raw,105,2908,328
Raw,115,2909,328
Raw,171,2910,328
Raw,116,2911,328
Raw,129,2912,328
Raw,116,2913,328
Raw,122,2914,328
Raw,129,2916,328
Raw,94,2917,328
Raw,104,2918,328
Raw,71,2919,328
Raw,123,2921,328
Raw,134,2922,328
Raw,67,2923,328
Raw,124,2924,328
Raw,124,2926,328
Raw,129,2927,328
Raw,87,2927,328
Raw,128,2928,328
Raw,103,2929,328
Raw,132,2930,328
Raw,109,2931,328
Raw,137,2932,328
Raw,14,2932,328
Raw,126,2933,328
Raw,120,2934,328
Raw,127,2935,328
Raw,55,2937,328
Raw,74,2938,328
Raw,118,2939,328
Raw,126,2940,328
Raw,115,2941,328
Raw,21,2941,328
Raw,99,2942,328
Raw,113,2943,328
Raw,128,2944,328
Raw,93,2945,328
Raw,122,2946,328
Raw,103,2947,328
Raw,94,2948,328
Raw,121,2949,328
Raw,108,2950,328
Raw,109,2951,328
Raw,88,2952,328
Raw,111,2953,328
Raw,77,2954,328
Raw,109,2955,328
Raw,128,2956,328
Raw,119,2957,328
Raw,53,2957,328
Raw,121,2959,328
Raw,22,2959,328
Raw,66,2960,328
Raw,144,2961,328
Raw,135,2962,328
Raw,119,2963,328
Raw,349,2964,328
Raw,273,2964,328
Raw,29,2964,328
Raw,149,2965,328
Raw,169,2966,328
Raw,57,2967,328
Raw,109,2967,328
Raw,139,2968,328
Raw,101,2969,328
Raw,104,2970,328
Raw,108,2971,328
Raw,100,2972,328
Raw,128,2973,328
Raw,66,2974,328
Raw,114,2975,328
Raw,133,2976,328
Raw,140,2977,328
Raw,105,2978,328
Raw,118,2979,328
Raw,139,2980,328
Raw,120,2981,328
Raw,108,2982,328
Raw,164,2983,328
Raw,115,2984,328
Raw,123,2986,328
Raw,131,2987,328
Raw,108,2988,328
Raw,129,2989,328
Raw,128,2990,328
Raw,100,2991,328
Raw,109,2992,328
Raw,124,2993,328
Raw,116,2994,328
Raw,91,2997,328
Raw,112,2998,328
Raw,95,2999,328
Raw,120,3000,328
Raw,106,3001,328
Raw,61,3002,328
Raw,89,3003,328
Raw,139,3004,328
Raw,139,3005,328
Raw,134,3006,328
Raw,113,3007,328
Raw,117,3008,328
Raw,118,3009,328
Raw,107,3010,328
Raw,122,3012,328
Raw,131,3013,328
Raw,139,3014,328
Raw,17,3014,328
Raw,93,3015,328
Raw,129,3016,328
Raw,144,3017,328
Raw,122,3018,328
Raw,111,3019,328
Raw,244,3020,328
Raw,120,3021,328
Raw,126,3022,328
Raw,186,3023,328
Raw,133,3024,328
Raw,128,3025,328
Raw,118,3026,328
Raw,130,3027,328
Raw,144,3028,328
Raw,117,3029,328
Raw,128,3030,328
Raw,111,3031,328
Raw,144,3032,328
Raw,114,3033,328
Raw,130,3034,328
Raw,117,3035,328
Raw,44,3035,328
Raw,123,3036,328
Raw,121,3037,328
Raw,122,3038,328
Raw,120,3039,328
Raw,116,3040,328
Raw,63,3041,328
Raw,96,3042,328
Raw,62,3042,328
Raw,127,3043,328
Raw,133,3044,328
Raw,118,3045,328
Raw,163,3046,328
Raw,107,3047,328
Raw,125,3048,328
Raw,133,3049,328
Raw,134,3050,328
Raw,132,3051,328
Raw,132,3052,328
Raw,102,3054,328
Raw,128,3055,328
Raw,133,3056,328
Raw,116,3057,328
Raw,25,3058,328
Raw,123,3058,328
Raw,135,3060,328
Raw,180,3061,328
Raw,113,3062,328
Raw,114,3063,328
Raw,141,3064,328
Raw,197,3065,328
Raw,81,3066,328
Raw,122,3067,328
Raw,72,3068,328
Raw,139,3069,328
Raw,126,3070,328
Raw,187,3071,328
Raw,65,3072,328
Raw,71,3073,328
Raw,131,3074,328
Raw,112,3075,328
Raw,99,3076,328
Raw,144,3077,328
Raw,123,3078,328
Raw,130,3079,328
Raw,73,3081,328
Raw,48,3081,328
Raw,126,3084,328
Raw,137,3085,328
Raw,118,3086,328
Raw,112,3087,328
Raw,124,3088,328
Raw,137,3089,328
Raw,105,3090,328
Raw,107,3091,328
Raw,114,3092,328
Raw,126,3093,328
Raw,152,3094,328
Raw,105,3095,328
Raw,98,3096,328
Raw,93,3097,328
Raw,100,3098,328
Raw,91,3099,328
Raw,110,3100,328
Raw,83,3102,328
Raw,98,3103,328
Raw,154,3104,328
Raw,119,3105,328
Raw,134,3106,328
Raw,73,3107,328
Raw,146,3108,328
Raw,117,3109,328
Raw,129,3110,328
Raw,114,3111,328
Raw,125,3112,328
Raw,207,3113,328
Raw,120,3113,328
Raw,111,3114,328
Raw,119,3115,328
Raw,132,3116,328
Raw,58,3117,328
Raw,101,3119,328
Raw,78,3120,328
Raw,132,3121,328
Raw,128,3122,328
Raw,73,3123,328
Raw,130,3124,328
Raw,122,3125,328
Raw,121,3126,328
Raw,116,3127,328
Raw,118,3128,328
Raw,131,3129,328
Raw,113,3130,328
Raw,86,3131,328
Raw,121,3133,328
Raw,109,3135,328
Raw,122,3136,328
Raw,104,3137,328
Raw,109,3139,328
Raw,130,3140,328
Raw,127,3141,328
Raw,151,3142,328
Raw,122,3143,328
Raw,127,3144,328
Raw,105,3145,328
Raw,103,3146,328
Raw,79,3147,328
Raw,75,3148,328
Raw,110,3149,328
Raw,119,3150,328
Raw,122,3151,328
Raw,125,3152,328
Raw,136,3153,328
Raw,111,3154,328
Raw,72,3155,328
Raw,33,3156,328
Raw,110,3157,328
Raw,124,3158,328
Raw,134,3159,328
Raw,82,3160,328
Raw,118,3161,328
Raw,132,3162,328
Raw,113,3165,328
Raw,122,3166,328
Raw,136,3167,328
Raw,131,3168,328
Raw,36,3169,328
Raw,116,3170,328
Raw,135,3171,328
Raw,246,3172,328
Raw,115,3173,328
Raw,126,3174,328
Raw,104,3175,328
Raw,93,3176,328
Raw,94,3178,328
Raw,132,3179,328
Raw,129,3180,328
Raw,113,3181,328
Raw,115,3182,328
Raw,140,3183,328
Raw,127,3184,328
Raw,169,3186,328
Raw,104,3187,328
Raw,106,3189,328
Raw,57,3190,328
Raw,110,3191,328
Raw,98,3193,328
Raw,116,3194,328
Raw,134,3195,328
Raw,119,3196,328
Raw,137,3197,328
Raw,144,3198,328
Raw,12,3199,328
Raw,90,3199,328
Raw,119,3200,328
Raw,86,3201,328
Raw,97,3202,328
Raw,66,3203,328
Raw,108,3204,328
Raw,119,3206,328
Raw,123,3207,328
Raw,182,3208,328
Raw,88,3209,328
Raw,134,3210,328
Raw,111,3211,328
Raw,122,3212,328
Raw,77,3213,328
Raw,109,3214,328
Raw,6,3214,328
Raw,130,3215,328
Raw,68,3217,328
Raw,137,3218,328
Raw,71,3219,328
Raw,108,3220,328
Raw,51,3221,328
Raw,119,3222,328
Raw,115,3223,328
Raw,86,3224,328
Raw,136,3227,328
Raw,122,3228,328
Raw,136,3229,328
Raw,94,3230,328
Raw,129,3232,328
Raw,113,3233,328
Raw,122,3234,328
Raw,109,3235,328
Raw,120,3236,328
Raw,100,3237,328
Raw,143,3238,328
Raw,157,3239,328
Raw,145,3240,328
Raw,108,3241,328
Raw,120,3242,328
Raw,112,3243,328
Raw,111,3244,328
Raw,135,3245,328
Raw,120,3246,328
Raw,121,3247,328
Raw,113,3248,328
Raw,120,3249,328
Raw,107,3250,328
Raw,115,3251,328
Raw,126,3252,328
Raw,115,3253,328
Raw,121,3254,328
Raw,125,3255,328
Raw,64,3257,328
Raw,137,3258,328
Raw,224,3258,328
Raw,93,3259,328
Raw,252,3260,328
Raw,96,3261,328
Raw,94,3262,328
Raw,116,3263,328
Raw,91,3264,328
Raw,123,3265,328
Raw,97,3267,328
Raw,86,3268,328
Raw,120,3269,328
Raw,116,3270,328
Raw,113,3271,328
Raw,90,3273,328
Raw,106,3274,328
Raw,215,3275,328
Raw,112,3276,328
Raw,170,3277,328
Raw,107,3278,328
Raw,25,3279,328
Raw,206,3280,328
Raw,146,3281,328
Raw,120,3282,328
Raw,122,3284,328
Raw,108,3285,328
Raw,121,3285,328
Raw,102,3286,328
Raw,108,3287,328
Raw,112,3288,328
Raw,197,3289,328
Raw,117,3290,328
Raw,119,3292,328
Raw,89,3293,328
Raw,124,3295,328
Raw,126,3296,328
Raw,163,3297,328
Raw,118,3298,328
Raw,94,3300,328
Raw,100,3301,328
Raw,135,3302,328
Raw,77,3303,328
Raw,124,3304,328
Raw,122,3305,328
Raw,119,3306,328
Raw,133,3308,328
Raw,119,3309,328
Raw,122,3310,328
Raw,87,3311,328
Raw,126,3312,328
Raw,137,3313,328
Raw,123,3314,328
Raw,138,3315,328
Raw,126,3316,328
Raw,126,3317,328
Raw,68,3318,328
Raw,103,3319,328
Raw,115,3320,328
Raw,154,3321,328
Raw,117,3322,328
Raw,138,3323,328
Raw,129,3324,328
Raw,166,3325,328
Raw,117,3326,328
Raw,107,3327,328
Raw,112,3328,328
Raw,96,3329,328
Raw,120,3332,328
Raw,110,3333,328
Raw,103,3334,328
Raw,165,3335,328
Raw,87,3336,328
Raw,87,3337,328
Raw,125,3338,328
Raw,18,3338,328
Raw,179,3339,328
Raw,109,3340,328
Raw,119,3341,328
Raw,134,3342,328
Raw,132,3343,328
Raw,98,3344,328
Raw,123,3345,328
Raw,114,3347,328
Raw,222,3348,328
Raw,145,3349,328
Raw,139,3350,328
Raw,62,3351,328
Raw,134,3352,328
Raw,61,3353,328
Raw,129,3354,328
Raw,85,3355,328
Raw,64,3356,328
Raw,110,3358,328
Raw,222,3359,328
Raw,149,3360,328
Raw,193,3361,328
Raw,132,3362,328
Raw,73,3363,328
Raw,101,3364,328
Raw,138,3365,328
Raw,82,3366,328
Raw,239,3366,328
Raw,130,3367,328
Raw,105,3367,328
Raw,100,3368,328
Raw,104,3369,328
Raw,94,3370,328
Raw,133,3371,328
Raw,135,3372,328
Raw,104,3373,328
Raw,123,3374,328
Raw,113,3375,328
Raw,115,3377,328
Raw,122,3378,328
Raw,228,3379,328
Raw,117,3380,328
Raw,115,3381,328
Raw,125,3382,328
Raw,122,3383,328
Raw,229,3384,328
Raw,121,3385,328
Raw,133,3386,328
Raw,45,3387,328
Raw,99,3388,328
Raw,113,3390,328
Raw,119,3391,328
Raw,120,3392,328
Raw,125,3393,328
Raw,121,3395,328
Raw,127,3397,328
Raw,104,3398,328
Raw,107,3399,328
Raw,132,3400,328
Raw,107,3401,328
Raw,49,3403,328
Raw,120,3404,328
Raw,108,3405,328
Raw,128,3406,328
Raw,55,3407,328
Raw,105,3408,328
Raw,110,3409,328
Raw,131,3410,328
Raw,120,3411,328
Raw,111,3412,328
Raw,122,3413,328
Raw,127,3414,328
Raw,125,3415,328
Raw,96,3416,328
Raw,118,3417,328
Raw,121,3418,328
Raw,86,3419,328
Raw,135,3422,328
Raw,140,3423,328
Raw,81,3424,328
Raw,77,3425,328
Raw,205,3426,328
Raw,101,3428,328
Raw,58,3429,328
Raw,125,3430,328
Raw,130,3431,328
Raw,120,3432,328
Raw,91,3433,328
Raw,125,3434,328
Raw,114,3435,328
Raw,99,3436,328
Raw,67,3437,328
Raw,92,3438,328
Raw,110,3439,328
Raw,98,3440,328
Raw,59,3441,328
Raw,122,3442,328
Raw,74,3443,328
Raw,112,3444,328
Raw,110,3445,328
Raw,105,3446,328
Raw,122,3447,328
Raw,122,3448,328
Raw,112,3449,328
Raw,131,3450,328
Raw,134,3451,328
Raw,149,3452,328
Raw,130,3453,328
Raw,136,3454,328
Raw,97,3455,328
Raw,96,3456,328
Raw,5,3456,328
Raw,179,3457,328
Raw,132,3458,328
Raw,135,3459,328
Raw,99,3461,328
Raw,116,3462,328
Raw,223,3463,328
Raw,119,3464,328
Raw,114,3465,328
Raw,73,3466,328
Raw,307,3467,328
Raw,142,3469,328
Raw,78,3470,328
Raw,107,3471,328
Raw,94,3472,328
Raw,83,3473,328
Raw,236,3474,328
Raw,59,3475,328
Raw,130,3476,328
Raw,81,3477,328
Raw,118,3478,328
Raw,165,3479,328
Raw,154,3480,328
Raw,116,3481,328
Raw,85,3482,328
Raw,118,3485,328
Raw,130,3486,328
Raw,104,3487,328
Raw,67,3488,328
Raw,128,3490,328
Raw,97,3491,328
Raw,89,3492,328
Raw,113,3493,328
Raw,122,3494,328
Raw,117,3495,328
Raw,142,3496,328
Raw,118,3497,328
Raw,35,3497,328
Raw,137,3498,328
Raw,120,3500,328
Raw,104,3501,328
Raw,123,3502,328
Raw,117,3503,328
Raw,133,3504,328
Raw,97,3506,328
Raw,95,3507,328
Raw,99,3508,328
Raw,123,3509,328
Raw,111,3510,328
Raw,231,3511,328
Raw,112,3512,328
Raw,127,3513,328
Raw,107,3514,328
Raw,142,3515,328
Raw,156,3516,328
Raw,138,3518,328
Raw,122,3519,328
Raw,167,3520,328
Raw,96,3521,328
Raw,132,3522,328
Raw,114,3523,328
Raw,130,3524,328
Raw,139,3525,328
Raw,215,3526,328
Raw,112,3527,328
Raw,85,3528,328
Raw,105,3529,328
Raw,123,3530,328
Raw,143,3531,328
Raw,110,3532,328
Raw,107,3533,328
Raw,107,3534,328
Raw,112,3535,328
Raw,91,3536,328
Raw,119,3537,328
Raw,144,3539,328
Raw,79,3540,328
Raw,115,3541,328
Raw,128,3542,328
Raw,61,3543,328
Raw,92,3544,328
Raw,215,3545,328
Raw,344,3546,328
Raw,114,3547,328
Raw,95,3549,328
Raw,119,3550,328
Raw,81,3551,328
Raw,185,3552,328
Raw,56,3553,328
Raw,119,3555,328
Raw,116,3556,328
Raw,103,3557,328
Raw,128,3558,328
Raw,120,3559,328
Raw,135,3560,328
Raw,99,3562,328
Raw,119,3563,328
Raw,106,3564,328
Raw,115,3565,328
Raw,123,3566,328
Raw,122,3567,328
Raw,68,3568,328
Raw,43,3568,328
Raw,127,3569,328
Raw,132,3570,328
Raw,8,3570,328
Raw,126,3571,328
Raw,105,3572,328
Raw,120,3573,328
Raw,128,3574,328
Raw,145,3575,328
Raw,111,3576,328
Raw,172,3577,328
Raw,111,3578,328
Raw,119,3579,328
Raw,118,3580,328
Raw,84,3581,328
Raw,99,3582,328
Raw,115,3583,328
Raw,137,3584,328
Raw,104,3585,328
Raw,105,3586,328
Raw,99,3587,328
Raw,132,3588,328
Raw,104,3589,328
Raw,122,3590,328
Raw,130,3591,328
Raw,107,3593,328
Raw,123,3594,328
Raw,91,3595,328
Raw,110,3596,328
Raw,167,3597,328
Raw,112,3598,328
Raw,120,3599,328
Raw,116,3600,328
Raw,113,3601,328
Raw,123,3602,328
Raw,113,3603,328
Raw,129,3604,328
Raw,102,3605,328
Raw,108,3606,328
Raw,85,3607,328
Raw,108,3608,328
Raw,70,3609,328
Raw,108,3610,328
Raw,113,3611,328
Raw,119,3612,328
Raw,130,3613,328
Raw,109,3614,328
Raw,117,3615,328
Raw,62,3616,328
Raw,113,3617,328
Raw,105,3618,328
Raw,128,3619,328
Raw,116,3620,328
Raw,120,3621,328
Raw,107,3622,328
Raw,125,3624,328
Raw,109,3625,328
Raw,110,3626,328
Raw,122,3627,328
Raw,177,3628,328
Raw,108,3629,328
Raw,122,3630,328
Raw,108,3631,328
Raw,58,3632,328
Raw,126,3633,328
Raw,116,3634,328
Raw,157,3635,328
Raw,131,3636,328
Raw,121,3637,328
Raw,127,3638,328
Raw,68,3639,328
Raw,118,3640,328
Raw,141,3641,328
Raw,239,3642,328
Raw,135,3643,328
Raw,132,3644,328
Raw,25,3644,328
Raw,63,3645,328
Raw,59,3646,328
Raw,85,3647,328
Raw,127,3649,328
Raw,126,3650,328
Raw,115,3651,328
Raw,119,3652,328
Raw,102,3653,328
Raw,105,3656,328
Raw,112,3657,328
Raw,112,3658,328
Raw,112,3659,328
Raw,116,3660,328
Raw,135,3662,328
Raw,119,3663,328
Raw,111,3664,328
Raw,114,3665,328
Raw,124,3666,328
Raw,124,3667,328
Raw,117,3668,328
Raw,7,3668,328
Raw,102,3669,328
Raw,89,3670,328
Raw,110,3671,328
Raw,120,3672,328
Raw,66,3673,328
Raw,117,3674,328
Raw,67,3675,328
Raw,117,3676,328
Raw,126,3677,328
Raw,39,3678,328
Raw,125,3679,328
Raw,101,3680,328
Raw,123,3681,328
Raw,252,3683,328
Raw,145,3683,328
Raw,128,3684,328
Raw,115,3685,328
Raw,139,3686,328
Raw,187,3687,328
Raw,112,3688,328
Raw,131,3689,328
Raw,121,3690,328
Raw,128,3691,328
Raw,122,3693,328
Raw,118,3694,328
Raw,120,3695,328
Raw,171,3696,328
Raw,89,3697,328
Raw,87,3698,328
Raw,5,3699,328
Raw,94,3700,328
Raw,107,3701,328
Raw,114,3702,328
Raw,116,3703,328
Raw,120,3704,328
Raw,114,3705,328
Raw,121,3706,328
Raw,113,3707,328
Raw,69,3708,328
Raw,124,3709,328
Raw,129,3710,328
Raw,110,3711,328
Raw,93,3712,328
Raw,68,3713,328
Raw,133,3714,328
Raw,144,3715,328
Raw,109,3716,328
Raw,114,3717,328
Raw,119,3718,328
Raw,126,3719,328
Raw,66,3720,328
Raw,61,3721,328
Raw,205,3721,328
Raw,111,3722,328
Raw,131,3723,328
Raw,115,3725,328
Raw,81,3726,328
Raw,106,3727,328
Raw,9,3727,328
Raw,112,3728,328
Raw,110,3729,328
Raw,126,3730,328
Raw,131,3731,328
Raw,121,3732,328
Raw,114,3733,328
Raw,130,3734,328
Raw,115,3735,328
Raw,90,3736,328
Raw,78,3737,328
Raw,92,3738,328
Raw,104,3739,328
Raw,46,3739,328
Raw,101,3740,328
Raw,117,3741,328
Raw,101,3742,328
Raw,122,3743,328
Raw,89,3744,328
Raw,115,3745,328
Raw,105,3746,328
Raw,117,3747,328
Raw,12,3747,328
Raw,104,3748,328
Raw,84,3749,328
Raw,116,3751,328
Raw,130,3753,328
Raw,100,3754,328
Raw,82,3755,328
Raw,94,3756,328
Raw,60,3757,328
Raw,106,3758,328
Raw,68,3759,328
Raw,73,3760,328
Raw,99,3761,328
Raw,105,3762,328
Raw,135,3763,328
Raw,117,3764,328
Raw,102,3765,328
Raw,113,3766,328
Raw,143,3767,328
Raw,32,3767,328
Raw,128,3768,328
Raw,135,3769,328
Raw,105,3770,328
Raw,97,3771,328
Raw,119,3772,328
Raw,126,3773,328
Raw,89,3774,328
Raw,98,3775,328
Raw,130,3776,328
Raw,116,3777,328
Raw,142,3778,328
Raw,68,3779,328
Raw,114,3781,328
Raw,132,3782,328
Raw,111,3783,328
Raw,106,3784,328
Raw,9,3784,328
Raw,116,3785,328
Raw,82,3786,328
Raw,84,3788,328
Raw,102,3789,328
Raw,118,3790,328
Raw,72,3791,328
Raw,94,3792,328
Raw,108,3793,328
Raw,121,3794,328
Raw,114,3795,328
Raw,79,3796,328
Raw,129,3797,328
Raw,126,3798,328
Raw,105,3799,328
Raw,130,3800,328
Raw,29,3801,328
Raw,114,3801,328
Raw,142,3802,328
Raw,115,3803,328
Raw,194,3804,328
Raw,127,3805,328
Raw,65,3806,328
Raw,96,3807,328
Raw,103,3808,328
Raw,130,3809,328
Raw,116,3810,328
Raw,87,3811,328
Raw,118,3812,328
Raw,92,3813,328
Raw,123,3814,328
Raw,106,3815,328
Raw,117,3816,328
Raw,79,3817,328
Raw,172,3818,328
Raw,59,3819,328
Raw,101,3820,328
Raw,101,3821,328
Raw,127,3822,328
Raw,122,3823,328
Raw,96,3824,328
Raw,113,3825,328
Raw,143,3826,328
Raw,113,3827,328
Raw,69,3828,328
Raw,109,3829,328
Raw,20,3829,328
Raw,136,3830,328
Raw,135,3831,328
Raw,125,3832,328
Raw,100,3833,328
Raw,115,3834,328
Raw,108,3835,328
Raw,119,3836,328
Raw,110,3837,328
Raw,116,3838,328
Raw,245,3838,328
Raw,106,3840,328
Raw,97,3841,328
Raw,107,3842,328
Raw,115,3843,328
Raw,109,3844,328
Raw,96,3845,328
Raw,123,3846,328
Raw,106,3847,328
Raw,131,3848,328
Raw,129,3849,328
Raw,101,3850,328
Raw,110,3851,328
Raw,125,3852,328
Raw,74,3853,328
Raw,109,3854,328
Raw,119,3855,328
Raw,112,3856,328
Raw,116,3858,328
Raw,119,3859,328
Raw,100,3860,328
Raw,107,3861,328
Raw,116,3863,328
Raw,157,3864,328
Raw,89,3864,328
Raw,128,3865,328
Raw,211,3866,328
Raw,122,3867,328
Raw,63,3868,328
Raw,80,3869,328
Raw,121,3870,328
Raw,217,3871,328
Raw,123,3872,328
Raw,120,3873,328
Raw,111,3874,328
Raw,112,3875,328
Raw,119,3876,328
Raw,14,3876,328
Raw,125,3877,328
Raw,73,3878,328
Raw,119,3879,328
Raw,227,3880,328
Raw,56,3881,328
Raw,101,3882,328
Raw,131,3883,328
Raw,124,3884,328
Raw,183,3885,328
Raw,196,3887,328
Raw,25,3888,328
Raw,120,3888,328
Raw,78,3889,328
Raw,104,3890,328
Raw,103,3891,328
Raw,125,3892,328
Raw,129,3893,328
Raw,111,3894,328
Raw,82,3895,328
Raw,53,3895,328
Raw,81,3896,328
Raw,41,3897,328
Raw,86,3898,328
Raw,105,3899,328
Raw,114,3900,328
Raw,124,3901,328
Raw,29,3902,328
Raw,87,3903,328
Raw,89,3905,328
Raw,113,3906,328
Raw,117,3907,328
Raw,61,3907,328
Raw,126,3909,328
Raw,335,3910,328
Raw,122,3911,328
Raw,215,3912,328
Raw,119,3913,328
Raw,83,3914,328
Raw,118,3915,328
Raw,78,3916,328
Raw,112,3917,328
Raw,97,3919,328
Raw,83,3920,328
Raw,186,3921,328
Raw,105,3922,328
Raw,116,3924,328
Raw,91,3925,328
Raw,86,3926,328
Raw,111,3927,328
Raw,121,3928,328
Raw,113,3929,328
Raw,114,3931,328
Raw,105,3932,328
Raw,103,3933,328
Raw,103,3934,328
Raw,119,3935,328
Raw,109,3936,328
Raw,133,3937,328
Raw,107,3938,328
Raw,9,3939,328
Raw,89,3939,328
Raw,123,3940,328
Raw,100,3941,328
Raw,112,3942,328
Raw,109,3943,328
Raw,107,3944,328
Raw,121,3945,328
Raw,101,3948,328
Raw,116,3949,328
Raw,115,3950,328
Raw,127,3951,328
Raw,103,3952,328
Raw,105,3953,328
Raw,113,3954,328
Raw,136,3955,328
Raw,96,3956,328
Raw,140,3957,328
Raw,31,3957,328
Raw,124,3958,328
Raw,112,3959,328
Raw,116,3960,328
Raw,116,3961,328
Raw,115,3962,328
Raw,106,3963,328
Raw,81,3964,328
Raw,111,3965,328
Raw,92,3966,328
Raw,96,3967,328
Raw,114,3968,328
Raw,115,3969,328
Raw,98,3970,328
Raw,126,3971,328
Raw,84,3972,328
Raw,144,3973,328
Raw,124,3974,328
Raw,102,3975,328
Raw,204,3976,328
Raw,91,3977,328
Raw,54,3978,328
Raw,124,3978,328
Raw,128,3979,328
Raw,130,3980,328
Raw,41,3980,328
Raw,119,3981,328
Raw,99,3982,328
Raw,119,3983,328
