Cut?,Counts,eventNumber,runNumber
Raw,8.51071855e+05,5,329
Raw,3.24497656e+05,13,329
Raw,6.84791399e+05,23,329
Raw,2.28240548e+05,25,329
Raw,6.54675324e+05,54,329
Raw,3.01764399e+05,59,329
Raw,3.3224414e+05,67,329
Raw,3.09058773e+05,75,329
Raw,40922.279,75,329
Raw,3.23074997e+05,88,329
Raw,5.37135908e+05,93,329
Raw,3.42918781e+05,94,329
Raw,2.5714483e+05,94,329
Raw,9.0154298e+05,101,329
Raw,13495.391,109,329
Raw,2.569526e+05,109,329
Raw,7.33196157e+05,111,329
Raw,1.31068171e+05,111,329
Raw,3.45246519e+05,113,329
Raw,2.58020251e+05,113,329
Raw,3.05984915e+05,124,329
Raw,1.8647461e+05,124,329
Raw,4.1946123e+05,125,329
Raw,2.98690156e+05,135,329
Raw,99644.383,135,329
Raw,99343.626,138,329
Raw,40645.788,138,329
Raw,4.84419328e+05,140,329
Raw,3.01659937e+05,141,329
Raw,5.61470803e+05,149,329
Raw,2.65017795e+05,149,329
Raw,2.6712221e+05,149,329
Raw,2.95497105e+05,157,329
Raw,3.42236362e+05,164,329
Raw,5.60647656e+05,164,329
Raw,71158.325,164,329
Raw,5.71598832e+05,166,329
Raw,2.19024009e+05,166,329
Raw,1.11654476e+05,166,329
Raw,3.20839246e+05,168,329
Raw,2.87063609e+05,168,329
Raw,2.85362119e+05,174,329
Raw,7.49488805e+05,175,329
Raw,2.75163222e+05,177,329
Raw,8.86931265e+05,179,329
Raw,2.43593711e+05,182,329
Raw,5.19198216e+05,183,329
Raw,2.45651784e+05,187,329
Raw,2.96453018e+05,206,329
Raw,5.2586835e+05,208,329
Raw,2.83720429e+05,208,329
Raw,3.28205249e+05,211,329
Raw,3.22392617e+05,213,329
Raw,7.19775168e+05,220,329
Raw,3.44802195e+05,224,329
Raw,5.49828668e+05,225,329
Raw,1.73691417e+05,225,329
Raw,3.2029867e+05,229,329
Raw,7.29978794e+05,229,329
Raw,2.72397553e+05,233,329
Raw,3.03810619e+05,239,329
Raw,2.80413751e+05,239,329
Raw,2.71614756e+05,240,329
Raw,1.10083823e+05,241,329
Raw,1.75450963e+05,241,329
Raw,3.41185794e+05,243,329
Raw,3.16994736e+05,251,329
Raw,1.28864277e+05,251,329
Raw,3.20019447e+05,256,329
Raw,1.50556077e+05,259,329
Raw,6.24893609e+05,269,329
Raw,3.13077291e+05,270,329
Raw,5.66089772e+05,279,329
Raw,6.4271793e+05,290,329
Raw,6.1416921e+05,291,329
Raw,2.99714451e+05,298,329
Raw,6.01914781e+05,309,329
Raw,5.23952724e+05,310,329
Raw,7.25238742e+05,314,329
Raw,3.2215519e+05,315,329
Raw,1.82831101e+05,315,329
Raw,3.60798974e+05,317,329
Raw,61609.377,321,329
Raw,5.31310438e+05,322,329
Raw,3.65759589e+05,332,329
Raw,2.23644517e+05,332,329
Raw,3.84883245e+05,339,329
Raw,2.1308438e+05,342,329
Raw,5.22786449e+05,346,329
Raw,5.87818699e+05,352,329
Raw,2.50516459e+05,356,329
Raw,2.14280879e+05,362,329
Raw,1.33057812e+05,362,329
Raw,6.69730937e+05,364,329
Raw,7.21103043e+05,370,329
Raw,2.17385579e+05,375,329
Raw,2.63524443e+05,376,329
Raw,2.33866851e+05,378,329
Raw,6.19080549e+05,386,329
Raw,3.78440418e+05,394,329
Raw,3.78154141e+05,409,329
Raw,3.49855772e+05,415,329
Raw,6.10445194e+05,425,329
Raw,2.86996668e+05,434,329
Raw,1.10113613e+05,440,329
Raw,1.76007099e+05,442,329
Raw,3.83605494e+05,442,329
Raw,3.32269823e+05,443,329
Raw,2.95848119e+05,469,329
Raw,1.7928069e+05,469,329
Raw,5.1804438e+05,469,329
Raw,3.27441347e+05,484,329
Raw,8.98953952e+05,486,329
Raw,3.75235751e+05,487,329
Raw,3.28193873e+05,489,329
Raw,3.76610635e+05,490,329
Raw,7.99328673e+05,491,329
Raw,3.69067045e+05,494,329
Raw,3.15158336e+05,494,329
Raw,6.5411634e+05,499,329
Raw,5.70914276e+05,502,329
Raw,2.57917496e+05,502,329
Raw,3.79820398e+05,520,329
Raw,2.30605535e+05,524,329
Raw,3.2135563e+05,538,329
Raw,3.41900423e+05,539,329
Raw,3.38165984e+05,558,329
Raw,25513.771,558,329
Raw,3.64571488e+05,561,329
Raw,5.97111769e+05,562,329
Raw,1.02654017e+05,562,329
Raw,5.46597205e+05,563,329
Raw,4.20404421e+05,569,329
Raw,3.15689694e+05,578,329
Raw,2.78718749e+05,579,329
Raw,2.3456834e+05,585,329
Raw,3.79093351e+05,589,329
Raw,3.99831082e+05,591,329
Raw,1.96018889e+05,599,329
Raw,3.28782219e+05,600,329
Raw,3.55206113e+05,600,329
Raw,7.2433034e+05,613,329
Raw,3.15076884e+05,619,329
Raw,4.20472321e+05,620,329
Raw,37801.685,643,329
Raw,3.26567811e+05,650,329
Raw,2.77831335e+05,650,329
Raw,2.13753093e+05,650,329
Raw,2.83894235e+05,655,329
Raw,3.17787432e+05,656,329
Raw,88473.037,657,329
Raw,3.47387264e+05,659,329
Raw,3.65438545e+05,659,329
Raw,3.7668906e+05,669,329
Raw,7.32722243e+05,670,329
Raw,2.96226905e+05,681,329
Raw,3.5019071e+05,682,329
Raw,3.67001385e+05,687,329
Raw,2.54521256e+05,688,329
Raw,7.08557479e+05,689,329
Raw,1.67661334e+05,692,329
Raw,2.85613978e+05,693,329
Raw,2.9162588e+05,694,329
Raw,6.71240976e+05,705,329
Raw,6.7663982e+05,711,329
Raw,97966.753,713,329
Raw,3.06200233e+05,715,329
Raw,2.93554985e+05,727,329
Raw,3.85963705e+05,734,329
Raw,31605.922,734,329
Raw,5.16633339e+05,737,329
Raw,1.11289201e+05,739,329
Raw,27267.454,741,329
Raw,2.34621594e+05,741,329
Raw,3.22487724e+05,767,329
Raw,4.90091011e+05,775,329
Raw,2.7926879e+05,778,329
Raw,3.02464015e+05,781,329
Raw,2.51938004e+05,790,329
Raw,3.76419096e+05,790,329
Raw,4.10039462e+05,791,329
Raw,72933.798,795,329
Raw,3.38305873e+05,804,329
Raw,6.42663114e+05,808,329
Raw,3.46633009e+05,811,329
Raw,3.27919007e+05,812,329
Raw,3.13925988e+05,843,329
Raw,3.62208912e+05,850,329
Raw,6.88989688e+05,854,329
Raw,1.97942059e+05,863,329
Raw,6.87095621e+05,866,329
Raw,1.45618404e+05,866,329
Raw,2.82265871e+05,869,329
Raw,5.27114125e+05,891,329
Raw,3.8688875e+05,891,329
Raw,4.40073605e+05,896,329
Raw,5.264787e+05,896,329
Raw,2.56933082e+05,896,329
Raw,4.0042496e+05,921,329
Raw,3.2003975e+05,924,329
Raw,3.6316423e+05,926,329
Raw,6.0480711e+05,931,329
Raw,6.02025244e+05,939,329
Raw,2.57273981e+05,942,329
Raw,2.68289799e+05,949,329
Raw,4.19831343e+05,949,329
Raw,1.27516074e+05,950,329
Raw,44950.299,963,329
Raw,3.54547013e+05,963,329
Raw,3.16397564e+05,965,329
Raw,3.0644189e+05,974,329
Raw,4.26014592e+05,974,329
Raw,2.65277946e+05,987,329
Raw,1.02375418e+05,987,329
Raw,3.19499507e+05,988,329
Raw,1.31752189e+05,994,329
Raw,3.15279423e+05,994,329
Raw,2.65512042e+05,997,329
Raw,3.17094295e+05,1006,329
Raw,4.13232307e+05,1015,329
Raw,2.26241746e+05,1017,329
Raw,5.95960459e+05,1018,329
Raw,2.61454151e+05,1018,329
Raw,3.35387696e+05,1025,329
Raw,6.31223251e+05,1029,329
Raw,3.13546732e+05,1029,329
Raw,4.34734094e+05,1031,329
Raw,1.31207043e+05,1032,329
Raw,3.16142186e+05,1033,329
Raw,3.58390843e+05,1033,329
Raw,3.15348779e+05,1034,329
Raw,3.36817425e+05,1035,329
Raw,2.66253224e+05,1035,329
Raw,1.31478214e+05,1041,329
Raw,24178.127,1049,329
Raw,3.04210812e+05,1061,329
Raw,73516.298,1062,329
Raw,33110.089,1062,329
Raw,3.56122e+05,1066,329
Raw,2.87722988e+05,1067,329
Raw,3.37387296e+05,1071,329
Raw,1.40073177e+05,1071,329
Raw,2.37714907e+05,1074,329
Raw,3.5008764e+05,1083,329
Raw,5.23351022e+05,1087,329
Raw,2.73454238e+05,1092,329
Raw,23339.337,1092,329
Raw,2.4393146e+05,1098,329
Raw,3.20630789e+05,1100,329
Raw,5.33559788e+05,1104,329
Raw,4.32374262e+05,1127,329
Raw,2.5798546e+05,1133,329
Raw,5.44886119e+05,1149,329
Raw,5.15832455e+05,1150,329
Raw,3.08382529e+05,1160,329
Raw,3.17388769e+05,1163,329
Raw,2.95570848e+05,1163,329
Raw,4.6391879e+05,1168,329
Raw,4.73654732e+05,1173,329
Raw,85848.732,1178,329
Raw,39857.904,1178,329
Raw,5.47919261e+05,1179,329
Raw,5.94704467e+05,1180,329
Raw,1.99828482e+05,1180,329
Raw,7.08977818e+05,1183,329
Raw,3.96088316e+05,1184,329
Raw,2.92325942e+05,1189,329
Raw,3.28792094e+05,1189,329
Raw,3.41407318e+05,1193,329
Raw,5.66057794e+05,1195,329
Raw,3.6949248e+05,1198,329
Raw,2.9764901e+05,1215,329
Raw,2.61493617e+05,1215,329
Raw,3.90371018e+05,1218,329
Raw,3.03293613e+05,1226,329
Raw,5.69861269e+05,1227,329
Raw,2.71600947e+05,1228,329
Raw,2.7159003e+05,1230,329
Raw,4.6031783e+05,1233,329
Raw,3.30562026e+05,1238,329
Raw,3.41050323e+05,1245,329
Raw,1.71829548e+05,1245,329
Raw,3.00148211e+05,1252,329
Raw,3.11699115e+05,1257,329
Raw,2.85607248e+05,1260,329
Raw,3.20762491e+05,1262,329
Raw,28849.253,1266,329
Raw,2.82648418e+05,1287,329
Raw,8495.4223,1287,329
Raw,3.00137179e+05,1296,329
Raw,2.9573573e+05,1298,329
Raw,3.10811595e+05,1300,329
Raw,3.32463842e+05,1301,329
Raw,3.0793133e+05,1303,329
Raw,3.080752e+05,1309,329
Raw,3.35085147e+05,1314,329
Raw,2.73168654e+05,1315,329
Raw,2.08281905e+05,1325,329
Raw,1.51910511e+05,1325,329
Raw,1.78359863e+05,1332,329
Raw,3.5837165e+05,1332,329
Raw,3.0280525e+05,1357,329
Raw,2.75645571e+05,1368,329
Raw,5.52458746e+05,1371,329
Raw,3.79582991e+05,1373,329
Raw,8.48751985e+05,1375,329
Raw,5.68602185e+05,1378,329
Raw,2.75270202e+05,1378,329
Raw,3.64986853e+05,1386,329
Raw,3.54013544e+05,1386,329
Raw,3.16065605e+05,1396,329
Raw,2.75064306e+05,1399,329
Raw,3.32042215e+05,1399,329
Raw,50324.55,1400,329
Raw,2.82034404e+05,1406,329
Raw,5.18853809e+05,1408,329
Raw,3.58514589e+05,1408,329
Raw,4.50222655e+05,1414,329
Raw,4.21459401e+05,1416,329
Raw,7.63884725e+05,1418,329
Raw,2.04428819e+05,1419,329
Raw,3.24047641e+05,1438,329
Raw,1.65330998e+05,1438,329
Raw,2.71544717e+05,1442,329
Raw,3.24738482e+05,1448,329
Raw,2.12065425e+05,1454,329
Raw,3.42767505e+05,1457,329
Raw,3.46908342e+05,1457,329
Raw,6.61878018e+05,1464,329
Raw,3.37373401e+05,1467,329
Raw,3.08905098e+05,1467,329
Raw,1.45802346e+05,1474,329
Raw,6.70182791e+05,1478,329
Raw,6.4319543e+05,1482,329
Raw,3.09357986e+05,1486,329
Raw,6.95206882e+05,1489,329
Raw,1.65725729e+05,1489,329
Raw,1.01588588e+05,1489,329
Raw,2.96099817e+05,1493,329
Raw,1.94444411e+05,1493,329
Raw,6.49339012e+05,1502,329
Raw,3.33600945e+05,1505,329
Raw,3.56627557e+05,1518,329
Raw,2.89893829e+05,1521,329
Raw,5.97904024e+05,1524,329
Raw,3.50708301e+05,1529,329
Raw,7.68359754e+05,1537,329
Raw,2.80415045e+05,1537,329
Raw,5.95327177e+05,1540,329
Raw,2.22437547e+05,1540,329
Raw,2.70256051e+05,1553,329
Raw,2.72553812e+05,1555,329
Raw,3.2012814e+05,1556,329
Raw,6.21946071e+05,1556,329
Raw,2.38702825e+05,1566,329
Raw,6.74573151e+05,1568,329
Raw,2.60177537e+05,1577,329
Raw,3.27791444e+05,1582,329
Raw,2.98724649e+05,1583,329
Raw,2.44777134e+05,1585,329
Raw,47717.394,1585,329
Raw,2.98950127e+05,1589,329
Raw,2.45626756e+05,1590,329
Raw,3.54683857e+05,1591,329
Raw,8.8138545e+05,1593,329
Raw,6.20780468e+05,1599,329
Raw,3.17360166e+05,1602,329
Raw,3.26436866e+05,1607,329
Raw,1.23436774e+05,1609,329
Raw,2.5513983e+05,1612,329
Raw,3.19903915e+05,1623,329
Raw,2.90209191e+05,1623,329
Raw,3.57401783e+05,1628,329
Raw,4.7765651e+05,1634,329
Raw,81348.701,1637,329
Raw,3.57850899e+05,1639,329
Raw,3.16040567e+05,1639,329
Raw,2.29045406e+05,1650,329
Raw,2.95536248e+05,1650,329
Raw,2.71566204e+05,1651,329
Raw,4.65918635e+05,1661,329
Raw,2.25286344e+05,1664,329
Raw,2.28489256e+05,1664,329
Raw,6.62424967e+05,1665,329
Raw,6.42861663e+05,1667,329
Raw,3.41639847e+05,1673,329
Raw,2.15470642e+05,1675,329
Raw,3.00048122e+05,1682,329
Raw,3.12547697e+05,1683,329
Raw,2.28685765e+05,1691,329
Raw,6.99618261e+05,1694,329
Raw,8.96669193e+05,1705,329
Raw,2.99985322e+05,1706,329
Raw,3.28816983e+05,1707,329
Raw,3.11334904e+05,1708,329
Raw,3.55578047e+05,1714,329
Raw,3.4350758e+05,1717,329
Raw,2.81880717e+05,1717,329
Raw,3.13193536e+05,1727,329
Raw,2.86319508e+05,1733,329
Raw,3.92267384e+05,1742,329
Raw,5.17578281e+05,1743,329
Raw,4.01003356e+05,1750,329
Raw,5.3431981e+05,1761,329
Raw,1.31665127e+05,1767,329
Raw,3.22611665e+05,1767,329
Raw,2.74887416e+05,1779,329
Raw,2.99239375e+05,1779,329
Raw,3.6819341e+05,1790,329
Raw,1.70564614e+05,1797,329
Raw,3.07679664e+05,1798,329
Raw,3.35638359e+05,1800,329
Raw,1.6060035e+05,1807,329
Raw,1.61651345e+05,1825,329
Raw,3.51467121e+05,1850,329
Raw,1.4529862e+05,1853,329
Raw,1.58618115e+05,1859,329
Raw,6.44146635e+05,1860,329
Raw,2.72007922e+05,1864,329
Raw,2.87975491e+05,1866,329
Raw,2.90709289e+05,1866,329
Raw,83937.122,1869,329
Raw,3.38931581e+05,1872,329
Raw,2.81217994e+05,1875,329
Raw,3.13214411e+05,1884,329
Raw,2.77865857e+05,1884,329
Raw,5.76636058e+05,1887,329
Raw,3.70719117e+05,1890,329
Raw,3.63140785e+05,1904,329
Raw,2.525166e+05,1908,329
Raw,2.64083201e+05,1909,329
Raw,3.03648198e+05,1910,329
Raw,21699.569,1916,329
Raw,3.08556134e+05,1917,329
Raw,6.24529447e+05,1925,329
Raw,2.49026058e+05,1925,329
Raw,6.41396236e+05,1926,329
Raw,5.51034474e+05,1928,329
Raw,4.41452908e+05,1934,329
Raw,2.19253229e+05,1934,329
Raw,4.00672275e+05,1938,329
Raw,6.55439608e+05,1938,329
Raw,2.65538248e+05,1955,329
Raw,3.23891431e+05,1956,329
Raw,1.16189602e+05,1957,329
Raw,3.29722291e+05,1961,329
Raw,4.54164875e+05,1968,329
Raw,3.65496099e+05,1970,329
Raw,2.67224322e+05,1970,329
Raw,3.31137281e+05,1970,329
Raw,3.95743473e+05,1987,329
Raw,3.07209897e+05,1987,329
Raw,3.60026246e+05,1990,329
Raw,6.63557512e+05,2000,329
Raw,3.31057803e+05,2015,329
Raw,6.58057238e+05,2018,329
Raw,3.38472117e+05,2022,329
Raw,2.16620828e+05,2034,329
Raw,3.12742842e+05,2034,329
Raw,3.66026157e+05,2039,329
Raw,3.33659872e+05,2044,329
Raw,2.89167311e+05,2048,329
Raw,3.03437274e+05,2054,329
Raw,3.08259845e+05,2055,329
Raw,2.69383924e+05,2065,329
Raw,6.08872382e+05,2068,329
Raw,1.60422682e+05,2069,329
Raw,5.37159101e+05,2076,329
Raw,4.14172757e+05,2082,329
Raw,2.97734012e+05,2086,329
Raw,2.60127971e+05,2086,329
Raw,2.63189862e+05,2094,329
Raw,7.08954299e+05,2099,329
Raw,3.21843568e+05,2103,329
Raw,4.16214425e+05,2112,329
Raw,2.8608441e+05,2113,329
Raw,3.39597757e+05,2114,329
Raw,2.3333584e+05,2114,329
Raw,3.51561742e+05,2119,329
Raw,2.63771846e+05,2120,329
Raw,1.53582779e+05,2122,329
Raw,2.43189131e+05,2122,329
Raw,8.97150987e+05,2128,329
Raw,2.9462284e+05,2135,329
Raw,3.11222366e+05,2135,329
Raw,7.71597378e+05,2136,329
Raw,1.29125805e+05,2136,329
Raw,1.45567855e+05,2142,329
Raw,1.84518703e+05,2143,329
Raw,7.07493796e+05,2149,329
Raw,76229.484,2157,329
Raw,8.18057428e+05,2165,329
Raw,3.41028491e+05,2174,329
Raw,2.48036222e+05,2174,329
Raw,3.99302793e+05,2177,329
Raw,1.00272231e+05,2178,329
Raw,5.752796e+05,2179,329
Raw,6.01126078e+05,2186,329
Raw,4.14891116e+05,2187,329
Raw,3.60814777e+05,2190,329
Raw,7.08929239e+05,2191,329
Raw,3.18631727e+05,2194,329
Raw,3.8002918e+05,2204,329
Raw,3.32762308e+05,2209,329
Raw,7.54762923e+05,2229,329
Raw,3.01730364e+05,2238,329
Raw,2.86877471e+05,2245,329
Raw,3.0005636e+05,2245,329
Raw,26742.127,2252,329
Raw,3.46486494e+05,2252,329
Raw,7.55326265e+05,2259,329
Raw,2.81480018e+05,2259,329
Raw,2.77449916e+05,2263,329
Raw,5.11663962e+05,2270,329
Raw,6.27068114e+05,2271,329
Raw,6.66231165e+05,2275,329
Raw,2.85344863e+05,2275,329
Raw,3.21975743e+05,2280,329
Raw,4.94775968e+05,2281,329
Raw,6.54211156e+05,2284,329
Raw,3.08295685e+05,2288,329
Raw,3.02833195e+05,2288,329
Raw,6.17897065e+05,2292,329
Raw,3.1728006e+05,2292,329
Raw,6.5275387e+05,2310,329
Raw,63591.477,2313,329
Raw,8.2541584e+05,2315,329
Raw,4.57588748e+05,2316,329
Raw,2.38195806e+05,2320,329
Raw,7.66667357e+05,2323,329
Raw,3.09366132e+05,2323,329
Raw,6.89527286e+05,2326,329
Raw,2.0009043e+05,2333,329
Raw,6.54612718e+05,2334,329
Raw,3.15304632e+05,2338,329
Raw,13922.406,2338,329
Raw,2.90719042e+05,2349,329
Raw,3.86304047e+05,2358,329
Raw,5.89506952e+05,2361,329
Raw,3.55618062e+05,2363,329
Raw,5.48577434e+05,2365,329
Raw,3.83686636e+05,2366,329
Raw,7.60241147e+05,2369,329
Raw,7.18307944e+05,2370,329
Raw,2.5118941e+05,2382,329
Raw,4.50006553e+05,2389,329
Raw,3.56066155e+05,2390,329
Raw,3.19854863e+05,2391,329
Raw,2.9339086e+05,2394,329
Raw,30441.033,2394,329
Raw,9.00733819e+05,2397,329
Raw,4.06890993e+05,2408,329
Raw,2.60937768e+05,2408,329
Raw,3.18628524e+05,2411,329
Raw,5.03020652e+05,2415,329
Raw,3.15712508e+05,2422,329
Raw,5.82289645e+05,2430,329
Raw,3.00997857e+05,2436,329
Raw,2.54571379e+05,2444,329
Raw,8.3173245e+05,2445,329
Raw,1.46511491e+05,2445,329
Raw,3.75924749e+05,2447,329
Raw,3.88925693e+05,2452,329
Raw,2.33036964e+05,2452,329
Raw,1.86614e+05,2452,329
Raw,1.23584958e+05,2456,329
Raw,2.88001865e+05,2456,329
Raw,3.33162346e+05,2478,329
Raw,3.14115282e+05,2478,329
Raw,1.77025495e+05,2479,329
Raw,2.24299353e+05,2479,329
Raw,2.4083216e+05,2490,329
Raw,35690.244,2490,329
Raw,7.51249112e+05,2496,329
Raw,6.5839981e+05,2499,329
Raw,2.4539751e+05,2499,329
Raw,3.04377338e+05,2500,329
Raw,5.33829605e+05,2504,329
Raw,4.76395007e+05,2509,329
Raw,8.09522202e+05,2515,329
Raw,6.10205042e+05,2517,329
Raw,3.38423663e+05,2533,329
Raw,3.12872117e+05,2542,329
Raw,3.13555093e+05,2552,329
Raw,2.7209943e+05,2556,329
Raw,3.18539338e+05,2557,329
Raw,3.09102784e+05,2562,329
Raw,3.33143903e+05,2568,329
Raw,4.47068525e+05,2573,329
Raw,1.84561829e+05,2573,329
Raw,8.27038696e+05,2579,329
Raw,2.40783419e+05,2579,329
Raw,4.97714181e+05,2585,329
Raw,2.85417289e+05,2589,329
Raw,5.45142673e+05,2590,329
Raw,7.54590244e+05,2604,329
Raw,3.18403323e+05,2604,329
Raw,2.85845899e+05,2606,329
Raw,3.43099392e+05,2613,329
Raw,5.77999001e+05,2614,329
Raw,3.56031475e+05,2626,329
Raw,2.63514375e+05,2633,329
Raw,1.90203147e+05,2642,329
Raw,7.33143881e+05,2649,329
Raw,4.87586048e+05,2649,329
Raw,6.93153766e+05,2650,329
Raw,1.94802418e+05,2651,329
Raw,7.39741052e+05,2653,329
Raw,5.24961323e+05,2655,329
Raw,62890.771,2668,329
Raw,3.33389025e+05,2680,329
Raw,1.29811346e+05,2681,329
Raw,1.56694358e+05,2682,329
Raw,2.51779429e+05,2689,329
Raw,6.56203739e+05,2689,329
Raw,3.81558066e+05,2690,329
Raw,3.95059376e+05,2691,329
Raw,3.37422324e+05,2695,329
Raw,3.38806259e+05,2697,329
Raw,7.03513665e+05,2708,329
Raw,3.15608054e+05,2714,329
Raw,3.5568208e+05,2717,329
Raw,3.42019122e+05,2723,329
Raw,14977.732,2723,329
Raw,6.51917521e+05,2725,329
Raw,8.55198475e+05,2726,329
Raw,2.7889108e+05,2749,329
Raw,2.89143112e+05,2758,329
Raw,6.3930346e+05,2766,329
Raw,3.17312049e+05,2773,329
Raw,6.38486671e+05,2775,329
Raw,2.5244619e+05,2775,329
Raw,7.62803621e+05,2779,329
Raw,1.27849655e+05,2783,329
Raw,46783.708,2783,329
Raw,3.32688314e+05,2785,329
Raw,3.18825307e+05,2798,329
Raw,3.08290434e+05,2810,329
Raw,2.50023507e+05,2812,329
Raw,2.60121368e+05,2813,329
Raw,4.97948579e+05,2824,329
Raw,5.65870184e+05,2830,329
Raw,3.20256172e+05,2858,329
Raw,8.52598397e+05,2860,329
Raw,40777.039,2860,329
Raw,3.44252276e+05,2866,329
Raw,1.40328723e+05,2870,329
Raw,2.80276001e+05,2870,329
Raw,3.65994547e+05,2871,329
Raw,2.61250688e+05,2871,329
Raw,98746.529,2872,329
Raw,3.34407385e+05,2872,329
Raw,2.8422425e+05,2885,329
Raw,3.10323561e+05,2885,329
Raw,4.98171322e+05,2900,329
Raw,32759.58,2900,329
Raw,1.92731251e+05,2902,329
Raw,3.0971923e+05,2909,329
Raw,2.89070624e+05,2911,329
Raw,2.90577836e+05,2911,329
Raw,6.29598594e+05,2915,329
Raw,3.70513812e+05,2916,329
Raw,3.10217447e+05,2916,329
Raw,8.03829747e+05,2920,329
Raw,4.79740124e+05,2920,329
Raw,3.16944083e+05,2924,329
Raw,2.70785532e+05,2924,329
Raw,2.71074132e+05,2925,329
Raw,3.17291304e+05,2928,329
Raw,92460.046,2935,329
Raw,3.05878684e+05,2935,329
Raw,2.4767623e+05,2936,329
Raw,3.78662209e+05,2943,329
Raw,1.84574681e+05,2943,329
Raw,2.4939572e+05,2949,329
Raw,2.81345523e+05,2953,329
Raw,2.57744983e+05,2953,329
Raw,44934.34,2958,329
Raw,2.23715859e+05,2959,329
Raw,2.39100877e+05,2964,329
Raw,3.44290913e+05,2964,329
Raw,2.73800872e+05,2969,329
Raw,1.40817116e+05,2970,329
Raw,2.73776216e+05,2970,329
Raw,3.21672034e+05,2973,329
Raw,3.3433127e+05,2978,329
Raw,2.25827145e+05,2978,329
Raw,5.08666038e+05,2986,329
Raw,4.84236295e+05,2987,329
Raw,6.97820954e+05,2988,329
Raw,2.551657e+05,2989,329
Raw,2.89004609e+05,2989,329
Raw,2.89155719e+05,2994,329
Raw,1.95997313e+05,2996,329
Raw,3.50160655e+05,3012,329
Raw,2.85295148e+05,3012,329
Raw,3.39059405e+05,3013,329
Raw,5.67122974e+05,3015,329
Raw,2.39566268e+05,3024,329
Raw,2.54401107e+05,3024,329
Raw,3.20977615e+05,3028,329
Raw,2.7963781e+05,3029,329
Raw,1.89253863e+05,3031,329
Raw,10681.026,3031,329
Raw,3.27373016e+05,3034,329
Raw,3.04208259e+05,3035,329
Raw,2.93739516e+05,3035,329
Raw,8.51890947e+05,3036,329
Raw,5.79830257e+05,3048,329
Raw,3.17311549e+05,3052,329
Raw,2.43417972e+05,3052,329
Raw,7.70642346e+05,3075,329
Raw,2.51109421e+05,3075,329
Raw,5.62508286e+05,3094,329
Raw,6.98312275e+05,3097,329
Raw,3.37695793e+05,3099,329
Raw,3.62827986e+05,3099,329
Raw,3.24117017e+05,3103,329
Raw,4.10008876e+05,3112,329
Raw,1.16197232e+05,3112,329
Raw,6.06574715e+05,3113,329
Raw,3.12577389e+05,3118,329
Raw,2.89109819e+05,3132,329
Raw,3.50979444e+05,3132,329
Raw,5.25991972e+05,3136,329
Raw,3.56843878e+05,3136,329
Raw,7.79767271e+05,3137,329
Raw,2.15906498e+05,3138,329
Raw,3.36990321e+05,3142,329
Raw,3.04140682e+05,3144,329
Raw,1.72046418e+05,3144,329
Raw,25061.981,3149,329
Raw,3.17689367e+05,3157,329
Raw,2.07035267e+05,3159,329
Raw,3.57478152e+05,3159,329
Raw,3.26352615e+05,3162,329
Raw,3.04144746e+05,3164,329
Raw,2.73651015e+05,3182,329
Raw,2.47172501e+05,3186,329
Raw,2.31640695e+05,3186,329
Raw,2.76929444e+05,3188,329
Raw,2.69515516e+05,3194,329
Raw,8.76229617e+05,3198,329
Raw,8.36911968e+05,3199,329
Raw,3.06913392e+05,3200,329
Raw,6.72536048e+05,3202,329
Raw,3.43387173e+05,3203,329
Raw,6.1270643e+05,3207,329
Raw,2.93493461e+05,3207,329
Raw,8.12678602e+05,3211,329
Raw,8.48073564e+05,3223,329
Raw,3.13712642e+05,3227,329
Raw,4.02372889e+05,3231,329
Raw,5.72640685e+05,3231,329
Raw,2.96064831e+05,3231,329
Raw,3.49718515e+05,3236,329
Raw,6.74997336e+05,3239,329
Raw,8.97815933e+05,3240,329
Raw,5.71575104e+05,3248,329
Raw,6.2184283e+05,3249,329
Raw,4.70791087e+05,3250,329
Raw,2.61297948e+05,3250,329
Raw,8.00021454e+05,3266,329
Raw,5.45118555e+05,3268,329
Raw,2.72184782e+05,3268,329
Raw,2.3498571e+05,3270,329
Raw,5.24518826e+05,3275,329
Raw,3.58724001e+05,3276,329
Raw,3.46317515e+05,3276,329
Raw,8.22818431e+05,3280,329
Raw,1.91606341e+05,3288,329
Raw,2.06928394e+05,3290,329
Raw,6.56436775e+05,3305,329
Raw,6.29486895e+05,3308,329
Raw,2.80503199e+05,3308,329
Raw,3.20773311e+05,3310,329
Raw,5.58310471e+05,3310,329
Raw,5.12793555e+05,3329,329
Raw,3.45973011e+05,3329,329
Raw,2.4862306e+05,3331,329
Raw,3.17150652e+05,3342,329
Raw,2.65836929e+05,3342,329
Raw,2.8324482e+05,3358,329
Raw,2.13013479e+05,3359,329
Raw,2.72747359e+05,3369,329
Raw,2.05770552e+05,3369,329
Raw,19182.285,3369,329
Raw,2.94986189e+05,3379,329
Raw,2.6631202e+05,3379,329
Raw,3.22421745e+05,3385,329
Raw,11701.975,3394,329
Raw,1.12503707e+05,3394,329
Raw,4.64997395e+05,3395,329
Raw,2.97898814e+05,3396,329
Raw,5.17230469e+05,3400,329
Raw,8.13195438e+05,3402,329
Raw,3.66320428e+05,3404,329
Raw,2.70079281e+05,3404,329
Raw,5.36903366e+05,3406,329
Raw,1.47990248e+05,3408,329
Raw,5.2056046e+05,3416,329
Raw,3.64577463e+05,3416,329
Raw,5.0308837e+05,3427,329
Raw,2.22983478e+05,3427,329
Raw,6.32712559e+05,3428,329
Raw,2.67808408e+05,3432,329
Raw,7.86157893e+05,3436,329
Raw,6.07892498e+05,3438,329
Raw,2.70048148e+05,3438,329
Raw,3.36566855e+05,3441,329
Raw,5.90117302e+05,3449,329
Raw,6.5012597e+05,3454,329
Raw,8.92584026e+05,3458,329
Raw,5.83422227e+05,3460,329
Raw,1.94047827e+05,3463,329
Raw,2.76623764e+05,3465,329
Raw,3.08368028e+05,3471,329
Raw,2.94332733e+05,3471,329
Raw,3.2891455e+05,3472,329
Raw,3.21686342e+05,3475,329
Raw,2.09926898e+05,3475,329
Raw,5.49617958e+05,3476,329
Raw,6.76146382e+05,3476,329
Raw,9.00045858e+05,3478,329
Raw,2.62703621e+05,3482,329
Raw,3.71517727e+05,3483,329
Raw,6.14573651e+05,3488,329
Raw,6.5268332e+05,3499,329
Raw,5.827171e+05,3502,329
Raw,58532.19,3502,329
Raw,5.66255758e+05,3508,329
Raw,3.74351943e+05,3510,329
Raw,3.32058094e+05,3510,329
Raw,86948.062,3512,329
Raw,7.18266533e+05,3513,329
Raw,8.77035069e+05,3524,329
Raw,1.93995482e+05,3529,329
Raw,3.04930711e+05,3530,329
Raw,7.48202556e+05,3533,329
Raw,2.96425309e+05,3537,329
Raw,70758.589,3537,329
Raw,63088.69,3544,329
Raw,7.60035676e+05,3545,329
Raw,3.89798426e+05,3547,329
Raw,6.03178466e+05,3551,329
Raw,3.57010284e+05,3552,329
Raw,8.95667642e+05,3556,329
Raw,84962.559,3558,329
Raw,3.01370551e+05,3561,329
Raw,6.30456752e+05,3561,329
Raw,3.37868773e+05,3561,329
Raw,7.26254538e+05,3580,329
Raw,2.66632003e+05,3581,329
Raw,2.77386507e+05,3584,329
Raw,2.15912391e+05,3591,329
Raw,3.39804164e+05,3591,329
Raw,3.38671782e+05,3592,329
Raw,7.06721852e+05,3594,329
Raw,1.78155408e+05,3599,329
Raw,6.1773081e+05,3601,329
Raw,6.36391658e+05,3601,329
Raw,4.45298193e+05,3605,329
Raw,3.6502474e+05,3613,329
Raw,5.26926388e+05,3616,329
Raw,39773.993,3616,329
Raw,3.2265344e+05,3617,329
Raw,2.49398138e+05,3628,329
Raw,8.357216e+05,3634,329
Raw,3.24931022e+05,3634,329
Raw,9.10238784e+05,3656,329
Raw,3.28862533e+05,3661,329
Raw,18038.248,3661,329
Raw,2.81118206e+05,3668,329
Raw,3.52773737e+05,3674,329
Raw,3.28921522e+05,3677,329
Raw,5.12038931e+05,3685,329
Raw,40347.641,3685,329
Raw,5.6062899e+05,3688,329
Raw,2.65572437e+05,3688,329
Raw,2.85901839e+05,3689,329
Raw,5.72448394e+05,3703,329
Raw,2.59423127e+05,3703,329
Raw,98646.122,3704,329
Raw,3.05505859e+05,3704,329
Raw,1.99793797e+05,3705,329
Raw,3.62430845e+05,3713,329
Raw,3.36477852e+05,3713,329
Raw,2.00824713e+05,3722,329
Raw,3.00748144e+05,3724,329
Raw,6.87668641e+05,3724,329
Raw,8.60300423e+05,3725,329
Raw,2.02648638e+05,3725,329
Raw,2.80529561e+05,3727,329
Raw,3.60241734e+05,3728,329
Raw,2.50430843e+05,3728,329
Raw,2.90181523e+05,3732,329
Raw,2.81933235e+05,3734,329
Raw,4.23478347e+05,3737,329
Raw,51316.368,3737,329
Raw,2.57252815e+05,3738,329
Raw,6.7565093e+05,3739,329
Raw,6.23903181e+05,3740,329
Raw,8.77999478e+05,3741,329
Raw,5.96117496e+05,3746,329
Raw,2.72990212e+05,3752,329
Raw,7.61884462e+05,3755,329
Raw,6.11281525e+05,3758,329
Raw,6.88130629e+05,3759,329
Raw,74310.75,3762,329
Raw,2.52640115e+05,3762,329
Raw,5.6071518e+05,3778,329
Raw,3.4681462e+05,3780,329
Raw,8.07923706e+05,3785,329
Raw,4.89379361e+05,3794,329
Raw,1.33470423e+05,3794,329
Raw,3.83807116e+05,3801,329
Raw,7.2389727e+05,3804,329
Raw,8.68986697e+05,3807,329
Raw,2.22324126e+05,3815,329
Raw,6.89698715e+05,3817,329
Raw,4.02187911e+05,3817,329
Raw,5.21188138e+05,3820,329
Raw,80071.866,3820,329
Raw,3.31817785e+05,3821,329
Raw,5.90500845e+05,3830,329
Raw,6.63781134e+05,3834,329
Raw,3.10400933e+05,3836,329
Raw,37371.716,3838,329
Raw,6.57457703e+05,3850,329
Raw,3.84894036e+05,3850,329
Raw,6.5725859e+05,3853,329
Raw,40626.253,3862,329
Raw,4.54094393e+05,3864,329
Raw,6.86273984e+05,3867,329
Raw,6.75444288e+05,3869,329
Raw,6.05751262e+05,3875,329
Raw,3.28183767e+05,3877,329
Raw,3.04898555e+05,3879,329
Raw,1.05706542e+05,3884,329
Raw,2.67297739e+05,3891,329
Raw,6.29483822e+05,3897,329
Raw,3.6903011e+05,3902,329
Raw,2.75774899e+05,3902,329
Raw,1.97280195e+05,3906,329
Raw,2.75971508e+05,3906,329
Raw,2.95084033e+05,3924,329
Raw,3.15409342e+05,3929,329
Raw,5.08691815e+05,3930,329
Raw,5.00272886e+05,3935,329
Raw,6.2696179e+05,3948,329
Raw,1.19883301e+05,3948,329
Raw,2.89795775e+05,3954,329
Raw,8.99934159e+05,3955,329
Raw,2.82152981e+05,3956,329
Raw,2.92886692e+05,3956,329
Raw,6.55953088e+05,3972,329
Raw,7.39455082e+05,3973,329
Raw,2.37542653e+05,3973,329
Raw,2.32332399e+05,3977,329
Raw,1.63981801e+05,3977,329
Raw,82396.433,3977,329
Raw,8.11484284e+05,3978,329
Raw,4.17850445e+05,3980,329
Raw,2.50106615e+05,3980,329
Raw,6.14805249e+05,3981,329
Raw,3.20193871e+05,3993,329
Raw,2.04281662e+05,3994,329
Raw,2.59317584e+05,3999,329
Raw,3.12462942e+05,4006,329
Raw,2.34460045e+05,4006,329
Raw,7.16045062e+05,4009,329
Raw,2.76692515e+05,4012,329
Raw,6.76800175e+05,4016,329
Raw,1.6594981e+05,4016,329
Raw,3.11134168e+05,4018,329
Raw,6.75889432e+05,4027,329
Raw,5.95954351e+05,4029,329
Raw,3.79394855e+05,4045,329
Raw,2.01893139e+05,4046,329
Raw,2.85677696e+05,4046,329
Raw,5.98353987e+05,4047,329
Raw,7.77320216e+05,4054,329
Raw,1.95230639e+05,4054,329
Raw,3.2788431e+05,4054,329
Raw,5.48801075e+05,4063,329
Raw,6.37751429e+05,4066,329
Raw,2.24319796e+05,4066,329
Raw,3.34681856e+05,4067,329
Raw,3.65846669e+05,4071,329
Raw,2.91241099e+05,4071,329
Raw,4.26390227e+05,4083,329
Raw,3.47472438e+05,4083,329
Raw,2.90103431e+05,4097,329
Raw,2.67241647e+05,4097,329
Raw,6.60649089e+05,4099,329
Raw,3.11392453e+05,4103,329
Raw,2.82199708e+05,4103,329
Raw,3.85199867e+05,4107,329
Raw,3.37201866e+05,4107,329
Raw,2.88729694e+05,4116,329
Raw,5.93726502e+05,4121,329
Raw,5.89179424e+05,4122,329
Raw,2.0751904e+05,4134,329
Raw,7.75005834e+05,4135,329
Raw,7.2927857e+05,4142,329
Raw,5.44701049e+05,4143,329
Raw,2.51113878e+05,4146,329
Raw,1.54152442e+05,4146,329
Raw,2.77133311e+05,4149,329
Raw,5.94266713e+05,4151,329
Raw,2.76107656e+05,4152,329
Raw,2.71243416e+05,4160,329
Raw,3.6311704e+05,4162,329
Raw,9.0595172e+05,4163,329
Raw,3.23311483e+05,4167,329
Raw,34498.096,4167,329
Raw,2.58092604e+05,4175,329
Raw,6.93821321e+05,4182,329
Raw,6.74513856e+05,4205,329
Raw,2.13054004e+05,4214,329
Raw,4.0707543e+05,4216,329
Raw,2.75805056e+05,4216,329
Raw,6.52121627e+05,4217,329
Raw,3.60994563e+05,4227,329
Raw,1.14350879e+05,4227,329
Raw,3.14104208e+05,4242,329
Raw,3.89149038e+05,4244,329
Raw,2.23178561e+05,4244,329
Raw,3.13283755e+05,4247,329
Raw,7.17122887e+05,4258,329
Raw,5.60573019e+05,4260,329
Raw,6.41285728e+05,4261,329
Raw,2.64963223e+05,4261,329
Raw,1.76113239e+05,4261,329
Raw,6.24745375e+05,4271,329
Raw,89934.842,4272,329
Raw,6.98927249e+05,4274,329
Raw,2.89676101e+05,4274,329
Raw,3.61978836e+05,4274,329
Raw,3.42802123e+05,4279,329
Raw,7.49807811e+05,4279,329
Raw,3.22238236e+05,4285,329
Raw,2.94699573e+05,4286,329
Raw,2.58315634e+05,4286,329
Raw,1.33392127e+05,4287,329
Raw,8.61571452e+05,4288,329
Raw,2.88442403e+05,4292,329
Raw,3.17260906e+05,4293,329
Raw,3.14226644e+05,4297,329
Raw,5.48073286e+05,4307,329
Raw,3.11963911e+05,4315,329
Raw,2.52236586e+05,4316,329
Raw,2.40905922e+05,4317,329
Raw,1.27931695e+05,4319,329
Raw,2.81847425e+05,4324,329
Raw,2.30350334e+05,4328,329
Raw,6.05168399e+05,4336,329
Raw,2.12219939e+05,4342,329
Raw,2.67979629e+05,4342,329
Raw,2.72094952e+05,4343,329
Raw,5.97912493e+05,4347,329
Raw,3.06994389e+05,4351,329
Raw,2.10585305e+05,4351,329
Raw,6.02575579e+05,4352,329
Raw,6.15720602e+05,4356,329
Raw,8.6051424e+05,4361,329
Raw,3.8795702e+05,4367,329
Raw,6.46543516e+05,4368,329
Raw,3.32407448e+05,4377,329
Raw,25696.3,4379,329
Raw,5.28617246e+05,4388,329
Raw,2.13084955e+05,4388,329
Raw,3.33356769e+05,4394,329
Raw,3.41194725e+05,4394,329
Raw,42707.835,4407,329
Raw,2.04765223e+05,4417,329
Raw,5.15574119e+05,4423,329
Raw,3.90581369e+05,4425,329
Raw,3.11796712e+05,4432,329
Raw,2.97514486e+05,4432,329
Raw,3.17202166e+05,4436,329
Raw,2.10669269e+05,4438,329
Raw,3.26380261e+05,4442,329
Raw,2.40946084e+05,4444,329
Raw,8.96606203e+05,4449,329
Raw,3.1091059e+05,4449,329
Raw,1.83834797e+05,4451,329
Raw,1.61133495e+05,4453,329
Raw,7.25423115e+05,4455,329
Raw,2.12909212e+05,4459,329
Raw,3.42267146e+05,4460,329
Raw,2.65955531e+05,4460,329
Raw,3.79467251e+05,4463,329
Raw,4.7432195e+05,4464,329
Raw,3.1760377e+05,4464,329
Raw,8.88898748e+05,4467,329
Raw,3.17533826e+05,4467,329
Raw,1.6621723e+05,4480,329
Raw,6.01933451e+05,4480,329
Raw,2.71030539e+05,4488,329
Raw,1.94064353e+05,4488,329
Raw,2.73334833e+05,4494,329
Raw,8.77483222e+05,4496,329
Raw,6.37154513e+05,4496,329
Raw,30058.034,4498,329
Raw,2.98643605e+05,4498,329
Raw,5.23820502e+05,4500,329
Raw,5.39243976e+05,4510,329
Raw,2.24999151e+05,4512,329
Raw,3.05478679e+05,4512,329
Raw,3.5496771e+05,4516,329
Raw,6.45593805e+05,4528,329
Raw,7.87572423e+05,4530,329
Raw,5.43478207e+05,4533,329
Raw,3.24944295e+05,4535,329
Raw,3.65581964e+05,4545,329
Raw,3.00728428e+05,4548,329
Raw,4.16080132e+05,4562,329
Raw,4.43098636e+05,4563,329
Raw,1.78001653e+05,4563,329
Raw,2.35019039e+05,4583,329
Raw,3.21454891e+05,4584,329
Raw,2.7222271e+05,4584,329
Raw,3.5680921e+05,4589,329
Raw,5.49879483e+05,4590,329
Raw,6.79650447e+05,4590,329
Raw,2.67407052e+05,4595,329
Raw,2.77651448e+05,4596,329
Raw,3.40491565e+05,4596,329
Raw,6.578202e+05,4598,329
Raw,1.29777781e+05,4599,329
Raw,3.19407696e+05,4602,329
Raw,3.44519788e+05,4602,329
Raw,5.46759324e+05,4605,329
Raw,3.15161073e+05,4605,329
Raw,8.63936575e+05,4606,329
Raw,5.77356464e+05,4611,329
Raw,2.45632229e+05,4613,329
Raw,6.410002e+05,4618,329
Raw,1.90791796e+05,4623,329
Raw,8.69138731e+05,4626,329
Raw,2.97104571e+05,4629,329
Raw,6.86311546e+05,4630,329
Raw,8.39273972e+05,4637,329
Raw,8.32219845e+05,4659,329
Raw,2.67946856e+05,4659,329
Raw,3.00735768e+05,4687,329
Raw,7.41604487e+05,4688,329
Raw,3.22141707e+05,4696,329
Raw,5.0151302e+05,4698,329
Raw,3.09972198e+05,4718,329
Raw,2.92668093e+05,4719,329
Raw,2.11807415e+05,4727,329
Raw,3.48588613e+05,4730,329
Raw,1.08194413e+05,4730,329
Raw,2.64643118e+05,4732,329
Raw,2.16130216e+05,4732,329
Raw,3.83082553e+05,4736,329
Raw,3.703801e+05,4736,329
Raw,2.79077798e+05,4740,329
Raw,4.33146123e+05,4741,329
Raw,3.25801199e+05,4750,329
Raw,3.21831935e+05,4759,329
Raw,5.96748942e+05,4759,329
Raw,6.82619597e+05,4765,329
Raw,1.10813365e+05,4765,329
Raw,3.72975437e+05,4784,329
Raw,8.89839641e+05,4797,329
Raw,3.06491118e+05,4804,329
Raw,6.00648147e+05,4806,329
Raw,2.64876922e+05,4808,329
Raw,1.52557452e+05,4808,329
Raw,3.15656564e+05,4811,329
Raw,3.22813393e+05,4811,329
Raw,18153.75,4811,329
Raw,4.9226572e+05,4813,329
Raw,76433.426,4817,329
Raw,3.51594695e+05,4819,329
Raw,2.37805688e+05,4819,329
Raw,6.57824789e+05,4820,329
Raw,3.86286814e+05,4822,329
Raw,44798.636,4822,329
Raw,6.88205399e+05,4832,329
Raw,8.54634713e+05,4840,329
Raw,7.3129006e+05,4842,329
Raw,7.08809592e+05,4844,329
Raw,31072.981,4846,329
Raw,1.90659126e+05,4850,329
Raw,6.50118789e+05,4852,329
Raw,5.06731413e+05,4852,329
Raw,3.23724699e+05,4853,329
Raw,1.69632702e+05,4853,329
Raw,2.22067465e+05,4854,329
Raw,3.28508658e+05,4855,329
Raw,3.03635231e+05,4856,329
Raw,6.08313297e+05,4867,329
Raw,6.25674304e+05,4869,329
Raw,3.70458527e+05,4872,329
Raw,2.57698277e+05,4875,329
Raw,9.05033039e+05,4883,329
Raw,2.68868985e+05,4886,329
Raw,5.31570992e+05,4891,329
Raw,2.64926711e+05,4899,329
Raw,82200.511,4899,329
Raw,5.97505303e+05,4901,329
Raw,3.07118247e+05,4902,329
Raw,68149.075,4906,329
Raw,2.67866153e+05,4906,329
Raw,3.26576684e+05,4918,329
Raw,3.31320062e+05,4918,329
Raw,5.3457472e+05,4919,329
Raw,39900.768,4919,329
Raw,2.73071698e+05,4924,329
Raw,2.72853409e+05,4925,329
Raw,3.16358884e+05,4926,329
Raw,5.43379392e+05,4933,329
Raw,3.53704713e+05,4936,329
Raw,2.30800492e+05,4936,329
Raw,2.74476139e+05,4944,329
Raw,4.80671696e+05,4945,329
Raw,4.22377936e+05,4945,329
Raw,4.97455612e+05,4952,329
Raw,43160.05,4952,329
Raw,64536.224,4957,329
Raw,3.58270849e+05,4958,329
Raw,2.76552113e+05,4958,329
Raw,8.76189612e+05,4964,329
Raw,2.12787355e+05,4970,329
Raw,2.79168769e+05,4970,329
Raw,24671.013,4970,329
Raw,2.91483631e+05,4972,329
Raw,2.71041817e+05,4974,329
Raw,5.60730941e+05,4975,329
Raw,2.96230442e+05,4984,329
Raw,47665.087,4984,329
Raw,2.84200778e+05,4986,329
Raw,1.91566983e+05,4991,329
Raw,3.0037228e+05,4992,329
Raw,43152.258,4995,329
Raw,2.09067902e+05,4997,329
Raw,3.23977086e+05,5006,329
Raw,4.81154897e+05,5012,329
Raw,3.14027745e+05,5012,329
Raw,2.97530364e+05,5015,329
Raw,5.59019486e+05,5028,329
Raw,2.47255272e+05,5028,329
Raw,1.56702424e+05,5036,329
Raw,3.28272035e+05,5036,329
Raw,6.29692153e+05,5037,329
Raw,2.54751408e+05,5040,329
Raw,2.63573539e+05,5041,329
Raw,5.79291528e+05,5042,329
Raw,2.45871864e+05,5042,329
Raw,4.32331305e+05,5044,329
Raw,2.15800828e+05,5044,329
Raw,3.28625125e+05,5045,329
Raw,5.23093508e+05,5048,329
Raw,2.89432032e+05,5050,329
Raw,3.20786879e+05,5050,329
Raw,3.49076593e+05,5054,329
Raw,1.80768866e+05,5060,329
Raw,7.1164438e+05,5069,329
Raw,6.0870924e+05,5070,329
Raw,3.06914655e+05,5070,329
Raw,2.81834024e+05,5081,329
Raw,2.23831605e+05,5082,329
Raw,2.9892295e+05,5082,329
Raw,4.66119823e+05,5085,329
Raw,2.49803397e+05,5095,329
Raw,8.32703865e+05,5099,329
Raw,7.39571661e+05,5108,329
Raw,3.09433347e+05,5111,329
Raw,2.86015496e+05,5111,329
Raw,2.69818708e+05,5117,329
Raw,3.01944834e+05,5117,329
Raw,2.5999597e+05,5123,329
Raw,6.42672052e+05,5137,329
Raw,5.72725931e+05,5140,329
Raw,2.40480938e+05,5140,329
Raw,5.87219843e+05,5145,329
Raw,2.21577956e+05,5145,329
Raw,2.82636392e+05,5148,329
Raw,3.14391364e+05,5151,329
Raw,5.24004181e+05,5162,329
Raw,8.54548712e+05,5169,329
Raw,3.16268632e+05,5172,329
Raw,5.78793552e+05,5174,329
Raw,3.54935317e+05,5176,329
Raw,2.83736906e+05,5177,329
Raw,43557.144,5179,329
Raw,4.30424767e+05,5180,329
Raw,5.03841046e+05,5180,329
Raw,4.82044297e+05,5183,329
Raw,30711.732,5183,329
Raw,3.22296938e+05,5188,329
Raw,5.21991902e+05,5195,329
Raw,2.68002055e+05,5196,329
Raw,9.07347187e+05,5197,329
Raw,2.32837678e+05,5199,329
Raw,37056.693,5203,329
Raw,8.33437129e+05,5209,329
Raw,5.15925835e+05,5213,329
Raw,4.30870945e+05,5219,329
Raw,5.85763134e+05,5224,329
Raw,3.3517636e+05,5233,329
Raw,4.97846457e+05,5240,329
Raw,2.84482454e+05,5240,329
Raw,66851.081,5240,329
Raw,2.99480341e+05,5242,329
Raw,3.9250305e+05,5251,329
Raw,3.53119395e+05,5252,329
Raw,5.24494904e+05,5254,329
Raw,3.52948349e+05,5254,329
Raw,5.73304197e+05,5264,329
Raw,2.78462744e+05,5264,329
Raw,6.80274811e+05,5267,329
Raw,79531.143,5267,329
Raw,13327.559,5267,329
Raw,3.57834695e+05,5269,329
Raw,2.50919276e+05,5269,329
Raw,8.31584249e+05,5270,329
Raw,2.63864142e+05,5270,329
Raw,5.78075159e+05,5276,329
Raw,6.53844935e+05,5280,329
Raw,1.64736979e+05,5283,329
Raw,2.63741386e+05,5293,329
Raw,2.81362379e+05,5300,329
Raw,2.64269852e+05,5301,329
Raw,6.05270069e+05,5304,329
Raw,2.67817693e+05,5316,329
Raw,3.45544618e+05,5317,329
Raw,3.12244928e+05,5317,329
Raw,6.39033062e+05,5325,329
Raw,3.5032098e+05,5325,329
Raw,2.39400031e+05,5337,329
Raw,2.5365263e+05,5337,329
Raw,6.96360313e+05,5344,329
Raw,3.00885588e+05,5357,329
Raw,7.82471988e+05,5362,329
Raw,2.1532092e+05,5363,329
Raw,2.88234811e+05,5363,329
Raw,3.16972345e+05,5363,329
Raw,7.26014729e+05,5369,329
Raw,1.57733168e+05,5369,329
Raw,6.50663257e+05,5372,329
Raw,1.87744951e+05,5372,329
Raw,6.35198783e+05,5373,329
Raw,1.902115e+05,5373,329
Raw,3.28357659e+05,5374,329
Raw,2.17414207e+05,5374,329
Raw,2.59718602e+05,5383,329
Raw,5.86179108e+05,5396,329
Raw,2.57713956e+05,5396,329
Raw,9.10108481e+05,5397,329
Raw,86512.557,5397,329
Raw,3.40177434e+05,5407,329
Raw,60859.34,5418,329
Raw,2.4447727e+05,5418,329
Raw,6.35186424e+05,5421,329
Raw,7.95252264e+05,5424,329
Raw,2.7842832e+05,5424,329
Raw,6.28097642e+05,5429,329
Raw,5.52329419e+05,5430,329
Raw,3.38899867e+05,5430,329
Raw,6.60347128e+05,5434,329
Raw,3.04552379e+05,5435,329
Raw,2.60166001e+05,5438,329
Raw,6.1716241e+05,5439,329
Raw,3.07820734e+05,5445,329
Raw,3.16999642e+05,5458,329
Raw,3.4186788e+05,5459,329
Raw,2.99518042e+05,5461,329
Raw,5.53294799e+05,5465,329
Raw,2.87779385e+05,5465,329
Raw,1.91209076e+05,5465,329
Raw,3.77725609e+05,5487,329
Raw,2.02181698e+05,5498,329
Raw,2.85918341e+05,5499,329
Raw,2.35416665e+05,5500,329
Raw,3.33496285e+05,5501,329
Raw,2.02276872e+05,5502,329
Raw,2.47532722e+05,5502,329
Raw,4.39983643e+05,5504,329
Raw,2.44334867e+05,5504,329
Raw,2.90225319e+05,5506,329
Raw,2.74658101e+05,5506,329
Raw,2.76697935e+05,5514,329
Raw,3.40380906e+05,5515,329
Raw,4.93609362e+05,5522,329
Raw,7.36306631e+05,5525,329
Raw,7.2714653e+05,5532,329
Raw,2.8107582e+05,5538,329
Raw,2.60231948e+05,5538,329
Raw,4.88803717e+05,5542,329
Raw,1.36952505e+05,5542,329
Raw,5.49817512e+05,5543,329
Raw,3.10091408e+05,5543,329
Raw,1.40802745e+05,5558,329
Raw,2.07300599e+05,5574,329
Raw,7.78266286e+05,5579,329
Raw,3.15508174e+05,5581,329
Raw,4.96965909e+05,5583,329
Raw,7.67550216e+05,5587,329
Raw,9.09704002e+05,5591,329
Raw,5.87571132e+05,5592,329
Raw,6.11118193e+05,5601,329
Raw,8.96975876e+05,5603,329
Raw,2.04827557e+05,5614,329
Raw,3.81203241e+05,5617,329
Raw,8.60180374e+05,5621,329
Raw,2.68185444e+05,5625,329
Raw,5.30706658e+05,5630,329
Raw,3.66238372e+05,5633,329
Raw,3.31622205e+05,5634,329
Raw,3.12076477e+05,5635,329
Raw,8.88705291e+05,5637,329
Raw,8.64415819e+05,5644,329
Raw,5.77172954e+05,5655,329
Raw,6.20969008e+05,5660,329
Raw,5.97594249e+05,5665,329
Raw,2.8908765e+05,5665,329
Raw,5.739426e+05,5666,329
Raw,2.0755852e+05,5666,329
Raw,8.83755093e+05,5672,329
Raw,2.83465055e+05,5672,329
Raw,5.10663467e+05,5673,329
Raw,6.61592529e+05,5674,329
Raw,5.93593997e+05,5684,329
Raw,52811.548,5686,329
Raw,5.78574626e+05,5686,329
Raw,3.01158221e+05,5689,329
Raw,3.23020719e+05,5702,329
Raw,5.75834045e+05,5703,329
Raw,2.42469935e+05,5703,329
Raw,4.38540069e+05,5704,329
Raw,2.65226645e+05,5706,329
Raw,2.89486957e+05,5706,329
Raw,3.26587729e+05,5709,329
Raw,8.72945491e+05,5711,329
Raw,8.99794419e+05,5712,329
Raw,3.55963402e+05,5713,329
Raw,8.43293523e+05,5718,329
Raw,2.57679133e+05,5718,329
Raw,7.54162203e+05,5726,329
Raw,7.99765031e+05,5734,329
Raw,8.60662984e+05,5741,329
Raw,3.52929153e+05,5743,329
Raw,2.99567904e+05,5747,329
Raw,3.15795871e+05,5747,329
Raw,3.46035251e+05,5755,329
Raw,2.64872816e+05,5757,329
Raw,2.26740807e+05,5757,329
Raw,2.27501447e+05,5775,329
Raw,2.78442389e+05,5775,329
Raw,2.69401202e+05,5775,329
Raw,3.39424728e+05,5777,329
Raw,15666.651,5777,329
Raw,2.86837761e+05,5784,329
Raw,2.78663008e+05,5784,329
Raw,8.86523582e+05,5787,329
Raw,7.69052495e+05,5789,329
Raw,2.84593246e+05,5790,329
Raw,3.72245387e+05,5791,329
Raw,6.43188868e+05,5791,329
Raw,5.9488395e+05,5798,329
Raw,3.38870518e+05,5800,329
Raw,2.7314733e+05,5807,329
Raw,1.81846357e+05,5807,329
Raw,27683.941,5811,329
Raw,7.06696065e+05,5813,329
Raw,1.57387899e+05,5814,329
Raw,2.79672564e+05,5822,329
Raw,5.63151366e+05,5871,329
Raw,3.98707267e+05,5873,329
Raw,3.05853192e+05,5876,329
Raw,1.75653707e+05,5879,329
Raw,1.95891016e+05,5879,329
Raw,6.28774086e+05,5881,329
Raw,2.58039803e+05,5881,329
Raw,3.32389113e+05,5885,329
Raw,2.82606577e+05,5894,329
Raw,3.02493601e+05,5897,329
Raw,1.68802575e+05,5897,329
Raw,1.61492117e+05,5901,329
Raw,8.50517118e+05,5904,329
Raw,2.75244692e+05,5912,329
Raw,2.90236395e+05,5918,329
Raw,2.96133687e+05,5918,329
Raw,3.66851232e+05,5934,329
Raw,3.33119518e+05,5953,329
Raw,3.32886949e+05,5953,329
Raw,3.51197064e+05,5957,329
Raw,2.8033073e+05,5957,329
Raw,2.91096038e+05,5959,329
Raw,3.08256022e+05,5965,329
Raw,6.43687197e+05,5965,329
Raw,2.99683016e+05,5971,329
Raw,6.62095092e+05,5971,329
Raw,3.17914239e+05,5986,329
Raw,3.54517089e+05,5989,329
Raw,3.35515803e+05,5999,329
Raw,3.44977719e+05,6009,329
Raw,2.20371276e+05,6018,329
Raw,6.71645149e+05,6019,329
Raw,2.32569399e+05,6019,329
Raw,1.17924471e+05,6021,329
Raw,2.35928682e+05,6022,329
Raw,3.26442867e+05,6022,329
Raw,2.22580761e+05,6022,329
Raw,8.02285181e+05,6026,329
Raw,3.62169695e+05,6027,329
Raw,8862.7741,6027,329
Raw,8.5804719e+05,6030,329
Raw,2.75576254e+05,6034,329
Raw,2.73965497e+05,6036,329
Raw,2.67665164e+05,6037,329
Raw,8.00941719e+05,6038,329
Raw,2.59730659e+05,6053,329
Raw,3.73996541e+05,6053,329
Raw,3.41149733e+05,6057,329
Raw,37963.559,6065,329
Raw,2.24520893e+05,6067,329
Raw,8.95958485e+05,6069,329
Raw,2.26533325e+05,6078,329
Raw,7.86592689e+05,6080,329
Raw,5.41168238e+05,6086,329
Raw,4.65786508e+05,6106,329
Raw,3.23326899e+05,6106,329
Raw,4.87078107e+05,6113,329
Raw,2.76352228e+05,6118,329
Raw,3.05282019e+05,6121,329
Raw,2.22497135e+05,6121,329
Raw,6.12248924e+05,6124,329
Raw,3.26333198e+05,6126,329
Raw,6.84441852e+05,6134,329
Raw,3.2272812e+05,6141,329
Raw,1.15367042e+05,6141,329
Raw,8.72059722e+05,6142,329
Raw,3.81745861e+05,6147,329
Raw,2.95331513e+05,6149,329
Raw,2.20326013e+05,6150,329
Raw,8.60231644e+05,6160,329
Raw,6.29403322e+05,6164,329
Raw,3.1684729e+05,6171,329
Raw,5.76592732e+05,6178,329
Raw,95178.542,6180,329
Raw,2.66529488e+05,6180,329
Raw,2.70017071e+05,6180,329
Raw,2.69066188e+05,6184,329
Raw,6.06052299e+05,6186,329
Raw,3.65494672e+05,6201,329
Raw,3.20751378e+05,6201,329
Raw,1.34416819e+05,6213,329
Raw,6.37291949e+05,6217,329
Raw,8.02312306e+05,6230,329
Raw,7.68043406e+05,6236,329
Raw,5.27752779e+05,6243,329
Raw,8.7427185e+05,6246,329
Raw,6.07809286e+05,6254,329
Raw,3.45000588e+05,6255,329
Raw,2.57569018e+05,6255,329
Raw,8.42934217e+05,6264,329
Raw,5.72591548e+05,6268,329
Raw,3.37758079e+05,6271,329
Raw,6.46572385e+05,6271,329
Raw,1.98916516e+05,6273,329
Raw,36928.883,6280,329
Raw,4.10981952e+05,6283,329
Raw,6.4637802e+05,6290,329
Raw,2.79991153e+05,6292,329
Raw,2.4251397e+05,6292,329
Raw,5.40583481e+05,6300,329
Raw,9.05596404e+05,6302,329
Raw,3.57403907e+05,6317,329
Raw,3.04662932e+05,6318,329
Raw,5.7268199e+05,6318,329
Raw,2.54574374e+05,6328,329
Raw,2.88966265e+05,6335,329
Raw,6.36880313e+05,6337,329
Raw,3.42771616e+05,6338,329
Raw,2.48313032e+05,6342,329
Raw,8.01818843e+05,6343,329
Raw,2.7990414e+05,6346,329
Raw,6.09211046e+05,6353,329
Raw,1.63638013e+05,6353,329
Raw,6.031311e+05,6363,329
Raw,5.2646951e+05,6369,329
Raw,3.71916159e+05,6370,329
Raw,3.59640083e+05,6371,329
Raw,1.75486068e+05,6371,329
Raw,1.44390644e+05,6372,329
Raw,2.95279258e+05,6380,329
Raw,5.2291144e+05,6381,329
Raw,3.57328854e+05,6382,329
Raw,1.56977107e+05,6382,329
Raw,1.60910338e+05,6382,329
Raw,3.32335127e+05,6384,329
Raw,2.07057021e+05,6407,329
Raw,2.96360764e+05,6407,329
Raw,1.86776443e+05,6407,329
Raw,5.73335795e+05,6411,329
Raw,3.85824366e+05,6419,329
Raw,3.39610179e+05,6420,329
Raw,7.8787166e+05,6422,329
Raw,2.20587818e+05,6430,329
Raw,5.2510364e+05,6432,329
Raw,2.92440517e+05,6432,329
Raw,2.19527109e+05,6432,329
Raw,4.23274839e+05,6433,329
Raw,6.50436862e+05,6448,329
Raw,7.69650339e+05,6451,329
Raw,3.33925364e+05,6453,329
Raw,2.21073469e+05,6456,329
Raw,8.83141222e+05,6457,329
Raw,4.89220182e+05,6461,329
Raw,8.73604696e+05,6464,329
Raw,8.80499519e+05,6470,329
Raw,7.21076884e+05,6490,329
Raw,5.37755149e+05,6496,329
Raw,3.1415999e+05,6500,329
Raw,7.58125616e+05,6500,329
Raw,7.78727407e+05,6519,329
Raw,5.87608345e+05,6522,329
Raw,3.31618872e+05,6524,329
Raw,2.58331118e+05,6524,329
Raw,3.30651314e+05,6526,329
Raw,1.04333972e+05,6526,329
Raw,2.25550221e+05,6530,329
Raw,3.1284445e+05,6532,329
Raw,29114.832,6532,329
Raw,2.8442807e+05,6536,329
Raw,7.72416666e+05,6539,329
Raw,5.31355715e+05,6541,329
Raw,2.74483347e+05,6542,329
Raw,3.35330856e+05,6542,329
Raw,4.16374291e+05,6554,329
Raw,1.70096324e+05,6554,329
Raw,3.14642066e+05,6555,329
Raw,1.36779419e+05,6555,329
Raw,2.23865178e+05,6557,329
Raw,2.65453172e+05,6563,329
Raw,3.43956045e+05,6567,329
Raw,3.03653818e+05,6576,329
Raw,2.83079846e+05,6576,329
Raw,6.9248598e+05,6586,329
Raw,2.39092448e+05,6588,329
Raw,14491.658,6592,329
Raw,1.83460006e+05,6592,329
Raw,3.03260874e+05,6594,329
Raw,1.53876919e+05,6595,329
Raw,2.81702877e+05,6604,329
Raw,4.51630495e+05,6607,329
Raw,3.77185673e+05,6614,329
Raw,1.74236734e+05,6614,329
Raw,2.01301686e+05,6625,329
Raw,2.05123196e+05,6627,329
Raw,3.15774008e+05,6628,329
Raw,7.6860796e+05,6631,329
Raw,4.31461403e+05,6636,329
Raw,1.49819116e+05,6652,329
Raw,2.72108092e+05,6668,329
Raw,1.02952409e+05,6668,329
Raw,2.07389222e+05,6668,329
Raw,2.70108981e+05,6669,329
Raw,5.09328278e+05,6669,329
Raw,3.59679181e+05,6670,329
Raw,3.63967817e+05,6673,329
Raw,2.31278876e+05,6684,329
Raw,3.08643443e+05,6684,329
Raw,2.75313359e+05,6690,329
Raw,5.51057008e+05,6706,329
Raw,1.99535777e+05,6706,329
Raw,7.28648888e+05,6714,329
Raw,8.26422488e+05,6715,329
Raw,8.83994569e+05,6722,329
Raw,3.95405861e+05,6723,329
Raw,5.49867496e+05,6724,329
Raw,3.12901872e+05,6729,329
Raw,2.79796304e+05,6737,329
Raw,2.08131865e+05,6737,329
Raw,7.31060206e+05,6743,329
Raw,5.68035971e+05,6753,329
Raw,5.20893843e+05,6760,329
Raw,70102.22,6760,329
Raw,1.46818774e+05,6770,329
Raw,6.84789978e+05,6770,329
Raw,2.82634419e+05,6771,329
Raw,2.30382198e+05,6771,329
Raw,2.84615738e+05,6777,329
Raw,6.63703687e+05,6781,329
Raw,40991.298,6782,329
Raw,1.45923557e+05,6783,329
Raw,3.49441702e+05,6784,329
Raw,5.71328644e+05,6789,329
Raw,2.57710095e+05,6794,329
Raw,37878.277,6796,329
Raw,5.8180088e+05,6815,329
Raw,5.92364282e+05,6818,329
Raw,5.84796964e+05,6822,329
Raw,32878.32,6822,329
Raw,5.91553278e+05,6824,329
Raw,2.64826226e+05,6824,329
Raw,4.6781351e+05,6829,329
Raw,27098.875,6829,329
Raw,6.03448387e+05,6834,329
Raw,2.32893653e+05,6834,329
Raw,2.65182552e+05,6849,329
Raw,7.49576564e+05,6858,329
Raw,2.17785146e+05,6859,329
Raw,5.69816449e+05,6860,329
Raw,2.1346825e+05,6867,329
Raw,5.53261198e+05,6868,329
Raw,2.0176605e+05,6868,329
Raw,1.75550014e+05,6872,329
Raw,3.26221411e+05,6872,329
Raw,2.41724049e+05,6873,329
Raw,2.92478484e+05,6876,329
Raw,2.52146022e+05,6878,329
Raw,2.77550723e+05,6878,329
Raw,3.62758513e+05,6879,329
Raw,6.71873089e+05,6882,329
Raw,3.67003127e+05,6883,329
Raw,8.22895864e+05,6886,329
Raw,2.77446905e+05,6892,329
Raw,5.08721316e+05,6900,329
Raw,4.34715872e+05,6902,329
Raw,3.11456939e+05,6905,329
Raw,2.78509868e+05,6906,329
Raw,2.84622478e+05,6906,329
Raw,2.58209421e+05,6909,329
Raw,2.96310096e+05,6909,329
Raw,6.06953566e+05,6913,329
Raw,5.51610523e+05,6917,329
Raw,2.84176603e+05,6920,329
Raw,1.60626419e+05,6920,329
Raw,3.43403324e+05,6930,329
Raw,3.8881702e+05,6930,329
Raw,5.9421374e+05,6934,329
Raw,3.25693489e+05,6935,329
Raw,9.03078475e+05,6943,329
Raw,2.35336121e+05,6944,329
Raw,4.11341654e+05,6946,329
Raw,3.08798239e+05,6947,329
Raw,6.01779843e+05,6957,329
Raw,5.83682893e+05,6964,329
Raw,3.21929234e+05,6965,329
Raw,2.93017788e+05,6970,329
Raw,2.59400834e+05,6977,329
Raw,2.90919209e+05,6977,329
Raw,2.59363722e+05,6978,329
Raw,3.51787257e+05,6978,329
Raw,3.62927704e+05,6985,329
Raw,2.86300585e+05,6987,329
Raw,2.02917683e+05,6987,329
Raw,5.91769929e+05,6988,329
Raw,5.73881851e+05,6991,329
Raw,5.16404254e+05,6993,329
Raw,5.78605775e+05,7002,329
Raw,3.32319737e+05,7002,329
Raw,6.77548784e+05,7005,329
Raw,1.74475321e+05,7005,329
Raw,3.66351346e+05,7007,329
Raw,41677.939,7007,329
Raw,1.55670502e+05,7013,329
Raw,6.14032763e+05,7015,329
Raw,5.89656529e+05,7020,329
Raw,4.40945274e+05,7021,329
Raw,93537.08,7021,329
Raw,2.74865738e+05,7028,329
Raw,2.44540226e+05,7028,329
Raw,2.66369748e+05,7040,329
Raw,5.33122434e+05,7046,329
Raw,2.90359431e+05,7047,329
Raw,6.19551319e+05,7056,329
Raw,3.4855021e+05,7059,329
Raw,2.06741821e+05,7070,329
Raw,2.55177596e+05,7072,329
Raw,2.70057602e+05,7081,329
Raw,2.04609439e+05,7081,329
Raw,6.25961237e+05,7092,329
Raw,6.23975391e+05,7096,329
Raw,3.72158776e+05,7106,329
Raw,5.08711958e+05,7107,329
Raw,2.86614703e+05,7112,329
Raw,1.64501111e+05,7112,329
Raw,2.80690575e+05,7114,329
Raw,6.54240292e+05,7119,329
Raw,2.27325412e+05,7119,329
Raw,3.06484845e+05,7123,329
Raw,5426.421,7123,329
Raw,93007.156,7125,329
Raw,2.50258798e+05,7131,329
Raw,2.21248315e+05,7136,329
Raw,30080.991,7139,329
Raw,2.81267491e+05,7153,329
Raw,2.74629874e+05,7153,329
Raw,91697.291,7153,329
Raw,6.83727772e+05,7157,329
Raw,2.59900283e+05,7157,329
Raw,5.05728708e+05,7162,329
Raw,3.33402711e+05,7165,329
Raw,1.30678203e+05,7166,329
Raw,6.25702926e+05,7167,329
Raw,2.78085876e+05,7168,329
Raw,2.85626494e+05,7170,329
Raw,3.12683775e+05,7174,329
Raw,2.17235702e+05,7187,329
Raw,1.69623962e+05,7187,329
Raw,2.99484874e+05,7189,329
Raw,5.98982911e+05,7190,329
Raw,2.97928112e+05,7199,329
Raw,5.81859731e+05,7214,329
Raw,5.37142823e+05,7218,329
Raw,2.46948778e+05,7221,329
Raw,2.4823628e+05,7221,329
Raw,5.97883503e+05,7232,329
Raw,1.4960257e+05,7233,329
Raw,2.95019086e+05,7238,329
Raw,1.27489701e+05,7240,329
Raw,2.14647196e+05,7245,329
Raw,3.33322168e+05,7248,329
Raw,3.36381175e+05,7261,329
Raw,3.44171655e+05,7268,329
Raw,2.30788442e+05,7282,329
Raw,2.65262271e+05,7287,329
Raw,3.37444553e+05,7291,329
Raw,2.97602709e+05,7295,329
Raw,1.83934474e+05,7299,329
Raw,1.03012449e+05,7299,329
Raw,3.13675816e+05,7304,329
Raw,3.29427963e+05,7307,329
Raw,2.1392096e+05,7307,329
Raw,3.76830447e+05,7318,329
Raw,5.24820787e+05,7318,329
Raw,2.91543523e+05,7325,329
Raw,2.81091202e+05,7330,329
Raw,3.42608594e+05,7332,329
Raw,3.29351366e+05,7334,329
Raw,6.14846554e+05,7336,329
Raw,2.69522529e+05,7336,329
Raw,2.78342931e+05,7342,329
Raw,1.92028149e+05,7350,329
Raw,2.6423202e+05,7350,329
Raw,3.01461431e+05,7357,329
Raw,17572.892,7367,329
Raw,3.46868964e+05,7368,329
Raw,3.47082657e+05,7370,329
Raw,3.57046604e+05,7372,329
Raw,2.50679941e+05,7384,329
Raw,5.74331264e+05,7390,329
Raw,3.01873357e+05,7393,329
Raw,36334.359,7395,329
Raw,1.31718016e+05,7395,329
Raw,27082.753,7396,329
Raw,3.37678936e+05,7405,329
Raw,3.22887176e+05,7410,329
Raw,1.9544681e+05,7413,329
Raw,5.44805635e+05,7414,329
Raw,6017.0491,7414,329
Raw,3.28840757e+05,7418,329
Raw,2.98761541e+05,7419,329
Raw,2.6405629e+05,7420,329
Raw,3.32906822e+05,7423,329
Raw,7.75603169e+05,7435,329
Raw,3.75703214e+05,7436,329
Raw,3.16970014e+05,7436,329
Raw,88969.014,7443,329
Raw,2.24794876e+05,7444,329
Raw,1.66558109e+05,7445,329
Raw,3.19060284e+05,7464,329
Raw,5.87287795e+05,7469,329
Raw,2.76053761e+05,7472,329
Raw,6.22830867e+05,7472,329
Raw,3.33092589e+05,7478,329
Raw,2.60772113e+05,7482,329
Raw,6.48763356e+05,7485,329
Raw,1.35273081e+05,7489,329
Raw,7.00326474e+05,7493,329
Raw,6.49399552e+05,7496,329
Raw,3.23492062e+05,7502,329
Raw,1.10647994e+05,7502,329
Raw,5.5700177e+05,7507,329
Raw,3.31904597e+05,7520,329
Raw,1.9730334e+05,7520,329
Raw,52395.332,7521,329
Raw,6.02775305e+05,7533,329
Raw,2.91919998e+05,7535,329
Raw,2.20666833e+05,7542,329
Raw,2.34748849e+05,7545,329
Raw,2.39141948e+05,7547,329
Raw,7.42898902e+05,7548,329
Raw,4.06526177e+05,7552,329
Raw,5.82923537e+05,7554,329
Raw,2.88747012e+05,7567,329
Raw,3.25594296e+05,7567,329
Raw,3.32512095e+05,7592,329
Raw,2.97413186e+05,7595,329
Raw,6.00799379e+05,7598,329
Raw,6.10919678e+05,7601,329
Raw,2.70255291e+05,7607,329
Raw,3.13166382e+05,7609,329
Raw,7.63614115e+05,7644,329
Raw,2.78111214e+05,7649,329
Raw,7.02643421e+05,7651,329
Raw,3.35541429e+05,7655,329
Raw,2.3435106e+05,7656,329
Raw,1.55978242e+05,7656,329
Raw,1.62951844e+05,7658,329
Raw,1.5426757e+05,7664,329
Raw,2.81252791e+05,7664,329
Raw,1.72103333e+05,7668,329
Raw,2.51412507e+05,7668,329
Raw,38443.366,7684,329
Raw,2.511741e+05,7686,329
Raw,2.81744429e+05,7696,329
Raw,3.8789164e+05,7701,329
Raw,1.99062349e+05,7701,329
Raw,1.18678215e+05,7702,329
Raw,2.67267265e+05,7707,329
Raw,5.5669313e+05,7714,329
Raw,3.26468679e+05,7717,329
Raw,3.50382395e+05,7722,329
Raw,2.88010984e+05,7731,329
Raw,26885.717,7741,329
Raw,1.39178122e+05,7741,329
Raw,3.63710631e+05,7746,329
Raw,6.59905871e+05,7760,329
Raw,2.28038349e+05,7761,329
Raw,3.14059986e+05,7761,329
Raw,2.7633636e+05,7771,329
Raw,1.34470451e+05,7778,329
Raw,5.17559465e+05,7779,329
Raw,10758.78,7779,329
Raw,3.39636037e+05,7782,329
Raw,3.24791295e+05,7811,329
Raw,3.71044714e+05,7815,329
Raw,3.2153749e+05,7816,329
Raw,7.97485748e+05,7826,329
Raw,3.34127386e+05,7836,329
Raw,7.52143856e+05,7838,329
Raw,3.24931546e+05,7838,329
Raw,3.18206141e+05,7848,329
Raw,3.49954504e+05,7857,329
Raw,3.23521026e+05,7861,329
Raw,1.47600567e+05,7861,329
Raw,3.26167352e+05,7862,329
Raw,3.34110361e+05,7872,329
Raw,20991.345,7875,329
Raw,79779.467,7875,329
Raw,5.8631348e+05,7880,329
Raw,3.56521654e+05,7887,329
Raw,1.05272532e+05,7893,329
Raw,34830.979,7914,329
Raw,2.27938557e+05,7918,329
Raw,3.14880815e+05,7918,329
Raw,3.77250828e+05,7927,329
Raw,6.11750595e+05,7929,329
Raw,2.59457585e+05,7930,329
Raw,2.88062736e+05,7933,329
Raw,3.68452093e+05,7935,329
Raw,6.62449297e+05,7936,329
Raw,2.68530481e+05,7942,329
Raw,2.38316496e+05,7945,329
Raw,2.5724414e+05,7952,329
Raw,6.13039576e+05,7953,329
Raw,5.86260929e+05,7959,329
Raw,2.19078953e+05,7963,329
Raw,2.44928011e+05,7963,329
Raw,3.51694949e+05,7964,329
Raw,5.680807e+05,7965,329
Raw,3.46335529e+05,7967,329
Raw,2.95670935e+05,7972,329
Raw,3.7192047e+05,7977,329
Raw,3.12485975e+05,7979,329
Raw,5.82032481e+05,7983,329
Raw,3.30510874e+05,7994,329
Raw,2.43372998e+05,7996,329
Raw,3.02034231e+05,8001,329
Raw,6.24422662e+05,8006,329
Raw,2.86225948e+05,8012,329
Raw,2.61970456e+05,8013,329
Raw,6.27425366e+05,8015,329
Raw,5.9217e+05,8017,329
Raw,6.13569235e+05,8020,329
Raw,3.10078314e+05,8023,329
Raw,4.51804093e+05,8032,329
Raw,2.03848339e+05,8032,329
Raw,2.48659511e+05,8035,329
Raw,3.23618402e+05,8046,329
Raw,3.43429316e+05,8060,329
Raw,3.54532086e+05,8062,329
Raw,4.0694387e+05,8063,329
Raw,2.69941012e+05,8063,329
Raw,1.79453491e+05,8070,329
Raw,1.85969848e+05,8096,329
Raw,3.14872623e+05,8125,329
Raw,3.88422481e+05,8152,329
Raw,3.33540498e+05,8186,329
Raw,5.06906716e+05,8186,329
Raw,2.93043829e+05,8189,329
Raw,2.38065795e+05,8189,329
Raw,2.52291411e+05,8190,329
Raw,3.18779223e+05,8195,329
Raw,3.13523165e+05,8212,329
Raw,6.12454794e+05,8213,329
Raw,2.81743783e+05,8214,329
Raw,51589.044,8220,329
Raw,2.42469607e+05,8220,329
Raw,6.009417e+05,8228,329
Raw,3.74964681e+05,8234,329
Raw,2.28416857e+05,8236,329
Raw,2.73608776e+05,8248,329
Raw,1.99463688e+05,8249,329
Raw,5.80097577e+05,8253,329
Raw,5.55196679e+05,8257,329
Raw,6.08039281e+05,8267,329
Raw,1.19616805e+05,8267,329
Raw,4.96745307e+05,8276,329
Raw,5.50469818e+05,8277,329
Raw,1.90872123e+05,8277,329
Raw,6.63198114e+05,8281,329
Raw,27955.82,8293,329
Raw,3.0819871e+05,8297,329
Raw,2.36534203e+05,8301,329
Raw,2.27248865e+05,8304,329
Raw,2.05300855e+05,8304,329
Raw,18879.491,8309,329
Raw,8.67836866e+05,8314,329
Raw,7.47239169e+05,8323,329
Raw,10732.553,8329,329
Raw,2.72062013e+05,8340,329
Raw,3.49383284e+05,8340,329
Raw,2.38646651e+05,8344,329
Raw,3.38523947e+05,8344,329
Raw,2.8936143e+05,8352,329
Raw,3.00587e+05,8352,329
Raw,5.67471471e+05,8362,329
Raw,3.48635164e+05,8363,329
Raw,3.70401615e+05,8365,329
Raw,3.59613424e+05,8367,329
Raw,89701.071,8372,329
Raw,3.33436215e+05,8377,329
Raw,3.35178294e+05,8378,329
Raw,3.1913958e+05,8388,329
Raw,2.66370573e+05,8391,329
Raw,3.01145616e+05,8399,329
Raw,3.43550753e+05,8399,329
Raw,2.8065592e+05,8405,329
Raw,3.04947316e+05,8417,329
Raw,7.30150751e+05,8420,329
Raw,5.22880482e+05,8421,329
Raw,6.03968676e+05,8423,329
Raw,2.51913679e+05,8425,329
Raw,2.68373214e+05,8429,329
Raw,6.9180637e+05,8442,329
Raw,3.42197354e+05,8443,329
Raw,3.04566363e+05,8443,329
Raw,3.01087539e+05,8445,329
Raw,3.04418054e+05,8446,329
Raw,1.96898364e+05,8446,329
Raw,9530.7938,8449,329
Raw,2.61358268e+05,8450,329
Raw,2.94871576e+05,8458,329
Raw,2.1449255e+05,8459,329
Raw,3.07322388e+05,8473,329
Raw,1.05549519e+05,8480,329
Raw,3.3220901e+05,8483,329
Raw,2.80146507e+05,8491,329
Raw,1.02401936e+05,8494,329
Raw,6.16273526e+05,8496,329
Raw,3.16977869e+05,8504,329
Raw,5.00492048e+05,8506,329
Raw,3.03531464e+05,8507,329
Raw,2.82410859e+05,8516,329
Raw,7907.9248,8519,329
Raw,3.58200569e+05,8520,329
Raw,2.58447385e+05,8522,329
Raw,3.89138098e+05,8527,329
Raw,4.95490448e+05,8532,329
Raw,3.46212727e+05,8532,329
Raw,5.69789676e+05,8535,329
Raw,4.04511342e+05,8540,329
Raw,6.87065663e+05,8541,329
Raw,1.11604033e+05,8547,329
Raw,6.07602252e+05,8553,329
Raw,1.90532462e+05,8557,329
Raw,2.36915887e+05,8584,329
Raw,6.20875185e+05,8591,329
Raw,3.80587574e+05,8602,329
Raw,2.63050638e+05,8602,329
Raw,4.32555867e+05,8625,329
Raw,49341.332,8639,329
Raw,3.81919342e+05,8645,329
Raw,2.91950938e+05,8645,329
Raw,3.07193595e+05,8647,329
Raw,2.28144602e+05,8651,329
Raw,3.27526801e+05,8656,329
Raw,3.49420344e+05,8665,329
Raw,4.28026431e+05,8670,329
Raw,2.59658983e+05,8675,329
Raw,3.74200512e+05,8696,329
Raw,3.20042054e+05,8700,329
Raw,2.67996309e+05,8700,329
Raw,6.23057749e+05,8706,329
Raw,2.13377287e+05,8706,329
Raw,67714.952,8715,329
Raw,5.32278465e+05,8725,329
Raw,2.72539525e+05,8729,329
Raw,6.1485732e+05,8731,329
Raw,3.4701514e+05,8733,329
Raw,2.51440179e+05,8733,329
Raw,4.20827215e+05,8738,329
Raw,3.22495813e+05,8740,329
Raw,5.87636035e+05,8742,329
Raw,9.01754308e+05,8744,329
Raw,3.0269958e+05,8749,329
Raw,2.30264203e+05,8752,329
Raw,2.26264652e+05,8771,329
Raw,2.08818171e+05,8771,329
Raw,2.65367313e+05,8775,329
Raw,1.59115728e+05,8779,329
Raw,7.93737452e+05,8793,329
Raw,41175.589,8797,329
Raw,3.26191237e+05,8800,329
Raw,2.80746961e+05,8803,329
Raw,3.35259743e+05,8806,329
Raw,3.54816713e+05,8806,329
Raw,3.20440649e+05,8825,329
Raw,3.18265362e+05,8833,329
Raw,29049.249,8836,329
Raw,3.41624533e+05,8837,329
Raw,5.4898676e+05,8839,329
Raw,3.1200357e+05,8844,329
Raw,3.30524402e+05,8845,329
Raw,3.04083892e+05,8846,329
Raw,6.13402624e+05,8848,329
Raw,2.7813825e+05,8857,329
Raw,2.97383727e+05,8864,329
Raw,2.52157775e+05,8871,329
Raw,3.25402412e+05,8871,329
Raw,2.73638195e+05,8871,329
Raw,5.13580562e+05,8876,329
Raw,2.64384787e+05,8881,329
Raw,2.47394665e+05,8882,329
Raw,5.34135188e+05,8890,329
Raw,2.56748193e+05,8897,329
Raw,87717.272,8898,329
Raw,2.59575994e+05,8901,329
Raw,7.5525942e+05,8901,329
Raw,2.42063606e+05,8901,329
Raw,6.70772142e+05,8905,329
Raw,3.55923321e+05,8911,329
Raw,2.9332011e+05,8911,329
Raw,3.04809854e+05,8911,329
Raw,3.36606218e+05,8915,329
Raw,3.10181541e+05,8938,329
Raw,5.66639862e+05,8940,329
Raw,7.65086081e+05,8948,329
Raw,3.41513719e+05,8955,329
Raw,3.10526096e+05,8955,329
Raw,90535.729,8956,329
Raw,2.94826864e+05,8969,329
Raw,3.76413474e+05,8972,329
Raw,2.35939527e+05,8972,329
Raw,3.06688465e+05,8973,329
Raw,2.32519095e+05,8977,329
Raw,2.66637129e+05,8980,329
Raw,5.0221512e+05,8986,329
Raw,2.2684955e+05,8987,329
Raw,6.47085606e+05,8987,329
Raw,5.41515198e+05,8992,329
Raw,4.75474279e+05,8992,329
Raw,3.09706439e+05,8993,329
Raw,3.0177966e+05,9006,329
Raw,2.77941623e+05,9010,329
Raw,3.5489654e+05,9012,329
Raw,3.53756376e+05,9016,329
Raw,6.77459971e+05,9016,329
Raw,2.8391132e+05,9019,329
Raw,2.05566223e+05,9021,329
Raw,7.88832465e+05,9028,329
Raw,2.49772241e+05,9028,329
