Cut?,Counts,eventNumber,runNumber
Raw,1.44821895e+05,0,332
Raw,1.73818194e+05,1,332
Raw,1.46717834e+05,2,332
Raw,1.46964424e+05,3,332
Raw,1.5061766e+05,4,332
Raw,2.81246249e+05,5,332
Raw,1.7312213e+05,6,332
Raw,4.06829294e+05,10,332
Raw,1.65518543e+05,11,332
Raw,2.29365953e+05,14,332
Raw,2.03082971e+05,14,332
Raw,1.5158235e+05,15,332
Raw,3.35678762e+05,17,332
Raw,3.21152254e+05,18,332
Raw,2.07487276e+05,19,332
Raw,1.98664941e+05,21,332
Raw,1.46261333e+05,22,332
Raw,1.4758957e+05,23,332
Raw,1.63485814e+05,24,332
Raw,91760.699,24,332
Raw,1.53029532e+05,25,332
Raw,3.77432832e+05,26,332
Raw,21689.353,28,332
Raw,1.52306009e+05,28,332
Raw,1.3540335e+05,29,332
Raw,1.04213877e+05,30,332
Raw,2.5215496e+05,30,332
Raw,4.27114477e+05,31,332
Raw,1.56244878e+05,32,332
Raw,2.76600995e+05,33,332
Raw,1.57435341e+05,34,332
Raw,4.42688624e+05,35,332
Raw,49802.08,35,332
Raw,1.2755855e+05,37,332
Raw,1.37361594e+05,38,332
Raw,1.0161861e+05,38,332
Raw,1.80298486e+05,39,332
Raw,2.40171958e+05,40,332
Raw,3.24123989e+05,41,332
Raw,1.31067321e+05,42,332
Raw,1.44093195e+05,43,332
Raw,2.44695978e+05,45,332
Raw,1.52374109e+05,46,332
Raw,3.20548064e+05,47,332
Raw,3.03334186e+05,48,332
Raw,1.59984662e+05,49,332
Raw,3.93015563e+05,50,332
Raw,3.72790512e+05,51,332
Raw,2.78442152e+05,53,332
Raw,1.43058325e+05,53,332
Raw,1.22185701e+05,53,332
Raw,1.3765401e+05,55,332
Raw,1.07962539e+05,56,332
Raw,2.62541303e+05,56,332
Raw,1.42433078e+05,57,332
Raw,1.37626677e+05,57,332
Raw,1.65382729e+05,58,332
Raw,3.68439637e+05,59,332
Raw,69038.442,59,332
Raw,3.97162812e+05,60,332
Raw,2.50405286e+05,62,332
Raw,2.79663404e+05,63,332
Raw,3.18372823e+05,64,332
Raw,2.35378332e+05,65,332
Raw,2.80464511e+05,66,332
Raw,4.00299245e+05,67,332
Raw,2.42749417e+05,68,332
Raw,1.32466932e+05,69,332
Raw,1.55079083e+05,70,332
Raw,1.30967112e+05,71,332
Raw,1.42691687e+05,71,332
Raw,2.50370793e+05,72,332
Raw,1.83024561e+05,73,332
Raw,4.0993016e+05,74,332
Raw,2.897169e+05,75,332
Raw,2.34274928e+05,75,332
Raw,3.49234307e+05,76,332
Raw,3.64229576e+05,78,332
Raw,1.10219289e+05,78,332
Raw,4.44730862e+05,79,332
Raw,1.35713266e+05,79,332
Raw,2.2661671e+05,80,332
Raw,2.35040818e+05,81,332
Raw,3.43945895e+05,82,332
Raw,1.62485185e+05,83,332
Raw,2.98295479e+05,84,332
Raw,3.08443142e+05,84,332
Raw,1.44019989e+05,85,332
Raw,1.23841769e+05,86,332
Raw,1.49510853e+05,87,332
Raw,3.74982353e+05,88,332
Raw,1.58340094e+05,89,332
Raw,81811.69,90,332
Raw,1.43155078e+05,90,332
Raw,1.64323384e+05,91,332
Raw,97393.716,91,332
Raw,1.46111019e+05,92,332
Raw,1.46421679e+05,93,332
Raw,1.53672179e+05,94,332
Raw,1.3898299e+05,95,332
Raw,2.62124725e+05,96,332
Raw,1.63566279e+05,97,332
Raw,1.62781551e+05,98,332
Raw,2.30253391e+05,99,332
Raw,2.77675168e+05,99,332
Raw,1.22913687e+05,100,332
Raw,2.26008567e+05,101,332
Raw,1.24498975e+05,103,332
Raw,1.37010309e+05,104,332
Raw,2.2282774e+05,105,332
Raw,1.14091067e+05,105,332
Raw,3.07015406e+05,106,332
Raw,1.52396745e+05,107,332
Raw,89532.442,108,332
Raw,1.63682203e+05,108,332
Raw,1.33914391e+05,109,332
Raw,3782.6241,109,332
Raw,1.01978287e+05,111,332
Raw,2.25558327e+05,111,332
Raw,2.30407689e+05,112,332
Raw,1.64878715e+05,113,332
Raw,1.64706671e+05,116,332
Raw,1.20478469e+05,116,332
Raw,3.29168047e+05,118,332
Raw,1.35694318e+05,119,332
Raw,2.3383475e+05,121,332
Raw,2.5064591e+05,122,332
Raw,1.35104089e+05,123,332
Raw,1.38454018e+05,124,332
Raw,1.49378455e+05,125,332
Raw,1.49999368e+05,126,332
Raw,1.32802551e+05,127,332
Raw,1.96277852e+05,127,332
Raw,1.17242656e+05,127,332
Raw,2.80344473e+05,128,332
Raw,1.35564749e+05,129,332
Raw,49323.151,130,332
Raw,1.47594618e+05,130,332
Raw,2.07764914e+05,132,332
Raw,1.50446406e+05,133,332
Raw,2.71480591e+05,134,332
Raw,2.68699575e+05,135,332
Raw,3.18713824e+05,136,332
Raw,1.38899463e+05,137,332
Raw,2.37797874e+05,138,332
Raw,1.73374942e+05,139,332
Raw,1.53986413e+05,140,332
Raw,1.24184248e+05,140,332
Raw,1.9130373e+05,141,332
Raw,1.48502566e+05,143,332
Raw,70474.479,143,332
Raw,1.45477829e+05,144,332
Raw,1.54641422e+05,145,332
Raw,1.20577144e+05,146,332
Raw,2.70310145e+05,147,332
Raw,1.71789279e+05,148,332
Raw,1.22450318e+05,149,332
Raw,1.75587558e+05,150,332
Raw,4.38723189e+05,152,332
Raw,1.32576155e+05,152,332
Raw,2.78605029e+05,154,332
Raw,2.32314538e+05,155,332
Raw,1.2965297e+05,155,332
Raw,53761.421,157,332
Raw,2.19173265e+05,157,332
Raw,1.35285862e+05,158,332
Raw,2.37794482e+05,158,332
Raw,1.35331624e+05,159,332
Raw,1.37888464e+05,162,332
Raw,2.32728208e+05,163,332
Raw,3.30888297e+05,164,332
Raw,1.48215548e+05,165,332
Raw,2.63106739e+05,166,332
Raw,3.7782404e+05,167,332
Raw,95793.128,167,332
Raw,2.93779719e+05,168,332
Raw,4.15534207e+05,170,332
Raw,1.13585853e+05,170,332
Raw,1.78812998e+05,171,332
Raw,4.26241177e+05,172,332
Raw,3.38193927e+05,174,332
Raw,1.53869152e+05,175,332
Raw,1.58416825e+05,176,332
Raw,1.45939919e+05,177,332
Raw,3.43897099e+05,178,332
Raw,1.74564411e+05,179,332
Raw,1.58468116e+05,180,332
Raw,1.97603603e+05,181,332
Raw,1.93826722e+05,182,332
Raw,1.20808983e+05,183,332
Raw,1.7420088e+05,183,332
Raw,2.80536709e+05,184,332
Raw,1.0513241e+05,184,332
Raw,86224.129,184,332
Raw,1.58444173e+05,186,332
Raw,3.94211027e+05,187,332
Raw,1.63146707e+05,188,332
Raw,1.44184394e+05,189,332
Raw,1.42917878e+05,190,332
Raw,2.46468951e+05,191,332
Raw,1.8384429e+05,192,332
Raw,2.41149078e+05,193,332
Raw,1.08822256e+05,194,332
Raw,1.52674413e+05,194,332
Raw,1.5942861e+05,195,332
Raw,1.08604382e+05,196,332
Raw,1.38750712e+05,196,332
Raw,1.70911076e+05,198,332
Raw,2.72745972e+05,199,332
Raw,3.58926382e+05,200,332
Raw,1.60554134e+05,200,332
Raw,2.47816962e+05,201,332
Raw,1.50969139e+05,202,332
Raw,1.49932974e+05,203,332
Raw,1.20826491e+05,204,332
Raw,1.35558298e+05,204,332
Raw,2.1688364e+05,205,332
Raw,1.55264622e+05,207,332
Raw,1.30019287e+05,209,332
Raw,1.45442503e+05,210,332
Raw,1.68735823e+05,211,332
Raw,3.60898039e+05,214,332
Raw,2.49546597e+05,215,332
Raw,1.22004753e+05,216,332
Raw,2.19366933e+05,217,332
Raw,1.27817162e+05,217,332
Raw,1.39320651e+05,218,332
Raw,2.92714335e+05,219,332
Raw,1.50178133e+05,220,332
Raw,3.01724143e+05,222,332
Raw,3.70374417e+05,224,332
Raw,3.30374854e+05,225,332
Raw,3.56429455e+05,226,332
Raw,1.19301527e+05,226,332
Raw,1.5605686e+05,227,332
Raw,1.85738303e+05,228,332
Raw,1.38041787e+05,230,332
Raw,1.31644918e+05,231,332
Raw,1.50210799e+05,232,332
Raw,1.51365121e+05,234,332
Raw,1.52151118e+05,235,332
Raw,1.98512102e+05,236,332
Raw,1.1971173e+05,236,332
Raw,3.16424775e+05,237,332
Raw,3.72976158e+05,238,332
Raw,1.48872655e+05,238,332
Raw,1.82790558e+05,239,332
Raw,1.39814797e+05,240,332
Raw,2.94314771e+05,241,332
Raw,4.31797976e+05,242,332
Raw,1.42782912e+05,243,332
Raw,3.60735749e+05,244,332
Raw,1.3061984e+05,244,332
Raw,1.52951271e+05,246,332
Raw,1.69647654e+05,247,332
Raw,2.38900041e+05,248,332
Raw,2.56840783e+05,249,332
Raw,1.77623462e+05,250,332
Raw,54930.977,250,332
Raw,2.15005401e+05,252,332
Raw,1.42150843e+05,253,332
Raw,1.38144703e+05,256,332
Raw,1.70393923e+05,257,332
Raw,1.60791816e+05,258,332
Raw,3.95319095e+05,259,332
Raw,1.80878112e+05,260,332
Raw,2.76858723e+05,261,332
Raw,1.39597339e+05,262,332
Raw,2.44198152e+05,263,332
Raw,1.53645431e+05,264,332
Raw,1.81165238e+05,265,332
Raw,1.35179261e+05,267,332
Raw,2.95140153e+05,269,332
Raw,1.93965135e+05,270,332
Raw,46023.069,270,332
Raw,2.56939545e+05,271,332
Raw,2.72693792e+05,272,332
Raw,1.150183e+05,272,332
Raw,3.97102923e+05,273,332
Raw,2.50175224e+05,274,332
Raw,1.43545232e+05,275,332
Raw,1.45081113e+05,275,332
Raw,3.57292464e+05,276,332
Raw,1.49243929e+05,278,332
Raw,1.26515547e+05,279,332
Raw,1.64653283e+05,280,332
Raw,1.31043226e+05,281,332
Raw,3.22760571e+05,282,332
Raw,2.05224812e+05,283,332
Raw,2.39036015e+05,284,332
Raw,1.39215531e+05,285,332
Raw,81839.139,285,332
Raw,1.30348149e+05,286,332
Raw,1.50702432e+05,287,332
Raw,1.54205175e+05,289,332
Raw,1.38010339e+05,292,332
Raw,3.14662181e+05,293,332
Raw,1.14727271e+05,294,332
Raw,4.21439135e+05,295,332
Raw,1.26755837e+05,297,332
Raw,2.27516848e+05,299,332
Raw,1.58661994e+05,300,332
Raw,1.54042268e+05,301,332
Raw,2.83093997e+05,302,332
Raw,1.37385567e+05,303,332
Raw,2.56453829e+05,304,332
Raw,2.95049197e+05,304,332
Raw,1.48606896e+05,305,332
Raw,1.29929745e+05,307,332
Raw,2.41703796e+05,308,332
Raw,2.77079374e+05,309,332
Raw,3.62027551e+05,310,332
Raw,90167.709,310,332
Raw,65819.855,311,332
Raw,2.88616974e+05,311,332
Raw,1.65618395e+05,312,332
Raw,1.37578088e+05,313,332
Raw,49577.971,314,332
Raw,1.55068218e+05,315,332
Raw,2.57525229e+05,316,332
Raw,1.47770727e+05,318,332
Raw,2.48722495e+05,319,332
Raw,1.39831539e+05,320,332
Raw,2.43036617e+05,320,332
Raw,1.51410393e+05,321,332
Raw,1.89752279e+05,322,332
Raw,1.45742551e+05,323,332
Raw,1.92401105e+05,324,332
Raw,3.01443291e+05,325,332
Raw,1.39041909e+05,325,332
Raw,1.422905e+05,326,332
Raw,1.53862662e+05,327,332
Raw,1.34811155e+05,327,332
Raw,1.92310597e+05,328,332
Raw,1.46892738e+05,329,332
Raw,1.56454327e+05,330,332
Raw,2.79068834e+05,331,332
Raw,1.45841142e+05,332,332
Raw,3.77738029e+05,333,332
Raw,3.09782381e+05,334,332
Raw,1.65254081e+05,335,332
Raw,3.86372616e+05,336,332
Raw,2.82909346e+05,337,332
Raw,3.6731851e+05,338,332
Raw,1.76053261e+05,340,332
Raw,2.84794235e+05,341,332
Raw,2.8479853e+05,342,332
Raw,2.6150525e+05,343,332
Raw,1.41553309e+05,344,332
Raw,1.77088402e+05,344,332
Raw,2.85538335e+05,345,332
Raw,81525.759,345,332
Raw,2.36573687e+05,347,332
Raw,2.96547688e+05,347,332
Raw,1.63846563e+05,348,332
Raw,2.65359468e+05,349,332
Raw,1.71000862e+05,350,332
Raw,1.19705296e+05,350,332
Raw,2.91812132e+05,351,332
Raw,1.38759485e+05,352,332
Raw,1.58258121e+05,353,332
Raw,2.66022346e+05,354,332
Raw,3.35501361e+05,355,332
Raw,2.66920105e+05,355,332
Raw,2.60010977e+05,356,332
Raw,56687.794,356,332
Raw,1.31456108e+05,357,332
Raw,95782.553,357,332
Raw,1.40773984e+05,358,332
Raw,2.57379618e+05,359,332
Raw,2.34986786e+05,362,332
Raw,1.45111536e+05,363,332
Raw,1.44374724e+05,364,332
Raw,1.5180674e+05,365,332
Raw,1.41391406e+05,366,332
Raw,56227.939,366,332
Raw,2.54843407e+05,367,332
Raw,2.44321084e+05,368,332
Raw,59812.013,368,332
Raw,1.30328729e+05,369,332
Raw,4.03723143e+05,370,332
Raw,1.67450157e+05,371,332
Raw,3.54000769e+05,372,332
Raw,1.40644124e+05,373,332
Raw,4.09055917e+05,374,332
Raw,3.98783047e+05,375,332
Raw,3.12718944e+05,377,332
Raw,1.50889637e+05,378,332
Raw,1.39836667e+05,381,332
Raw,1.35330378e+05,384,332
Raw,1.28204815e+05,386,332
Raw,1.41165802e+05,389,332
Raw,2.23384399e+05,390,332
Raw,1.67907603e+05,391,332
Raw,2.50262351e+05,392,332
Raw,1.5236822e+05,393,332
Raw,1.30175369e+05,394,332
Raw,1.64441614e+05,395,332
Raw,1.39816255e+05,396,332
Raw,1.4573703e+05,397,332
Raw,1.43709592e+05,398,332
Raw,1.9810911e+05,399,332
Raw,4.00629935e+05,400,332
Raw,2.15821559e+05,400,332
Raw,1.21678689e+05,401,332
Raw,4.10622712e+05,401,332
Raw,1.35746686e+05,402,332
Raw,2.37896132e+05,403,332
Raw,1.40768497e+05,405,332
Raw,1.81406359e+05,407,332
Raw,1.25801068e+05,407,332
Raw,2.82577394e+05,408,332
Raw,1.29822336e+05,411,332
Raw,3.24950839e+05,412,332
Raw,2.41762125e+05,413,332
Raw,1.77601275e+05,414,332
Raw,3.77153282e+05,416,332
Raw,1.42291572e+05,417,332
Raw,1.01863987e+05,417,332
Raw,1.55044266e+05,418,332
Raw,1.81929876e+05,419,332
Raw,46737.143,419,332
Raw,1.47044705e+05,421,332
Raw,1.47632455e+05,422,332
Raw,1.98531236e+05,423,332
Raw,99001.73,423,332
Raw,4.30909935e+05,424,332
Raw,3.26159747e+05,425,332
Raw,3.05372846e+05,426,332
Raw,1.68623472e+05,427,332
Raw,1.43020651e+05,428,332
Raw,1.63169032e+05,429,332
Raw,1.0005465e+05,429,332
Raw,4.27591692e+05,431,332
Raw,2.26243522e+05,432,332
Raw,40268.549,432,332
Raw,1.57293081e+05,434,332
Raw,1.37818109e+05,434,332
Raw,3.61084481e+05,436,332
Raw,2.76030217e+05,439,332
Raw,2.93926471e+05,440,332
Raw,2.65145645e+05,441,332
Raw,2.73557327e+05,442,332
Raw,1.63012237e+05,443,332
Raw,1.34999637e+05,444,332
Raw,84071.77,444,332
Raw,1.54411821e+05,445,332
Raw,1.32812795e+05,446,332
Raw,2.24979191e+05,447,332
Raw,2.9358383e+05,448,332
Raw,2.53598423e+05,449,332
Raw,1.27041552e+05,450,332
Raw,1.40037786e+05,450,332
Raw,2.52424902e+05,451,332
Raw,1.08967359e+05,452,332
Raw,1.60412323e+05,452,332
Raw,1.23631694e+05,452,332
Raw,1.38526523e+05,453,332
Raw,1.27997417e+05,454,332
Raw,1.70742446e+05,455,332
Raw,1.38698805e+05,456,332
Raw,1.60513161e+05,457,332
Raw,2.90004136e+05,458,332
Raw,1.61469817e+05,459,332
Raw,1.33226557e+05,460,332
Raw,2.52070126e+05,460,332
Raw,1.5103769e+05,461,332
Raw,3.19619885e+05,462,332
Raw,2.7802851e+05,463,332
Raw,83325.181,463,332
Raw,2.40963095e+05,464,332
Raw,1.56405773e+05,465,332
Raw,1.33415746e+05,465,332
Raw,1.37488653e+05,466,332
Raw,1.92997788e+05,467,332
Raw,3.62228315e+05,468,332
Raw,2.0429482e+05,469,332
Raw,1.43399593e+05,469,332
Raw,1.41138593e+05,470,332
Raw,1.41754268e+05,471,332
Raw,2.9743493e+05,472,332
Raw,1.41649418e+05,473,332
Raw,1.84725988e+05,474,332
Raw,1.58283535e+05,475,332
Raw,1.48917309e+05,476,332
Raw,3.36294309e+05,477,332
Raw,1.37404011e+05,479,332
Raw,1.77986083e+05,480,332
Raw,1.48836407e+05,481,332
Raw,2.02903301e+05,482,332
Raw,1.42253654e+05,483,332
Raw,4.07871355e+05,484,332
Raw,1.61572774e+05,485,332
Raw,1.30393239e+05,486,332
Raw,1.1428766e+05,486,332
Raw,1.50898822e+05,487,332
Raw,3.0970509e+05,488,332
Raw,3.03072731e+05,489,332
Raw,1.46310725e+05,491,332
Raw,3.44871883e+05,492,332
Raw,1.24762804e+05,492,332
Raw,2.86892375e+05,493,332
Raw,98844.599,494,332
Raw,3.00256795e+05,494,332
Raw,1.67831286e+05,495,332
Raw,1.28120688e+05,495,332
Raw,1.8313262e+05,497,332
Raw,2.30056671e+05,497,332
Raw,1.68260491e+05,498,332
Raw,2.39811283e+05,499,332
Raw,1.53734081e+05,501,332
Raw,2.74308037e+05,505,332
Raw,3.01271713e+05,506,332
Raw,3.17032887e+05,508,332
Raw,1.06924698e+05,508,332
Raw,2.95133083e+05,509,332
Raw,2.15747331e+05,509,332
Raw,1.48782959e+05,511,332
Raw,2.19880773e+05,512,332
Raw,3.63045891e+05,514,332
Raw,96463.955,516,332
Raw,2.43533882e+05,517,332
Raw,2.0692708e+05,517,332
Raw,88542.475,517,332
Raw,1.33516044e+05,518,332
Raw,1.05688207e+05,518,332
Raw,88293.431,518,332
Raw,1.29895396e+05,519,332
Raw,1.46476992e+05,520,332
Raw,1.50842666e+05,520,332
Raw,1.58463342e+05,521,332
Raw,1.3076957e+05,522,332
Raw,1.51603505e+05,524,332
Raw,2.73196262e+05,524,332
Raw,54427.665,525,332
Raw,1.30872574e+05,525,332
Raw,1.39658217e+05,526,332
Raw,1.43661114e+05,527,332
Raw,1.6490019e+05,528,332
Raw,3.93704046e+05,529,332
Raw,51944.832,529,332
Raw,2.33161304e+05,530,332
Raw,1.60536572e+05,531,332
Raw,1.45180834e+05,532,332
Raw,1.2327426e+05,532,332
Raw,3.12703059e+05,535,332
Raw,2.78285203e+05,536,332
Raw,1.64195708e+05,537,332
Raw,3.70819439e+05,538,332
Raw,2.38620057e+05,538,332
Raw,4.45627006e+05,539,332
Raw,2.78819567e+05,540,332
Raw,1.60254988e+05,541,332
Raw,1.39456363e+05,543,332
Raw,1.30996662e+05,544,332
Raw,1.01126365e+05,544,332
Raw,3.08045675e+05,545,332
Raw,1.12865215e+05,545,332
Raw,2.58153348e+05,547,332
Raw,1.51938103e+05,548,332
Raw,2.44289721e+05,549,332
Raw,1.49135463e+05,550,332
Raw,1.66265501e+05,551,332
Raw,77063.201,551,332
Raw,3.01875899e+05,552,332
Raw,1.33027851e+05,553,332
Raw,1.71840765e+05,555,332
Raw,2.81974908e+05,556,332
Raw,62032.674,556,332
Raw,1.29886292e+05,557,332
Raw,1.19905343e+05,558,332
Raw,2.34653384e+05,558,332
Raw,4.35187934e+05,559,332
Raw,1.35723274e+05,560,332
Raw,4.08186391e+05,562,332
Raw,75208.922,562,332
Raw,3.03889759e+05,563,332
Raw,2.03447259e+05,564,332
Raw,4.3485354e+05,566,332
Raw,1.41162529e+05,567,332
Raw,2.73260098e+05,568,332
Raw,1.36208949e+05,569,332
Raw,1.33680607e+05,569,332
Raw,1.42653103e+05,570,332
Raw,1.36636761e+05,571,332
Raw,1.43308171e+05,572,332
Raw,3.54003653e+05,573,332
Raw,1.72226339e+05,574,332
Raw,71357.515,574,332
Raw,1.3065602e+05,575,332
Raw,70582.378,575,332
Raw,1.66790636e+05,576,332
Raw,1.54268695e+05,577,332
Raw,2.33619869e+05,577,332
Raw,1.5240104e+05,578,332
Raw,1.75865748e+05,581,332
Raw,1.41248284e+05,582,332
Raw,1.24872077e+05,583,332
Raw,3.01857726e+05,584,332
Raw,93674.916,587,332
Raw,2.37769171e+05,587,332
Raw,65236.332,587,332
Raw,2.93923822e+05,588,332
Raw,1.23849701e+05,588,332
Raw,1.44297149e+05,589,332
Raw,1.92986666e+05,590,332
Raw,41416.183,590,332
Raw,1.48099087e+05,591,332
Raw,2.30128216e+05,591,332
Raw,1.50456209e+05,592,332
Raw,2.95671119e+05,593,332
Raw,1.46560265e+05,594,332
Raw,78712.586,595,332
Raw,1.66442805e+05,596,332
Raw,1.24268739e+05,596,332
Raw,4.05666253e+05,597,332
Raw,1.36806683e+05,598,332
Raw,1.55445513e+05,598,332
Raw,1.8893501e+05,599,332
Raw,1.50691402e+05,600,332
Raw,1.149924e+05,601,332
Raw,1.56934132e+05,601,332
Raw,1.54956925e+05,602,332
Raw,1.6765905e+05,603,332
Raw,3.00739812e+05,604,332
Raw,1.85736413e+05,605,332
Raw,1.1140762e+05,605,332
Raw,3.66816873e+05,607,332
Raw,1.20470697e+05,608,332
Raw,1.64661682e+05,609,332
Raw,1.44278363e+05,611,332
Raw,89006.705,612,332
Raw,1.46358606e+05,613,332
Raw,4.06739444e+05,614,332
Raw,1.11929947e+05,614,332
Raw,3.03910756e+05,615,332
Raw,3.99272127e+05,616,332
Raw,1.83254398e+05,618,332
Raw,3.24990173e+05,619,332
Raw,1.55859501e+05,620,332
Raw,1.39322751e+05,621,332
Raw,1.29109937e+05,622,332
Raw,1.82440049e+05,623,332
Raw,2.48434209e+05,624,332
Raw,2.73603994e+05,625,332
Raw,1.51833288e+05,625,332
Raw,1.35299662e+05,627,332
Raw,1.67149927e+05,628,332
Raw,2.37835706e+05,629,332
Raw,1.50665551e+05,630,332
Raw,63997.121,630,332
Raw,1.8041258e+05,631,332
Raw,3.28342611e+05,632,332
Raw,1.57656993e+05,633,332
Raw,2.43251316e+05,634,332
Raw,2.21282575e+05,635,332
Raw,1.21892264e+05,635,332
Raw,4.08662653e+05,636,332
Raw,2.42356292e+05,637,332
Raw,1.62392113e+05,638,332
Raw,1.49859131e+05,641,332
Raw,4.32404112e+05,642,332
Raw,3.24083136e+05,643,332
Raw,1.70130683e+05,644,332
Raw,3.22323887e+05,645,332
Raw,1.54769898e+05,646,332
Raw,4.16595629e+05,647,332
Raw,3.03818371e+05,650,332
Raw,57047.476,650,332
Raw,2.32970995e+05,651,332
Raw,2.59318899e+05,652,332
Raw,1.36604355e+05,653,332
Raw,2.62521256e+05,654,332
Raw,1.90857689e+05,655,332
Raw,3.74047308e+05,656,332
Raw,1.55067157e+05,657,332
Raw,1.61450711e+05,658,332
Raw,1.68773517e+05,659,332
Raw,2.69620892e+05,660,332
Raw,1.16982174e+05,660,332
Raw,1.53543531e+05,661,332
Raw,1.34994394e+05,662,332
Raw,1.43849325e+05,663,332
Raw,1.50979828e+05,663,332
Raw,1.61171462e+05,664,332
Raw,1.62062172e+05,666,332
Raw,1.48477215e+05,667,332
Raw,1.76060496e+05,668,332
Raw,2.96489826e+05,670,332
Raw,1.50431687e+05,672,332
Raw,1.02329302e+05,672,332
Raw,2.86533833e+05,673,332
Raw,3.86082807e+05,674,332
Raw,1.23315444e+05,675,332
Raw,1.54155618e+05,676,332
Raw,3.86350012e+05,678,332
Raw,1.67067174e+05,679,332
Raw,3.79559549e+05,680,332
Raw,2.97512831e+05,683,332
Raw,82191.243,684,332
Raw,38749.364,686,332
Raw,1.5971676e+05,686,332
Raw,2.37337808e+05,687,332
Raw,1.14515147e+05,687,332
Raw,1.82850867e+05,688,332
Raw,2.18980013e+05,688,332
Raw,1.35180371e+05,689,332
Raw,2.82784943e+05,690,332
Raw,1.76703733e+05,692,332
Raw,3.89498311e+05,693,332
Raw,2.77183036e+05,694,332
Raw,1.89414431e+05,695,332
Raw,2.59065572e+05,696,332
Raw,2.77149903e+05,697,332
Raw,3.87947632e+05,698,332
Raw,1.57598841e+05,699,332
Raw,2.75032799e+05,701,332
Raw,92018.442,703,332
Raw,3.02607646e+05,703,332
Raw,2.01957145e+05,704,332
Raw,2.39050234e+05,704,332
Raw,1.40157647e+05,705,332
Raw,1.49717625e+05,705,332
Raw,4.14624708e+05,706,332
Raw,1.18488184e+05,706,332
Raw,1.58005456e+05,707,332
Raw,2.07498831e+05,708,332
Raw,1.65246782e+05,709,332
Raw,1.00988655e+05,709,332
Raw,1.47967995e+05,710,332
Raw,1.66126387e+05,711,332
Raw,1.03140313e+05,711,332
Raw,1.45019994e+05,712,332
Raw,1.307626e+05,713,332
Raw,1.55970486e+05,713,332
Raw,1.53139527e+05,715,332
Raw,1.96430701e+05,716,332
Raw,1.09693449e+05,717,332
Raw,1.41421481e+05,717,332
Raw,2.60690022e+05,719,332
Raw,2.61458202e+05,720,332
Raw,1.79180041e+05,721,332
Raw,1.82386762e+05,722,332
Raw,1.29446228e+05,722,332
Raw,1.48470241e+05,724,332
Raw,1.61797678e+05,726,332
Raw,1.42635741e+05,727,332
Raw,1.49792522e+05,728,332
Raw,4.11175925e+05,729,332
Raw,1.68520462e+05,730,332
Raw,4.32305633e+05,731,332
Raw,1.42183581e+05,732,332
Raw,3.64135594e+05,733,332
Raw,1.38886053e+05,734,332
Raw,2.07930559e+05,734,332
Raw,2.61008578e+05,735,332
Raw,3.07187714e+05,736,332
Raw,1.8053802e+05,737,332
Raw,1.37274966e+05,738,332
Raw,41427.307,740,332
Raw,1.52345145e+05,740,332
Raw,1.30848701e+05,743,332
Raw,2.51475781e+05,744,332
Raw,1.49823673e+05,745,332
Raw,4.29458022e+05,746,332
Raw,3.37641796e+05,746,332
Raw,1.34711943e+05,747,332
Raw,2.18349209e+05,748,332
Raw,1.19825623e+05,751,332
Raw,1.47203007e+05,752,332
Raw,1.54786397e+05,754,332
Raw,1.36767123e+05,755,332
Raw,2.76159567e+05,757,332
Raw,1.47533719e+05,758,332
Raw,1.35196316e+05,759,332
Raw,1.9978171e+05,759,332
Raw,2.40016361e+05,760,332
Raw,1.64896761e+05,761,332
Raw,1.77558801e+05,762,332
Raw,1.35962914e+05,763,332
Raw,1.49926279e+05,763,332
Raw,1.09139165e+05,764,332
Raw,1.62105612e+05,764,332
Raw,73259.851,764,332
Raw,1.40793194e+05,764,332
Raw,3.06272945e+05,765,332
Raw,2.60872534e+05,766,332
Raw,1.47616775e+05,767,332
Raw,1.45796693e+05,768,332
Raw,1.74849914e+05,770,332
Raw,3.22572578e+05,772,332
Raw,2.42869135e+05,774,332
Raw,1.40342974e+05,774,332
Raw,1.57869785e+05,775,332
Raw,3.51537784e+05,776,332
Raw,3.06990719e+05,777,332
Raw,1.76114433e+05,777,332
Raw,1.68326427e+05,778,332
Raw,1.09214609e+05,782,332
Raw,1.53440243e+05,782,332
Raw,1.42473279e+05,783,332
Raw,2.40111288e+05,784,332
Raw,2.9836475e+05,785,332
Raw,1.64855167e+05,786,332
Raw,2.84997964e+05,786,332
Raw,2.73983758e+05,787,332
Raw,1.37758627e+05,787,332
Raw,3.2624863e+05,788,332
Raw,1.22219092e+05,790,332
Raw,1.99855097e+05,791,332
Raw,1.2420157e+05,791,332
Raw,1.28261589e+05,792,332
Raw,1.56600816e+05,793,332
Raw,1.49709115e+05,794,332
Raw,1.41349387e+05,795,332
Raw,1.31848857e+05,797,332
Raw,1.31919311e+05,798,332
Raw,1.83536132e+05,799,332
Raw,2.27410648e+05,800,332
Raw,1.25297522e+05,800,332
Raw,1.39552656e+05,801,332
Raw,2.52335202e+05,802,332
Raw,2.09060104e+05,803,332
Raw,1.75255493e+05,804,332
Raw,1.52907381e+05,805,332
Raw,1.70211649e+05,806,332
Raw,1.69719338e+05,807,332
Raw,1.06533419e+05,807,332
Raw,1.46377492e+05,808,332
Raw,3.11455694e+05,809,332
Raw,1.33563674e+05,810,332
Raw,2.36287477e+05,811,332
Raw,1.82423463e+05,813,332
Raw,1.4062239e+05,813,332
Raw,2.34485558e+05,814,332
Raw,2.5391532e+05,817,332
Raw,3.36385609e+05,818,332
Raw,1.48181943e+05,819,332
Raw,1.96622452e+05,820,332
Raw,74604.125,821,332
Raw,2.71501036e+05,821,332
Raw,2.47971163e+05,822,332
Raw,81781.907,822,332
Raw,1.56456966e+05,822,332
Raw,3.8047069e+05,823,332
Raw,2.94432154e+05,826,332
Raw,3.05202024e+05,827,332
Raw,1.68922736e+05,828,332
Raw,29795.224,829,332
Raw,1.54513639e+05,829,332
Raw,1.52861905e+05,830,332
Raw,1.38633354e+05,831,332
Raw,4.11864484e+05,832,332
Raw,1.58076825e+05,833,332
Raw,1.20752416e+05,833,332
Raw,1.83378776e+05,834,332
Raw,4.30768885e+05,835,332
Raw,1.59407066e+05,836,332
Raw,3.77681863e+05,837,332
Raw,88953.514,838,332
Raw,1.69718653e+05,838,332
Raw,1.46565996e+05,839,332
Raw,25726.287,843,332
Raw,1.43243151e+05,843,332
Raw,1.34787242e+05,845,332
Raw,1.53184657e+05,847,332
Raw,2.92721364e+05,849,332
Raw,1.78117885e+05,850,332
Raw,2.10240497e+05,850,332
Raw,2.06210222e+05,851,332
Raw,1.23152897e+05,852,332
Raw,2.69023629e+05,852,332
Raw,1.83508999e+05,853,332
Raw,58787.263,853,332
Raw,1.41183468e+05,854,332
Raw,3.61999331e+05,855,332
Raw,2.63394378e+05,857,332
Raw,1.55101734e+05,858,332
Raw,1.44218568e+05,859,332
Raw,2.1193585e+05,860,332
Raw,2.91558034e+05,861,332
Raw,1.63807656e+05,862,332
Raw,2.03568518e+05,863,332
Raw,1.38714551e+05,864,332
Raw,2.63455281e+05,865,332
Raw,1.42382331e+05,866,332
Raw,4.20259315e+05,867,332
Raw,3.84968385e+05,868,332
Raw,4.0712538e+05,870,332
Raw,1.54098996e+05,871,332
Raw,1.59248129e+05,872,332
Raw,1.26651317e+05,874,332
Raw,42205.187,875,332
Raw,1.41236051e+05,875,332
Raw,2.43317571e+05,876,332
Raw,2.00906524e+05,876,332
Raw,1.60403994e+05,878,332
Raw,2.76684034e+05,879,332
Raw,1.79069128e+05,880,332
Raw,1.13976815e+05,880,332
Raw,1.91886176e+05,882,332
Raw,2.03968907e+05,882,332
Raw,1.46420239e+05,883,332
Raw,1.40158051e+05,884,332
Raw,1.57536646e+05,884,332
Raw,3.46413007e+05,885,332
Raw,1.3429417e+05,887,332
Raw,2.80908493e+05,889,332
Raw,3.35721944e+05,890,332
Raw,2.77937943e+05,891,332
Raw,2.92572836e+05,892,332
Raw,97007.812,892,332
Raw,2.82759933e+05,893,332
Raw,89799.294,894,332
Raw,2.71236403e+05,894,332
Raw,4.37545867e+05,895,332
Raw,1.36429378e+05,896,332
Raw,3.71849879e+05,897,332
Raw,1.64851456e+05,899,332
Raw,1.18587436e+05,899,332
Raw,3.20565372e+05,900,332
Raw,3.07530992e+05,901,332
Raw,3.32979884e+05,902,332
Raw,1.75393895e+05,902,332
Raw,74999.216,903,332
Raw,1.40821234e+05,903,332
Raw,68720.671,904,332
Raw,1.44647053e+05,905,332
Raw,1.37863009e+05,906,332
Raw,3.07957943e+05,907,332
Raw,1.44714652e+05,908,332
Raw,2.78179939e+05,909,332
Raw,1.63405737e+05,910,332
Raw,4.22910785e+05,911,332
Raw,1.23573846e+05,911,332
Raw,4.05180185e+05,912,332
Raw,1.48941818e+05,913,332
Raw,69639.763,913,332
Raw,2.74700327e+05,914,332
Raw,2.83000876e+05,915,332
Raw,1.50848814e+05,916,332
Raw,1.51807683e+05,918,332
Raw,1.51955871e+05,919,332
Raw,1.50129629e+05,920,332
Raw,1.62257613e+05,921,332
Raw,4.04980746e+05,922,332
Raw,1.8428835e+05,923,332
Raw,1.45327008e+05,924,332
Raw,1.5647887e+05,925,332
Raw,1.66426895e+05,926,332
Raw,63223.29,926,332
Raw,1.54871356e+05,928,332
Raw,1.15749691e+05,929,332
Raw,2.71754546e+05,929,332
Raw,2.87070563e+05,930,332
Raw,2.99216398e+05,932,332
Raw,2.0085298e+05,933,332
Raw,1.56027165e+05,934,332
Raw,3.59645559e+05,935,332
Raw,1.71400107e+05,936,332
Raw,2.6407696e+05,937,332
Raw,1.23879443e+05,938,332
Raw,55870.463,938,332
Raw,1.52187126e+05,939,332
Raw,1.14099911e+05,940,332
Raw,1.4649855e+05,942,332
Raw,1.57081932e+05,943,332
Raw,1.64877611e+05,944,332
Raw,1.33575338e+05,946,332
Raw,38807.253,946,332
Raw,1.29224091e+05,947,332
Raw,2.8994904e+05,947,332
Raw,1.28314661e+05,948,332
Raw,3.27381149e+05,948,332
Raw,1.53630008e+05,951,332
Raw,3.00478462e+05,953,332
Raw,1.54681194e+05,954,332
Raw,1.12618126e+05,954,332
Raw,1.57482146e+05,955,332
Raw,1.22635865e+05,956,332
Raw,1.15879215e+05,957,332
Raw,1.86046827e+05,958,332
Raw,1.09141626e+05,958,332
Raw,84702.586,958,332
Raw,3.92928837e+05,961,332
Raw,3.57615786e+05,962,332
Raw,1.67234416e+05,963,332
Raw,4.37528119e+05,964,332
Raw,2.66735646e+05,965,332
Raw,85462.176,965,332
Raw,1.29180612e+05,966,332
Raw,1.58281685e+05,966,332
Raw,2.72834266e+05,967,332
Raw,1.58953518e+05,968,332
Raw,1.40646298e+05,969,332
Raw,1.1576914e+05,972,332
Raw,2.45307811e+05,972,332
Raw,3.35311608e+05,973,332
Raw,2.42601941e+05,973,332
Raw,1.50018194e+05,974,332
Raw,1.46964127e+05,975,332
Raw,1.41156187e+05,976,332
Raw,2.55315579e+05,977,332
Raw,1.53034233e+05,979,332
Raw,1.22654726e+05,980,332
Raw,1.43831911e+05,980,332
Raw,1.52033763e+05,981,332
Raw,2.82009117e+05,983,332
Raw,3.11408398e+05,985,332
Raw,2.72904638e+05,986,332
Raw,1.48462744e+05,987,332
Raw,1.57484922e+05,988,332
Raw,1.55665445e+05,989,332
Raw,1.39674265e+05,991,332
Raw,1.32639199e+05,991,332
Raw,3.3143755e+05,992,332
Raw,1.95230339e+05,993,332
Raw,1.03073144e+05,993,332
Raw,2.99947776e+05,994,332
Raw,1.64735235e+05,995,332
Raw,1.32297369e+05,996,332
Raw,1.39805404e+05,997,332
Raw,1.12400292e+05,997,332
Raw,1.51570353e+05,999,332
Raw,1.41917366e+05,1000,332
Raw,3.6887323e+05,1001,332
Raw,1.99155165e+05,1002,332
Raw,2.72451491e+05,1003,332
Raw,1.33661082e+05,1004,332
Raw,2.83723625e+05,1005,332
Raw,1.54157644e+05,1006,332
Raw,98244.527,1007,332
Raw,3.16815566e+05,1007,332
Raw,2.42101503e+05,1008,332
Raw,1.16276094e+05,1008,332
Raw,1.1925671e+05,1009,332
Raw,2.80095098e+05,1009,332
Raw,1.75832809e+05,1010,332
Raw,75418.938,1011,332
Raw,2.49530575e+05,1011,332
Raw,2.46441284e+05,1012,332
Raw,88171.908,1012,332
Raw,2.84458468e+05,1013,332
Raw,2.70288583e+05,1014,332
Raw,3.88290499e+05,1016,332
Raw,2.94036069e+05,1017,332
Raw,4.34187775e+05,1018,332
Raw,1.60523498e+05,1019,332
Raw,1.31666879e+05,1020,332
Raw,1.49736084e+05,1020,332
Raw,1.54298067e+05,1021,332
Raw,1.60833881e+05,1023,332
Raw,2.61327443e+05,1024,332
Raw,3.67726897e+05,1025,332
Raw,1.98037838e+05,1025,332
Raw,3.04214271e+05,1026,332
Raw,1.38126405e+05,1027,332
Raw,1.28592809e+05,1028,332
Raw,3.31935606e+05,1029,332
Raw,3.52154171e+05,1030,332
Raw,1.47185321e+05,1031,332
Raw,1.48145369e+05,1032,332
Raw,2.16823635e+05,1033,332
Raw,3.714173e+05,1034,332
Raw,2.64830014e+05,1034,332
Raw,1.4844492e+05,1035,332
Raw,1.6574138e+05,1036,332
Raw,1.7330683e+05,1038,332
Raw,3.59867663e+05,1039,332
Raw,3.02300099e+05,1040,332
Raw,85680.59,1040,332
Raw,1.44967599e+05,1041,332
Raw,1.43845558e+05,1043,332
Raw,1.76067104e+05,1044,332
Raw,39578.373,1044,332
Raw,1.35478436e+05,1045,332
Raw,1.00056654e+05,1046,332
Raw,1.49103636e+05,1046,332
Raw,1.55237704e+05,1047,332
Raw,1.06027264e+05,1048,332
Raw,1.43935007e+05,1048,332
Raw,2.68868488e+05,1049,332
Raw,3.30292357e+05,1050,332
Raw,1.70582323e+05,1050,332
Raw,1.45299236e+05,1051,332
Raw,2.41630348e+05,1052,332
Raw,1.45309775e+05,1053,332
Raw,72658.259,1053,332
Raw,1.41286315e+05,1054,332
Raw,68609.204,1054,332
Raw,1.23029832e+05,1055,332
Raw,1.39374972e+05,1056,332
Raw,1.57587593e+05,1057,332
Raw,1.44440615e+05,1058,332
Raw,3.63482314e+05,1059,332
Raw,1.40899799e+05,1060,332
Raw,1.58279404e+05,1061,332
Raw,1.68888971e+05,1062,332
Raw,1.77506824e+05,1063,332
Raw,2.8981308e+05,1064,332
Raw,1.40408749e+05,1066,332
Raw,2.28671113e+05,1067,332
Raw,4.45337172e+05,1068,332
Raw,2.51351058e+05,1069,332
Raw,1.50838627e+05,1070,332
Raw,3.54259281e+05,1071,332
Raw,1.50691471e+05,1072,332
Raw,3.98027196e+05,1073,332
Raw,1.85243312e+05,1074,332
Raw,1.42469785e+05,1076,332
Raw,93371.526,1077,332
Raw,1.18800818e+05,1077,332
Raw,1.33134752e+05,1078,332
Raw,1.5665714e+05,1079,332
Raw,99509.646,1080,332
Raw,1.31476883e+05,1080,332
Raw,1.42524087e+05,1081,332
Raw,1.59413424e+05,1082,332
Raw,1.75788216e+05,1083,332
Raw,58006.582,1083,332
Raw,1.49293301e+05,1084,332
Raw,1.02830674e+05,1085,332
Raw,1.32431589e+05,1085,332
Raw,1.17005496e+05,1086,332
Raw,1.35463364e+05,1086,332
Raw,2.78791261e+05,1087,332
Raw,1.18951801e+05,1088,332
Raw,1.33063694e+05,1088,332
Raw,1.79234521e+05,1089,332
Raw,1.45978413e+05,1090,332
Raw,2.798679e+05,1092,332
Raw,3.05057476e+05,1093,332
Raw,1.22583983e+05,1094,332
Raw,3.51691078e+05,1095,332
Raw,91904.292,1095,332
Raw,4.10189384e+05,1096,332
Raw,1.69048025e+05,1098,332
Raw,3.99347121e+05,1100,332
Raw,1.35497986e+05,1102,332
Raw,1.58083999e+05,1103,332
Raw,1.24802849e+05,1103,332
Raw,2.85650437e+05,1104,332
Raw,1.25318261e+05,1104,332
Raw,1.7728836e+05,1105,332
Raw,1.65532962e+05,1106,332
Raw,1.32671806e+05,1107,332
Raw,3.13526293e+05,1108,332
Raw,3.662579e+05,1108,332
Raw,2.94368615e+05,1109,332
Raw,4.36514155e+05,1110,332
Raw,1.16043002e+05,1110,332
Raw,87458.552,1110,332
Raw,2.52116422e+05,1111,332
Raw,1.55118972e+05,1112,332
Raw,3.16264582e+05,1113,332
Raw,1.46549522e+05,1115,332
Raw,3.93601442e+05,1117,332
Raw,1.46873351e+05,1119,332
Raw,4.03325463e+05,1120,332
Raw,34859.678,1120,332
Raw,1.65204386e+05,1121,332
Raw,2.08945484e+05,1122,332
Raw,4.16887546e+05,1122,332
Raw,3.23814008e+05,1124,332
Raw,1.7558785e+05,1124,332
Raw,1.04135866e+05,1125,332
Raw,2.90964918e+05,1125,332
Raw,1.69538187e+05,1126,332
Raw,2.69195383e+05,1127,332
Raw,1.54708924e+05,1128,332
Raw,1.14594908e+05,1128,332
Raw,3.51522676e+05,1129,332
Raw,3.03793482e+05,1130,332
Raw,1.40542371e+05,1134,332
Raw,1.33875962e+05,1134,332
Raw,3.04452167e+05,1135,332
Raw,83264.561,1136,332
Raw,3.08700381e+05,1136,332
Raw,1.47336164e+05,1137,332
Raw,1.23020398e+05,1137,332
Raw,1.50476053e+05,1138,332
Raw,2.36785294e+05,1139,332
Raw,1.4912547e+05,1140,332
Raw,3.49276901e+05,1141,332
Raw,1.54399031e+05,1142,332
Raw,90188.644,1142,332
Raw,2.66231238e+05,1143,332
Raw,82486.646,1143,332
Raw,1.43513887e+05,1145,332
Raw,2.02778199e+05,1147,332
Raw,94920.883,1147,332
Raw,2.56823721e+05,1148,332
Raw,1.37401286e+05,1148,332
Raw,1.71752315e+05,1149,332
Raw,4.43883367e+05,1151,332
Raw,1.63513816e+05,1153,332
Raw,1.24821872e+05,1155,332
Raw,1.03909109e+05,1155,332
Raw,64160.735,1156,332
Raw,1.4264654e+05,1156,332
Raw,2.67127121e+05,1157,332
Raw,1.32284071e+05,1158,332
Raw,2.68297332e+05,1159,332
Raw,1.63414834e+05,1160,332
Raw,3.82366733e+05,1161,332
Raw,1.49999073e+05,1162,332
Raw,1.0774826e+05,1162,332
Raw,1.43943874e+05,1163,332
Raw,1.50284904e+05,1165,332
Raw,1.81795404e+05,1167,332
Raw,1.40974634e+05,1168,332
Raw,1.97389586e+05,1169,332
Raw,1.42293097e+05,1169,332
Raw,2.30337683e+05,1170,332
Raw,1.5434594e+05,1171,332
Raw,1.5992678e+05,1173,332
Raw,1.60223064e+05,1174,332
Raw,1.30504734e+05,1175,332
Raw,2.62269466e+05,1176,332
Raw,1.57890139e+05,1177,332
Raw,80121.731,1177,332
Raw,2.92416357e+05,1178,332
Raw,1.5136926e+05,1178,332
Raw,3.61940253e+05,1179,332
Raw,75975.192,1179,332
Raw,1.58223506e+05,1181,332
Raw,2.81905576e+05,1182,332
Raw,4.06048096e+05,1183,332
Raw,1.61583646e+05,1185,332
Raw,1.13735162e+05,1185,332
Raw,3.37732051e+05,1186,332
Raw,1.1087436e+05,1187,332
Raw,2.41635354e+05,1187,332
Raw,1.78384887e+05,1188,332
Raw,1.81132e+05,1188,332
Raw,41332.089,1189,332
Raw,1.40658577e+05,1190,332
Raw,3.35859979e+05,1191,332
Raw,1.59886824e+05,1192,332
Raw,1.48471066e+05,1193,332
Raw,1.18745938e+05,1194,332
Raw,1.32497891e+05,1194,332
Raw,1.83935058e+05,1195,332
Raw,1.26677671e+05,1195,332
Raw,2.41898756e+05,1196,332
Raw,3.63062433e+05,1197,332
Raw,1.48372362e+05,1198,332
Raw,1.60112721e+05,1199,332
Raw,2.54454926e+05,1200,332
Raw,1.3858757e+05,1201,332
Raw,1.58591458e+05,1202,332
Raw,1.36042048e+05,1203,332
Raw,2.66667134e+05,1205,332
Raw,1.59302249e+05,1206,332
Raw,1.18160674e+05,1206,332
Raw,3.37718063e+05,1208,332
Raw,67274.095,1208,332
Raw,1.54330547e+05,1209,332
Raw,2.68251905e+05,1209,332
Raw,1.52299047e+05,1210,332
Raw,1.5233531e+05,1211,332
Raw,1.7196977e+05,1213,332
Raw,1.58396485e+05,1214,332
Raw,1.58526326e+05,1215,332
Raw,80088.488,1217,332
Raw,3.86786329e+05,1218,332
Raw,1.63178718e+05,1219,332
Raw,2.46817924e+05,1223,332
Raw,1.80414197e+05,1224,332
Raw,1.46092996e+05,1225,332
Raw,2.15661121e+05,1226,332
Raw,4.10071205e+05,1227,332
Raw,54720.818,1227,332
Raw,1.59061547e+05,1228,332
Raw,83348.46,1231,332
Raw,2.62875963e+05,1232,332
Raw,1.47030711e+05,1233,332
Raw,1.795087e+05,1234,332
Raw,1.41319519e+05,1235,332
Raw,3.78452757e+05,1236,332
Raw,3.17448923e+05,1237,332
Raw,1.76015134e+05,1240,332
Raw,84216.899,1240,332
Raw,2.97604309e+05,1241,332
Raw,1.45649785e+05,1242,332
Raw,2.68336819e+05,1244,332
Raw,4.18082019e+05,1245,332
Raw,2.0485184e+05,1246,332
Raw,1.15012475e+05,1246,332
Raw,3.07858488e+05,1247,332
Raw,4.21448515e+05,1249,332
Raw,1.58107968e+05,1250,332
Raw,1.52549417e+05,1252,332
Raw,1.69403085e+05,1253,332
Raw,1.22716673e+05,1253,332
Raw,1.48518785e+05,1254,332
Raw,4.28569372e+05,1255,332
Raw,2.63109411e+05,1256,332
Raw,1.53176726e+05,1258,332
Raw,1.60152128e+05,1259,332
Raw,1.53670926e+05,1260,332
Raw,85571.039,1260,332
Raw,1.51363308e+05,1264,332
Raw,4.08670244e+05,1267,332
Raw,2.63925903e+05,1268,332
Raw,3.17645384e+05,1269,332
Raw,1.42134156e+05,1271,332
Raw,2.05055617e+05,1272,332
Raw,3.03646873e+05,1273,332
Raw,1.60229372e+05,1275,332
Raw,3.88073725e+05,1276,332
Raw,65153.267,1277,332
Raw,1.57626862e+05,1277,332
Raw,1.33176493e+05,1278,332
Raw,1.3768342e+05,1281,332
Raw,2.64213869e+05,1282,332
Raw,2.81887445e+05,1283,332
Raw,33596.342,1283,332
Raw,1.49516373e+05,1284,332
Raw,1.61466694e+05,1285,332
Raw,1.35856235e+05,1286,332
Raw,1.53141015e+05,1287,332
Raw,1.74378953e+05,1288,332
Raw,1.72038447e+05,1289,332
Raw,86780.71,1289,332
Raw,3.60209485e+05,1290,332
Raw,1.63730776e+05,1291,332
Raw,1.78463706e+05,1292,332
Raw,2.6177465e+05,1293,332
Raw,1.70373154e+05,1294,332
Raw,1.76228517e+05,1295,332
Raw,2.76683898e+05,1295,332
Raw,2.51874286e+05,1297,332
Raw,2.41742151e+05,1300,332
Raw,1.28172383e+05,1301,332
Raw,2.06690692e+05,1302,332
Raw,2.86479813e+05,1304,332
Raw,1.41449497e+05,1305,332
Raw,1.57747238e+05,1306,332
Raw,90932.995,1306,332
Raw,46993.667,1307,332
Raw,1.73035051e+05,1310,332
Raw,1.30463923e+05,1311,332
Raw,2.60825724e+05,1312,332
Raw,2.94442681e+05,1313,332
Raw,1.04383273e+05,1313,332
Raw,1.18306945e+05,1313,332
Raw,1.36515358e+05,1314,332
Raw,1.39378228e+05,1314,332
Raw,1.5500114e+05,1315,332
Raw,1.36948485e+05,1316,332
Raw,1.17133452e+05,1316,332
Raw,3.04448646e+05,1318,332
Raw,3.1125492e+05,1319,332
Raw,1.6864677e+05,1321,332
Raw,27422.72,1321,332
Raw,41754.926,1321,332
Raw,1.99014064e+05,1323,332
Raw,1.66260567e+05,1325,332
Raw,1.39720757e+05,1325,332
Raw,3.11494618e+05,1326,332
Raw,4.29668997e+05,1327,332
Raw,4.26745912e+05,1328,332
Raw,4.228653e+05,1329,332
Raw,1.80040611e+05,1330,332
Raw,1.54246876e+05,1331,332
Raw,1.54313735e+05,1332,332
Raw,3.99078151e+05,1334,332
Raw,1.8076554e+05,1335,332
Raw,1.34263448e+05,1336,332
Raw,3.07667048e+05,1337,332
Raw,1.71923236e+05,1338,332
Raw,1.59548829e+05,1339,332
Raw,97191.994,1339,332
Raw,1.35475146e+05,1340,332
Raw,2.76762669e+05,1341,332
Raw,39573.876,1342,332
Raw,3.99430375e+05,1343,332
Raw,3.91807359e+05,1345,332
Raw,1.33122128e+05,1345,332
Raw,1.45759854e+05,1346,332
Raw,1.70929956e+05,1348,332
Raw,1.22900724e+05,1348,332
Raw,1.1359021e+05,1348,332
Raw,2.35259855e+05,1350,332
Raw,1.40434865e+05,1351,332
Raw,2.70551853e+05,1351,332
Raw,2.63939692e+05,1352,332
Raw,1.35345637e+05,1353,332
Raw,1.62098125e+05,1355,332
Raw,1.65901198e+05,1356,332
Raw,2.94265624e+05,1357,332
Raw,2.70449601e+05,1358,332
Raw,2.35387759e+05,1359,332
Raw,29802.171,1359,332
Raw,4.37089488e+05,1360,332
Raw,1.59490396e+05,1362,332
Raw,94193.067,1362,332
Raw,1.66914048e+05,1363,332
Raw,2.31375388e+05,1364,332
Raw,2.85436147e+05,1366,332
Raw,3.14187001e+05,1367,332
Raw,3.11734193e+05,1368,332
Raw,1.49489378e+05,1369,332
Raw,2.27243955e+05,1371,332
Raw,1.65088208e+05,1372,332
Raw,1.44396581e+05,1373,332
Raw,1.55364349e+05,1375,332
Raw,1.52971119e+05,1376,332
Raw,3.16316238e+05,1377,332
Raw,4.30481791e+05,1378,332
Raw,1.34091103e+05,1379,332
Raw,1.48876529e+05,1382,332
Raw,1.54351817e+05,1383,332
Raw,1.75363084e+05,1384,332
Raw,1.67739823e+05,1385,332
Raw,1.38962322e+05,1386,332
Raw,1.20719494e+05,1386,332
Raw,4.08488427e+05,1387,332
Raw,1.08096977e+05,1387,332
Raw,1.4057524e+05,1390,332
Raw,1.60412358e+05,1391,332
Raw,2.87295916e+05,1392,332
Raw,1.43033257e+05,1393,332
Raw,1.06573881e+05,1393,332
Raw,1.47856182e+05,1394,332
Raw,1.4967279e+05,1395,332
Raw,2.29774033e+05,1396,332
Raw,2.29232236e+05,1397,332
Raw,2.05783124e+05,1397,332
Raw,2.50489697e+05,1398,332
Raw,1.47500625e+05,1399,332
Raw,1.4763269e+05,1400,332
Raw,3.93120857e+05,1402,332
Raw,1.43298997e+05,1403,332
Raw,1.75327217e+05,1404,332
Raw,94946.357,1405,332
Raw,2.36383102e+05,1405,332
Raw,1.37098051e+05,1406,332
Raw,1.54034161e+05,1407,332
Raw,3.92265769e+05,1408,332
Raw,1.564073e+05,1409,332
Raw,1.42064232e+05,1410,332
Raw,3.51599754e+05,1411,332
Raw,1.48826625e+05,1412,332
Raw,1.54435251e+05,1413,332
Raw,1.69245205e+05,1415,332
Raw,2.68424495e+05,1416,332
Raw,83235.965,1417,332
Raw,3.2175123e+05,1417,332
Raw,1.99199196e+05,1418,332
Raw,2.9996719e+05,1419,332
Raw,22145.315,1419,332
Raw,4.13282745e+05,1420,332
Raw,2.63126935e+05,1421,332
Raw,3.10373205e+05,1422,332
Raw,1.3092756e+05,1423,332
Raw,1.69147015e+05,1425,332
Raw,2.09787301e+05,1426,332
Raw,2.79351597e+05,1427,332
Raw,1.56626156e+05,1428,332
Raw,1.5760379e+05,1430,332
Raw,1.87075236e+05,1431,332
Raw,1.64541346e+05,1431,332
Raw,1.69226823e+05,1432,332
Raw,1.81573127e+05,1433,332
Raw,3.08747999e+05,1434,332
Raw,1.50296856e+05,1435,332
Raw,1.74380926e+05,1436,332
Raw,2.57887452e+05,1437,332
Raw,1.88111042e+05,1438,332
Raw,1.42085762e+05,1439,332
Raw,2.62097024e+05,1439,332
Raw,1.63848306e+05,1441,332
Raw,1.31044257e+05,1441,332
Raw,2.09739014e+05,1442,332
Raw,1.4813887e+05,1443,332
Raw,2.56051814e+05,1445,332
Raw,82529.833,1445,332
Raw,1.53203765e+05,1447,332
Raw,2.38850902e+05,1448,332
Raw,1.57053795e+05,1449,332
Raw,2.00411361e+05,1450,332
Raw,1.61253878e+05,1451,332
Raw,83697.483,1451,332
Raw,1.63265666e+05,1452,332
Raw,2.90089233e+05,1455,332
Raw,97318.993,1456,332
Raw,1.52372305e+05,1456,332
Raw,1.8649643e+05,1457,332
Raw,1.41831453e+05,1458,332
Raw,1.10975135e+05,1458,332
Raw,1.75556336e+05,1459,332
Raw,3.84291293e+05,1460,332
Raw,3.02815285e+05,1461,332
Raw,3.05341513e+05,1462,332
Raw,1.56503519e+05,1463,332
Raw,3.81385479e+05,1464,332
Raw,1.55184148e+05,1465,332
Raw,1.32041461e+05,1466,332
Raw,1.47058597e+05,1468,332
Raw,1.3662679e+05,1469,332
Raw,1.4680227e+05,1470,332
Raw,2.98922033e+05,1471,332
Raw,74370.843,1472,332
Raw,2.35145505e+05,1472,332
Raw,1.49187573e+05,1473,332
Raw,3.28467735e+05,1474,332
Raw,1.8645156e+05,1475,332
Raw,1.92148583e+05,1476,332
Raw,3.66518781e+05,1477,332
Raw,3.55475603e+05,1478,332
Raw,1.63401983e+05,1478,332
Raw,1.71328524e+05,1479,332
Raw,3.71904263e+05,1480,332
Raw,2.16219567e+05,1481,332
Raw,1.02405962e+05,1481,332
Raw,2.77395606e+05,1483,332
Raw,1.46670939e+05,1484,332
Raw,1.37016694e+05,1486,332
Raw,1.60117099e+05,1487,332
Raw,1.4652974e+05,1488,332
Raw,1.5648623e+05,1489,332
Raw,2.71207264e+05,1490,332
Raw,1.9935682e+05,1491,332
Raw,1.02806145e+05,1491,332
Raw,1.61102794e+05,1492,332
Raw,4.44940861e+05,1493,332
Raw,2.54883215e+05,1494,332
Raw,93038.086,1494,332
Raw,1.58894457e+05,1497,332
Raw,2.22848239e+05,1498,332
Raw,1.57883811e+05,1499,332
Raw,1.33172011e+05,1499,332
Raw,83590.468,1500,332
Raw,1.66442464e+05,1500,332
Raw,1.26960554e+05,1502,332
Raw,1.59782945e+05,1503,332
Raw,2.90726156e+05,1504,332
Raw,1.21324965e+05,1504,332
Raw,1.37461328e+05,1505,332
Raw,2.80237238e+05,1505,332
Raw,3.32858185e+05,1506,332
Raw,1.68651718e+05,1507,332
Raw,3.35100295e+05,1508,332
Raw,1.8509986e+05,1509,332
Raw,3.44717798e+05,1511,332
Raw,89983.729,1512,332
Raw,3.140093e+05,1512,332
Raw,1.47294543e+05,1513,332
Raw,1.60797693e+05,1514,332
Raw,1.39960897e+05,1515,332
Raw,1.5949353e+05,1516,332
Raw,92209.366,1516,332
Raw,1.51589012e+05,1518,332
Raw,2.29574651e+05,1519,332
Raw,1.23500303e+05,1519,332
Raw,1.26870343e+05,1520,332
Raw,2.06934016e+05,1520,332
Raw,1.79807404e+05,1521,332
Raw,1.57701286e+05,1522,332
Raw,2.75326967e+05,1522,332
Raw,3.70175881e+05,1523,332
Raw,1.68810026e+05,1525,332
Raw,1.37330836e+05,1526,332
Raw,1.71890555e+05,1528,332
Raw,2.54470902e+05,1529,332
Raw,1.57548564e+05,1531,332
Raw,1.81103648e+05,1533,332
Raw,1.75526221e+05,1534,332
Raw,1.47260238e+05,1535,332
Raw,1.67111182e+05,1536,332
Raw,1.52027571e+05,1537,332
Raw,1.21995154e+05,1537,332
Raw,2.06593114e+05,1538,332
Raw,1.3650014e+05,1539,332
Raw,1.33928264e+05,1540,332
Raw,1.64789226e+05,1541,332
Raw,1.50801193e+05,1542,332
Raw,3.21153298e+05,1542,332
Raw,1.82938509e+05,1543,332
Raw,1.6059323e+05,1544,332
Raw,1.4517305e+05,1545,332
Raw,1.62924284e+05,1546,332
Raw,89491.427,1546,332
Raw,1.50075537e+05,1547,332
Raw,2.58528078e+05,1548,332
Raw,1.61861484e+05,1549,332
Raw,1.74910774e+05,1550,332
Raw,2.82634588e+05,1551,332
Raw,83320.928,1551,332
Raw,3.19057456e+05,1554,332
Raw,1.46959136e+05,1555,332
Raw,1.00454763e+05,1555,332
Raw,1.74623665e+05,1556,332
Raw,1.89211341e+05,1559,332
Raw,85980.418,1559,332
Raw,1.85139165e+05,1561,332
Raw,1.75133574e+05,1562,332
Raw,1.29738945e+05,1562,332
Raw,1.35697559e+05,1563,332
Raw,2.83844985e+05,1564,332
Raw,3.62640892e+05,1565,332
Raw,1.61975972e+05,1566,332
Raw,3.03999352e+05,1569,332
Raw,2.68718876e+05,1571,332
Raw,1.54568067e+05,1572,332
Raw,2.07549747e+05,1573,332
Raw,1.56370871e+05,1574,332
Raw,2.22667783e+05,1575,332
Raw,1.47067273e+05,1576,332
Raw,1.21300913e+05,1578,332
Raw,3.48858749e+05,1579,332
Raw,43738.057,1579,332
Raw,1.96695813e+05,1580,332
Raw,1.6390176e+05,1581,332
Raw,3.54847415e+05,1582,332
Raw,1.42797335e+05,1584,332
Raw,1.46927558e+05,1584,332
Raw,89220.921,1584,332
Raw,1.66763099e+05,1585,332
Raw,1.70494121e+05,1586,332
Raw,2.64726474e+05,1588,332
Raw,3.41911661e+05,1589,332
Raw,1.78747952e+05,1590,332
Raw,2.89894207e+05,1591,332
Raw,3.44499866e+05,1592,332
Raw,1.45170263e+05,1592,332
Raw,3.63592473e+05,1593,332
Raw,3.35603853e+05,1595,332
Raw,1.52375984e+05,1596,332
Raw,1.57731851e+05,1597,332
Raw,3.02612881e+05,1598,332
Raw,1.3691817e+05,1599,332
Raw,2.58139294e+05,1600,332
Raw,2.67399124e+05,1600,332
Raw,4.06277645e+05,1601,332
Raw,1.3845857e+05,1602,332
Raw,1.95341756e+05,1603,332
Raw,3.28119054e+05,1604,332
Raw,1.92058607e+05,1605,332
Raw,2.71882979e+05,1606,332
Raw,1.8520902e+05,1607,332
Raw,3.62642445e+05,1609,332
Raw,3.87506524e+05,1611,332
Raw,1.49037277e+05,1613,332
Raw,1.64370329e+05,1613,332
Raw,1.04168228e+05,1614,332
Raw,1.63986066e+05,1614,332
Raw,3.07875672e+05,1615,332
Raw,2.13911176e+05,1616,332
Raw,2.68831779e+05,1616,332
Raw,1.45674107e+05,1617,332
Raw,3.3158977e+05,1618,332
Raw,2.62732348e+05,1619,332
Raw,3.94354417e+05,1620,332
Raw,4.36551803e+05,1621,332
Raw,1.81065649e+05,1622,332
Raw,2.84772294e+05,1623,332
Raw,3.37310607e+05,1624,332
Raw,1.16960294e+05,1624,332
Raw,1.66551654e+05,1625,332
Raw,2.67011569e+05,1626,332
Raw,2.39036167e+05,1626,332
Raw,1.5418177e+05,1627,332
Raw,1.63346245e+05,1628,332
Raw,1.61109855e+05,1629,332
Raw,2.8480468e+05,1630,332
Raw,2.8097529e+05,1632,332
Raw,3.64112031e+05,1633,332
Raw,2.47662413e+05,1635,332
Raw,1.32493909e+05,1636,332
Raw,1.67637575e+05,1638,332
Raw,3.06518464e+05,1639,332
Raw,1.36746605e+05,1640,332
Raw,1.34798705e+05,1642,332
Raw,1.72432049e+05,1645,332
Raw,4.21911803e+05,1646,332
Raw,3.1419915e+05,1647,332
Raw,3.97482257e+05,1648,332
Raw,1.3436012e+05,1649,332
Raw,2.62000781e+05,1649,332
Raw,2.69781889e+05,1651,332
Raw,2.08141428e+05,1652,332
Raw,2.1958452e+05,1654,332
Raw,1.08191681e+05,1654,332
Raw,1.6177533e+05,1655,332
Raw,4.24206384e+05,1656,332
Raw,1.15986366e+05,1656,332
Raw,1.64711358e+05,1658,332
Raw,3.03082843e+05,1659,332
Raw,1.55703296e+05,1660,332
Raw,3.27603149e+05,1662,332
Raw,1.11947132e+05,1663,332
Raw,3.21244859e+05,1663,332
Raw,68014.724,1663,332
Raw,3.71868291e+05,1664,332
Raw,1.71982881e+05,1665,332
Raw,1.49975069e+05,1666,332
Raw,1.61742772e+05,1667,332
Raw,3.60755586e+05,1668,332
Raw,1.84642012e+05,1670,332
Raw,2.85226616e+05,1671,332
Raw,1.5202366e+05,1673,332
Raw,2.34241749e+05,1673,332
Raw,2.04586956e+05,1675,332
Raw,3.50701418e+05,1676,332
Raw,4.06994816e+05,1677,332
Raw,2.8448059e+05,1679,332
Raw,3.09240725e+05,1680,332
Raw,1.428734e+05,1681,332
Raw,1.43208795e+05,1682,332
Raw,1.47442619e+05,1683,332
Raw,1.52969321e+05,1684,332
Raw,1.56862145e+05,1685,332
Raw,2.0061531e+05,1686,332
Raw,66050.401,1686,332
Raw,1.93610466e+05,1687,332
Raw,1.29794709e+05,1687,332
Raw,1.51777638e+05,1689,332
Raw,3.07124087e+05,1690,332
Raw,3.35351643e+05,1691,332
Raw,2.30252449e+05,1692,332
Raw,1.49565692e+05,1693,332
Raw,1.50264105e+05,1694,332
Raw,1.60990302e+05,1695,332
Raw,1.76727768e+05,1696,332
Raw,1.63597419e+05,1697,332
Raw,1.30342731e+05,1698,332
Raw,1.63771489e+05,1699,332
Raw,1.33682358e+05,1700,332
Raw,1.0403955e+05,1701,332
Raw,1.43435282e+05,1701,332
Raw,1.18757169e+05,1702,332
Raw,1.57178765e+05,1703,332
Raw,1.5964767e+05,1704,332
Raw,85621.635,1704,332
Raw,82526.884,1705,332
Raw,1.23022829e+05,1705,332
Raw,1.60066143e+05,1707,332
Raw,2.23942425e+05,1708,332
Raw,2.15864113e+05,1709,332
Raw,2.9596902e+05,1710,332
Raw,1.24956808e+05,1711,332
Raw,1.20552848e+05,1712,332
Raw,1.79050263e+05,1713,332
Raw,3.31897666e+05,1714,332
Raw,2.49725984e+05,1715,332
Raw,1.41877482e+05,1716,332
Raw,3.18074539e+05,1717,332
Raw,1.55298577e+05,1718,332
Raw,1.40669229e+05,1719,332
Raw,1.45257038e+05,1720,332
Raw,3.48831986e+05,1721,332
Raw,1.27518895e+05,1723,332
Raw,1.71420314e+05,1724,332
Raw,2.07383507e+05,1725,332
Raw,75425.606,1725,332
Raw,1.33036725e+05,1726,332
Raw,1.22999971e+05,1727,332
Raw,1.58268781e+05,1728,332
Raw,3.70956672e+05,1729,332
Raw,70820.542,1729,332
Raw,1.59132795e+05,1730,332
Raw,1.85407947e+05,1731,332
Raw,1.39131715e+05,1732,332
Raw,1.84186466e+05,1733,332
Raw,60244.724,1733,332
Raw,1.40653424e+05,1734,332
Raw,1.47832275e+05,1735,332
Raw,1.36533491e+05,1736,332
Raw,1.32557578e+05,1737,332
Raw,1.6989089e+05,1738,332
Raw,1.44711592e+05,1739,332
Raw,1.18002608e+05,1739,332
Raw,1.2595258e+05,1740,332
Raw,1.55027605e+05,1741,332
Raw,2.90869065e+05,1742,332
Raw,1.32806981e+05,1744,332
Raw,1.66212788e+05,1745,332
Raw,1.19139268e+05,1745,332
Raw,1.30739501e+05,1746,332
Raw,1.22599619e+05,1748,332
Raw,1.47984159e+05,1749,332
Raw,1.24251335e+05,1750,332
Raw,1.27331099e+05,1751,332
Raw,1.45337761e+05,1752,332
Raw,1.53287078e+05,1754,332
Raw,3.06745965e+05,1756,332
Raw,1.22147507e+05,1757,332
Raw,1.29832998e+05,1758,332
Raw,1.16490026e+05,1759,332
Raw,1.11336049e+05,1760,332
Raw,1.66104837e+05,1761,332
Raw,1.34840605e+05,1762,332
Raw,1.3874374e+05,1763,332
Raw,1.46043488e+05,1764,332
Raw,1.44065123e+05,1766,332
Raw,1.48969372e+05,1767,332
Raw,1.26745635e+05,1768,332
Raw,1.50428379e+05,1769,332
Raw,1.66258524e+05,1770,332
Raw,1.4509274e+05,1771,332
Raw,51263.711,1771,332
Raw,1.4280565e+05,1772,332
Raw,1.82404111e+05,1773,332
Raw,1.58890861e+05,1774,332
Raw,1.31096815e+05,1775,332
Raw,2.13026528e+05,1776,332
Raw,1.50904351e+05,1777,332
Raw,1.16607344e+05,1777,332
Raw,2.57429147e+05,1778,332
Raw,1.43345853e+05,1779,332
Raw,70612.052,1779,332
Raw,4.33323427e+05,1780,332
Raw,1.54351061e+05,1781,332
Raw,57137.79,1781,332
Raw,1.87801679e+05,1782,332
Raw,1.36632423e+05,1783,332
Raw,1.02444342e+05,1783,332
Raw,2.9887512e+05,1784,332
Raw,1.38847971e+05,1785,332
Raw,1.10836482e+05,1786,332
Raw,1.93424759e+05,1787,332
Raw,1.37064728e+05,1788,332
Raw,1.12827662e+05,1789,332
Raw,1.32882704e+05,1789,332
Raw,1.2564463e+05,1790,332
Raw,1.50631037e+05,1791,332
Raw,1.26626832e+05,1792,332
Raw,2.37065757e+05,1793,332
Raw,1.22989834e+05,1795,332
Raw,1.30230831e+05,1796,332
Raw,86928.577,1797,332
Raw,1.20769883e+05,1797,332
Raw,1.33085434e+05,1798,332
Raw,1.52389031e+05,1799,332
Raw,1.39656772e+05,1800,332
Raw,1.67242142e+05,1801,332
Raw,1.58662171e+05,1802,332
Raw,1.13504501e+05,1803,332
Raw,1.07010258e+05,1804,332
Raw,3.00656919e+05,1806,332
Raw,1.50177814e+05,1807,332
Raw,1.31268214e+05,1808,332
Raw,79127.866,1808,332
Raw,2.16229154e+05,1809,332
Raw,1.61822201e+05,1810,332
Raw,1.34447564e+05,1811,332
Raw,1.36861117e+05,1811,332
Raw,1.2296526e+05,1812,332
Raw,1.17404376e+05,1814,332
Raw,1.52743942e+05,1815,332
Raw,99639.709,1816,332
Raw,1.31692879e+05,1817,332
Raw,2.14006775e+05,1818,332
Raw,1.03599811e+05,1819,332
Raw,1.43705583e+05,1820,332
Raw,1.43159408e+05,1821,332
Raw,1.21964042e+05,1822,332
Raw,1.27292039e+05,1823,332
Raw,1.77676368e+05,1824,332
Raw,4.04099421e+05,1825,332
Raw,4.06311055e+05,1826,332
Raw,1.79551186e+05,1827,332
Raw,94487.476,1828,332
Raw,1.39507278e+05,1828,332
Raw,80634.419,1828,332
Raw,1.67144849e+05,1829,332
Raw,1.15421816e+05,1830,332
Raw,1.23750978e+05,1831,332
Raw,1.47687701e+05,1832,332
Raw,1.45370523e+05,1833,332
Raw,1.45333071e+05,1834,332
Raw,57991.354,1834,332
Raw,69669.575,1834,332
Raw,1.19145566e+05,1835,332
Raw,2.65045802e+05,1836,332
Raw,1.26322532e+05,1837,332
Raw,1.01911831e+05,1838,332
Raw,1.36183279e+05,1838,332
Raw,1.19818334e+05,1839,332
Raw,1.88044416e+05,1840,332
Raw,3.55266576e+05,1841,332
Raw,1.38722401e+05,1843,332
Raw,1.81456267e+05,1844,332
Raw,2.31183786e+05,1845,332
Raw,1.32115971e+05,1846,332
Raw,3.00187619e+05,1847,332
Raw,98443.741,1847,332
Raw,1.7421274e+05,1848,332
Raw,2.14844774e+05,1849,332
Raw,2.51323469e+05,1850,332
Raw,2.70393141e+05,1851,332
Raw,1.17813957e+05,1852,332
Raw,1.28528847e+05,1853,332
Raw,1.19055104e+05,1854,332
Raw,1.38655132e+05,1856,332
Raw,1.8890218e+05,1857,332
Raw,1.19845836e+05,1858,332
Raw,1.73916776e+05,1859,332
Raw,1.39907298e+05,1860,332
Raw,3.0465925e+05,1861,332
Raw,2.66526878e+05,1862,332
Raw,1.47100346e+05,1863,332
Raw,1.30807848e+05,1863,332
Raw,1.29833175e+05,1864,332
Raw,1.15281669e+05,1865,332
Raw,1.44154664e+05,1866,332
Raw,1.1578318e+05,1867,332
Raw,98845.403,1867,332
Raw,1.30581259e+05,1868,332
Raw,1.30418856e+05,1870,332
Raw,1.80733597e+05,1870,332
Raw,1.79827964e+05,1871,332
Raw,2.16534101e+05,1873,332
Raw,1.59621751e+05,1874,332
Raw,1.25770931e+05,1875,332
Raw,1.33935464e+05,1876,332
Raw,1.26476652e+05,1877,332
Raw,2.14545037e+05,1878,332
Raw,2.0978188e+05,1879,332
Raw,1.66301325e+05,1880,332
Raw,1.39968055e+05,1881,332
Raw,1.48478903e+05,1882,332
Raw,2.50602504e+05,1883,332
Raw,1.83048358e+05,1884,332
Raw,2.10551925e+05,1885,332
Raw,1.35521277e+05,1886,332
Raw,1.27448812e+05,1887,332
Raw,1.24569156e+05,1888,332
Raw,2.66240352e+05,1889,332
Raw,1.6907105e+05,1890,332
Raw,1.2559207e+05,1891,332
Raw,1.64887404e+05,1892,332
Raw,99060.666,1892,332
Raw,3.11908477e+05,1893,332
Raw,1.61347271e+05,1894,332
Raw,1.3882448e+05,1895,332
Raw,1.28138008e+05,1895,332
Raw,1.53332667e+05,1896,332
Raw,1.2859131e+05,1897,332
Raw,1.54379565e+05,1898,332
Raw,14119.836,1899,332
Raw,1.55946999e+05,1899,332
Raw,1.48219713e+05,1900,332
Raw,1.49424005e+05,1901,332
Raw,2.4711895e+05,1902,332
Raw,1.83302708e+05,1902,332
Raw,1.33153312e+05,1903,332
Raw,1.62169373e+05,1904,332
Raw,1.6500158e+05,1905,332
Raw,3.27852611e+05,1906,332
Raw,2.04362161e+05,1907,332
Raw,2.39535865e+05,1908,332
Raw,3.52220883e+05,1909,332
Raw,1.35726103e+05,1911,332
Raw,2.37440513e+05,1912,332
Raw,1.62426151e+05,1913,332
Raw,1.51870679e+05,1914,332
Raw,1.38729134e+05,1915,332
Raw,1.57205696e+05,1916,332
Raw,2.68155283e+05,1917,332
Raw,1.01826454e+05,1918,332
Raw,1.65475565e+05,1919,332
Raw,1.59883834e+05,1920,332
Raw,1.61415117e+05,1921,332
Raw,2.31232723e+05,1922,332
Raw,1.65587177e+05,1923,332
Raw,2.62275614e+05,1924,332
Raw,1.35845561e+05,1925,332
Raw,1.89284889e+05,1926,332
Raw,1.94867207e+05,1928,332
Raw,1.59469186e+05,1929,332
Raw,1.41287913e+05,1930,332
Raw,2.10322923e+05,1931,332
Raw,1.36512132e+05,1932,332
Raw,2.7534542e+05,1933,332
Raw,87366.811,1933,332
Raw,2.46844417e+05,1934,332
Raw,1.26874215e+05,1935,332
Raw,1.56300471e+05,1936,332
Raw,1.50099682e+05,1937,332
Raw,81728.638,1937,332
Raw,1.21705206e+05,1937,332
Raw,57258.036,1938,332
Raw,1.41541032e+05,1938,332
Raw,1.66786774e+05,1939,332
Raw,1.32336838e+05,1940,332
Raw,2.87752365e+05,1942,332
Raw,1.79413641e+05,1943,332
Raw,1.50544261e+05,1944,332
Raw,1.57566145e+05,1945,332
Raw,1.48381691e+05,1946,332
Raw,1.79333616e+05,1947,332
Raw,46670.737,1947,332
Raw,1.2282685e+05,1949,332
Raw,1.06886447e+05,1949,332
Raw,1.04395029e+05,1950,332
Raw,1.89143049e+05,1951,332
Raw,1.05838708e+05,1952,332
Raw,1.54316254e+05,1953,332
Raw,1.01758074e+05,1953,332
Raw,1.79108176e+05,1954,332
Raw,1.63728181e+05,1955,332
Raw,3.22180785e+05,1956,332
Raw,1.55591628e+05,1957,332
Raw,2.49938387e+05,1958,332
Raw,1.67716632e+05,1959,332
Raw,1.47678028e+05,1960,332
Raw,1.26532912e+05,1961,332
Raw,1.61749881e+05,1963,332
Raw,1.81856412e+05,1964,332
Raw,1.40261087e+05,1965,332
Raw,1.28478212e+05,1966,332
Raw,1.57474445e+05,1967,332
Raw,1.85017452e+05,1968,332
Raw,2.89224161e+05,1969,332
Raw,1.32559733e+05,1970,332
Raw,1.7464254e+05,1971,332
Raw,1.54322972e+05,1972,332
Raw,2.71752094e+05,1973,332
Raw,1.18866419e+05,1973,332
Raw,1.52188565e+05,1974,332
Raw,1.59798214e+05,1976,332
Raw,99099.719,1977,332
Raw,2.08903902e+05,1977,332
Raw,4.2287311e+05,1979,332
Raw,1.59949774e+05,1980,332
Raw,1.46130038e+05,1981,332
Raw,1.36908441e+05,1982,332
Raw,1.37860138e+05,1983,332
Raw,1.99540829e+05,1984,332
Raw,1.10680137e+05,1985,332
Raw,1.28488706e+05,1986,332
Raw,69565.886,1986,332
Raw,1.38614368e+05,1987,332
Raw,1.52018966e+05,1988,332
Raw,1.45450504e+05,1989,332
Raw,1.70466784e+05,1990,332
Raw,1.29774814e+05,1991,332
Raw,1.18978113e+05,1991,332
Raw,1.78534795e+05,1992,332
Raw,1.12459919e+05,1993,332
Raw,1.811987e+05,1994,332
Raw,1.49419537e+05,1995,332
Raw,1.73475156e+05,1996,332
Raw,1.66997756e+05,1997,332
Raw,1.5235086e+05,1998,332
Raw,1.72130064e+05,2000,332
Raw,3.25799661e+05,2001,332
Raw,1.75171749e+05,2002,332
Raw,1.42109978e+05,2003,332
Raw,1.30375088e+05,2004,332
Raw,59122.375,2005,332
Raw,1.63012721e+05,2005,332
Raw,1.51771867e+05,2006,332
Raw,1.5809343e+05,2007,332
Raw,1.72441128e+05,2008,332
Raw,1.74226165e+05,2009,332
Raw,1.57269245e+05,2010,332
Raw,1.27005801e+05,2011,332
Raw,3.1013416e+05,2012,332
Raw,1.75237287e+05,2013,332
Raw,46330.92,2014,332
Raw,1.34015109e+05,2014,332
Raw,1.09240865e+05,2015,332
Raw,1.76431556e+05,2016,332
Raw,3.23495457e+05,2017,332
Raw,1.32181762e+05,2018,332
Raw,1.8055942e+05,2019,332
Raw,1.82906315e+05,2020,332
Raw,1.65526564e+05,2021,332
Raw,63319.77,2021,332
Raw,2.35668915e+05,2022,332
Raw,2.67701301e+05,2023,332
Raw,1.85311472e+05,2024,332
Raw,1.1956493e+05,2025,332
Raw,1.56883726e+05,2026,332
Raw,1.27287061e+05,2027,332
Raw,1.78397639e+05,2028,332
Raw,1.21332377e+05,2029,332
Raw,1.63717718e+05,2030,332
Raw,2.2559286e+05,2031,332
Raw,1.87339063e+05,2032,332
Raw,2.43280978e+05,2033,332
Raw,1.36226195e+05,2034,332
Raw,1.06322925e+05,2034,332
Raw,1.87277105e+05,2035,332
Raw,1.75116752e+05,2036,332
Raw,1.33436005e+05,2037,332
Raw,1.24181834e+05,2038,332
Raw,1.73572323e+05,2039,332
Raw,1.4976278e+05,2040,332
Raw,1.48023194e+05,2041,332
Raw,3.5834794e+05,2042,332
Raw,1.51212694e+05,2043,332
Raw,1.58412277e+05,2044,332
Raw,1.50742195e+05,2045,332
Raw,2.49699645e+05,2046,332
Raw,1.49089901e+05,2047,332
Raw,1.24676354e+05,2048,332
Raw,3.98378193e+05,2049,332
Raw,2.17369268e+05,2049,332
Raw,1.49027649e+05,2050,332
Raw,92846.862,2050,332
Raw,1.49881435e+05,2051,332
Raw,1.31165148e+05,2052,332
Raw,1.21929866e+05,2053,332
Raw,1.38399989e+05,2054,332
Raw,1.95665452e+05,2055,332
Raw,1.15403883e+05,2056,332
Raw,1.46605644e+05,2057,332
Raw,1.48785881e+05,2059,332
Raw,1.4982939e+05,2060,332
Raw,1.44756031e+05,2061,332
Raw,2.59471688e+05,2062,332
Raw,1.52307414e+05,2063,332
Raw,1.82071605e+05,2064,332
Raw,3.59981179e+05,2065,332
Raw,1.28239168e+05,2067,332
Raw,2.59589625e+05,2068,332
Raw,2.46517082e+05,2069,332
Raw,1.12293923e+05,2069,332
Raw,2.66734674e+05,2070,332
Raw,1.27396237e+05,2071,332
Raw,1.19850941e+05,2072,332
Raw,1.41243474e+05,2073,332
Raw,1.56260181e+05,2074,332
Raw,1.27015972e+05,2075,332
Raw,1.56130065e+05,2076,332
Raw,1.47407896e+05,2077,332
Raw,1.54261542e+05,2078,332
Raw,1.52469795e+05,2079,332
Raw,1.27044315e+05,2080,332
Raw,2.67477331e+05,2081,332
Raw,1.30991797e+05,2083,332
Raw,47389.096,2083,332
Raw,1.96991068e+05,2084,332
Raw,1.4203417e+05,2085,332
Raw,1.31791179e+05,2086,332
Raw,1.20797756e+05,2087,332
Raw,2.54134888e+05,2088,332
Raw,2.93608846e+05,2089,332
Raw,1.23734159e+05,2090,332
Raw,1.59400646e+05,2091,332
Raw,1.47067876e+05,2092,332
Raw,1.30201138e+05,2092,332
Raw,2.63411729e+05,2093,332
Raw,1.30127439e+05,2094,332
Raw,1.34897534e+05,2095,332
Raw,1.4638163e+05,2096,332
Raw,1.4189511e+05,2098,332
Raw,1.55135081e+05,2099,332
Raw,1.48363728e+05,2100,332
Raw,1.58204877e+05,2101,332
Raw,1.39813996e+05,2102,332
Raw,1.11335156e+05,2103,332
Raw,1.41816432e+05,2104,332
Raw,1.43065003e+05,2105,332
Raw,1.63640818e+05,2106,332
Raw,1.01828572e+05,2106,332
Raw,2.67565883e+05,2108,332
Raw,2.47770478e+05,2109,332
Raw,2.5412308e+05,2110,332
Raw,1.20959789e+05,2111,332
Raw,1.5279443e+05,2112,332
Raw,1.7853337e+05,2113,332
Raw,96715.272,2113,332
Raw,1.30783858e+05,2115,332
Raw,1.39994857e+05,2116,332
Raw,1.59396707e+05,2117,332
Raw,92990.49,2117,332
Raw,1.12290354e+05,2118,332
Raw,1.3548545e+05,2119,332
Raw,1.53437561e+05,2120,332
Raw,1.78340959e+05,2121,332
Raw,1.56295586e+05,2122,332
Raw,38441.164,2123,332
Raw,1.3833805e+05,2123,332
Raw,1.51748944e+05,2125,332
Raw,1.36073834e+05,2126,332
Raw,2.05914455e+05,2126,332
Raw,2.66834109e+05,2127,332
Raw,1.29549452e+05,2128,332
Raw,1.22387801e+05,2129,332
Raw,1.64365477e+05,2130,332
Raw,1.67100738e+05,2131,332
Raw,1.17442388e+05,2132,332
Raw,3.63793444e+05,2133,332
Raw,1.15063593e+05,2134,332
Raw,1.95092542e+05,2134,332
Raw,1.93430831e+05,2135,332
Raw,3.02531457e+05,2136,332
Raw,1.98577305e+05,2138,332
Raw,1.5636433e+05,2140,332
Raw,1.08493523e+05,2140,332
Raw,1.4094154e+05,2141,332
Raw,3.64749871e+05,2142,332
Raw,1.67960086e+05,2143,332
Raw,2.14162592e+05,2144,332
Raw,57833.434,2144,332
Raw,1.43203195e+05,2145,332
Raw,1.63013913e+05,2146,332
Raw,1.19671261e+05,2147,332
Raw,1.3202569e+05,2148,332
Raw,1.6361548e+05,2149,332
Raw,1.19611427e+05,2150,332
Raw,1.52053396e+05,2151,332
Raw,1.57326053e+05,2152,332
Raw,1.19816107e+05,2153,332
Raw,1.47825287e+05,2154,332
Raw,1.34172118e+05,2155,332
Raw,1.32388463e+05,2156,332
Raw,1.27664192e+05,2157,332
Raw,1.41737744e+05,2158,332
Raw,1.11363703e+05,2159,332
Raw,1.15065914e+05,2159,332
