Cut?,Counts,eventNumber,runNumber
Raw,55,0,332
Raw,55,1,332
Raw,59,2,332
Raw,64,3,332
Raw,53,4,332
Raw,98,5,332
Raw,56,6,332
Raw,150,10,332
Raw,54,11,332
Raw,84,14,332
Raw,82,14,332
Raw,58,15,332
Raw,132,17,332
Raw,119,18,332
Raw,80,19,332
Raw,63,21,332
Raw,57,22,332
Raw,51,23,332
Raw,67,24,332
Raw,35,24,332
Raw,60,25,332
Raw,159,26,332
Raw,8,28,332
Raw,59,28,332
Raw,53,29,332
Raw,43,30,332
Raw,100,30,332
Raw,55,32,332
Raw,95,33,332
Raw,57,34,332
Raw,19,35,332
Raw,53,37,332
Raw,53,38,332
Raw,36,38,332
Raw,67,39,332
Raw,97,40,332
Raw,123,41,332
Raw,49,42,332
Raw,47,43,332
Raw,159,44,332
Raw,103,45,332
Raw,59,46,332
Raw,126,47,332
Raw,109,48,332
Raw,58,49,332
Raw,166,50,332
Raw,128,51,332
Raw,90,53,332
Raw,51,53,332
Raw,49,53,332
Raw,49,55,332
Raw,41,56,332
Raw,90,56,332
Raw,58,57,332
Raw,50,57,332
Raw,53,58,332
Raw,157,59,332
Raw,27,59,332
Raw,150,60,332
Raw,91,62,332
Raw,117,63,332
Raw,130,64,332
Raw,91,65,332
Raw,118,66,332
Raw,152,67,332
Raw,93,68,332
Raw,51,69,332
Raw,56,70,332
Raw,55,71,332
Raw,57,71,332
Raw,100,72,332
Raw,60,73,332
Raw,164,74,332
Raw,105,75,332
Raw,92,75,332
Raw,123,76,332
Raw,139,78,332
Raw,39,78,332
Raw,52,79,332
Raw,92,80,332
Raw,95,81,332
Raw,137,82,332
Raw,58,83,332
Raw,121,84,332
Raw,108,84,332
Raw,59,85,332
Raw,49,86,332
Raw,57,87,332
Raw,156,88,332
Raw,54,89,332
Raw,39,90,332
Raw,58,90,332
Raw,57,91,332
Raw,38,91,332
Raw,54,92,332
Raw,50,93,332
Raw,56,94,332
Raw,53,95,332
Raw,102,96,332
Raw,60,97,332
Raw,70,98,332
Raw,81,99,332
Raw,113,99,332
Raw,52,100,332
Raw,88,101,332
Raw,55,103,332
Raw,55,104,332
Raw,83,105,332
Raw,45,105,332
Raw,116,106,332
Raw,56,107,332
Raw,41,108,332
Raw,68,108,332
Raw,52,109,332
Raw,3,109,332
Raw,169,110,332
Raw,36,111,332
Raw,91,111,332
Raw,94,112,332
Raw,58,113,332
Raw,60,116,332
Raw,47,116,332
Raw,128,118,332
Raw,52,119,332
Raw,96,121,332
Raw,101,122,332
Raw,57,123,332
Raw,56,124,332
Raw,55,125,332
Raw,61,126,332
Raw,56,127,332
Raw,61,127,332
Raw,46,127,332
Raw,120,128,332
Raw,53,129,332
Raw,18,130,332
Raw,55,130,332
Raw,74,132,332
Raw,63,133,332
Raw,114,134,332
Raw,113,135,332
Raw,120,136,332
Raw,52,137,332
Raw,92,138,332
Raw,59,139,332
Raw,56,140,332
Raw,48,140,332
Raw,159,141,332
Raw,69,141,332
Raw,51,143,332
Raw,29,143,332
Raw,58,144,332
Raw,63,145,332
Raw,52,146,332
Raw,104,147,332
Raw,66,148,332
Raw,49,149,332
Raw,61,150,332
Raw,50,152,332
Raw,106,154,332
Raw,95,155,332
Raw,51,155,332
Raw,20,157,332
Raw,92,157,332
Raw,53,158,332
Raw,93,158,332
Raw,51,159,332
Raw,53,162,332
Raw,87,163,332
Raw,128,164,332
Raw,60,165,332
Raw,103,166,332
Raw,165,167,332
Raw,37,167,332
Raw,106,168,332
Raw,154,170,332
Raw,51,170,332
Raw,59,171,332
Raw,165,172,332
Raw,135,174,332
Raw,63,175,332
Raw,59,176,332
Raw,49,177,332
Raw,145,178,332
Raw,60,179,332
Raw,56,180,332
Raw,70,181,332
Raw,62,182,332
Raw,47,183,332
Raw,61,183,332
Raw,111,184,332
Raw,38,184,332
Raw,34,184,332
Raw,64,186,332
Raw,151,187,332
Raw,58,188,332
Raw,61,189,332
Raw,55,190,332
Raw,101,191,332
Raw,70,192,332
Raw,95,193,332
Raw,44,194,332
Raw,62,194,332
Raw,66,195,332
Raw,43,196,332
Raw,52,196,332
Raw,62,198,332
Raw,97,199,332
Raw,142,200,332
Raw,61,200,332
Raw,93,201,332
Raw,52,202,332
Raw,56,203,332
Raw,49,204,332
Raw,55,204,332
Raw,80,205,332
Raw,61,207,332
Raw,44,209,332
Raw,56,210,332
Raw,64,211,332
Raw,133,214,332
Raw,95,215,332
Raw,43,216,332
Raw,94,217,332
Raw,49,217,332
Raw,50,218,332
Raw,113,219,332
Raw,51,220,332
Raw,110,222,332
Raw,155,224,332
Raw,129,225,332
Raw,155,226,332
Raw,47,226,332
Raw,54,227,332
Raw,69,228,332
Raw,55,230,332
Raw,50,231,332
Raw,57,232,332
Raw,61,234,332
Raw,60,235,332
Raw,74,236,332
Raw,45,236,332
Raw,123,237,332
Raw,137,238,332
Raw,56,238,332
Raw,65,239,332
Raw,51,240,332
Raw,125,241,332
Raw,56,243,332
Raw,147,244,332
Raw,48,244,332
Raw,59,246,332
Raw,59,247,332
Raw,97,248,332
Raw,96,249,332
Raw,61,250,332
Raw,24,250,332
Raw,84,252,332
Raw,57,253,332
Raw,50,256,332
Raw,54,257,332
Raw,60,258,332
Raw,143,259,332
Raw,73,260,332
Raw,111,261,332
Raw,59,262,332
Raw,95,263,332
Raw,55,264,332
Raw,58,265,332
Raw,57,267,332
Raw,104,269,332
Raw,67,270,332
Raw,17,270,332
Raw,100,271,332
Raw,110,272,332
Raw,45,272,332
Raw,169,273,332
Raw,100,274,332
Raw,49,275,332
Raw,68,275,332
Raw,147,276,332
Raw,55,278,332
Raw,58,279,332
Raw,60,280,332
Raw,47,281,332
Raw,126,282,332
Raw,83,283,332
Raw,101,284,332
Raw,53,285,332
Raw,33,285,332
Raw,57,286,332
Raw,60,287,332
Raw,57,289,332
Raw,49,292,332
Raw,104,293,332
Raw,52,294,332
Raw,165,295,332
Raw,49,297,332
Raw,92,299,332
Raw,61,300,332
Raw,53,301,332
Raw,108,302,332
Raw,52,303,332
Raw,101,304,332
Raw,129,304,332
Raw,55,305,332
Raw,47,307,332
Raw,103,308,332
Raw,110,309,332
Raw,141,310,332
Raw,36,310,332
Raw,26,311,332
Raw,117,311,332
Raw,61,312,332
Raw,58,313,332
Raw,20,314,332
Raw,60,315,332
Raw,104,316,332
Raw,51,318,332
Raw,92,319,332
Raw,51,320,332
Raw,98,320,332
Raw,53,321,332
Raw,67,322,332
Raw,51,323,332
Raw,73,324,332
Raw,121,325,332
Raw,53,325,332
Raw,61,326,332
Raw,58,327,332
Raw,49,327,332
Raw,70,328,332
Raw,58,329,332
Raw,53,330,332
Raw,106,331,332
Raw,58,332,332
Raw,138,333,332
Raw,114,334,332
Raw,66,335,332
Raw,146,336,332
Raw,111,337,332
Raw,132,338,332
Raw,65,340,332
Raw,114,341,332
Raw,111,342,332
Raw,104,343,332
Raw,52,344,332
Raw,68,344,332
Raw,106,345,332
Raw,27,345,332
Raw,102,347,332
Raw,100,347,332
Raw,57,348,332
Raw,99,349,332
Raw,50,350,332
Raw,46,350,332
Raw,120,351,332
Raw,51,352,332
Raw,64,353,332
Raw,108,354,332
Raw,128,355,332
Raw,108,355,332
Raw,100,356,332
Raw,18,356,332
Raw,52,357,332
Raw,49,357,332
Raw,58,358,332
Raw,93,359,332
Raw,99,362,332
Raw,54,363,332
Raw,58,364,332
Raw,55,365,332
Raw,58,366,332
Raw,24,366,332
Raw,88,367,332
Raw,92,368,332
Raw,28,368,332
Raw,60,369,332
Raw,145,370,332
Raw,60,371,332
Raw,138,372,332
Raw,62,373,332
Raw,139,374,332
Raw,168,375,332
Raw,104,377,332
Raw,59,378,332
Raw,51,381,332
Raw,172,383,332
Raw,49,384,332
Raw,45,386,332
Raw,52,389,332
Raw,93,390,332
Raw,62,391,332
Raw,92,392,332
Raw,60,393,332
Raw,53,394,332
Raw,62,395,332
Raw,51,396,332
Raw,49,397,332
Raw,57,398,332
Raw,64,399,332
Raw,166,400,332
Raw,83,400,332
Raw,51,401,332
Raw,160,401,332
Raw,54,402,332
Raw,83,403,332
Raw,55,405,332
Raw,58,407,332
Raw,53,407,332
Raw,102,408,332
Raw,169,410,332
Raw,53,411,332
Raw,117,412,332
Raw,97,413,332
Raw,58,414,332
Raw,142,416,332
Raw,54,417,332
Raw,44,417,332
Raw,56,418,332
Raw,61,419,332
Raw,19,419,332
Raw,62,421,332
Raw,56,422,332
Raw,86,423,332
Raw,38,423,332
Raw,135,425,332
Raw,109,426,332
Raw,62,427,332
Raw,53,428,332
Raw,53,429,332
Raw,44,429,332
Raw,171,431,332
Raw,86,432,332
Raw,15,432,332
Raw,61,434,332
Raw,45,434,332
Raw,150,436,332
Raw,109,439,332
Raw,108,440,332
Raw,95,441,332
Raw,107,442,332
Raw,58,443,332
Raw,56,444,332
Raw,36,444,332
Raw,55,445,332
Raw,54,446,332
Raw,87,447,332
Raw,114,448,332
Raw,95,449,332
Raw,47,450,332
Raw,56,450,332
Raw,99,451,332
Raw,45,452,332
Raw,58,452,332
Raw,54,452,332
Raw,53,453,332
Raw,48,454,332
Raw,68,455,332
Raw,50,456,332
Raw,60,457,332
Raw,103,458,332
Raw,62,459,332
Raw,55,460,332
Raw,91,460,332
Raw,65,461,332
Raw,113,462,332
Raw,115,463,332
Raw,38,463,332
Raw,101,464,332
Raw,60,465,332
Raw,47,465,332
Raw,55,466,332
Raw,80,467,332
Raw,144,468,332
Raw,81,469,332
Raw,55,469,332
Raw,59,470,332
Raw,55,471,332
Raw,117,472,332
Raw,65,473,332
Raw,63,474,332
Raw,57,475,332
Raw,54,476,332
Raw,129,477,332
Raw,49,479,332
Raw,61,480,332
Raw,56,481,332
Raw,82,482,332
Raw,57,483,332
Raw,151,484,332
Raw,62,485,332
Raw,54,486,332
Raw,44,486,332
Raw,60,487,332
Raw,121,488,332
Raw,114,489,332
Raw,50,491,332
Raw,128,492,332
Raw,48,492,332
Raw,104,493,332
Raw,46,494,332
Raw,112,494,332
Raw,56,495,332
Raw,44,495,332
Raw,64,497,332
Raw,80,497,332
Raw,68,498,332
Raw,100,499,332
Raw,56,501,332
Raw,104,505,332
Raw,111,506,332
Raw,111,508,332
Raw,44,508,332
Raw,108,509,332
Raw,86,509,332
Raw,50,511,332
Raw,90,512,332
Raw,147,514,332
Raw,36,516,332
Raw,92,517,332
Raw,73,517,332
Raw,28,517,332
Raw,55,518,332
Raw,39,518,332
Raw,35,518,332
Raw,49,519,332
Raw,53,520,332
Raw,62,520,332
Raw,59,521,332
Raw,49,522,332
Raw,50,524,332
Raw,111,524,332
Raw,23,525,332
Raw,50,525,332
Raw,54,526,332
Raw,58,527,332
Raw,62,528,332
Raw,146,529,332
Raw,19,529,332
Raw,101,530,332
Raw,63,531,332
Raw,58,532,332
Raw,50,532,332
Raw,123,535,332
Raw,108,536,332
Raw,53,537,332
Raw,145,538,332
Raw,96,538,332
Raw,170,539,332
Raw,107,540,332
Raw,61,541,332
Raw,55,543,332
Raw,58,544,332
Raw,35,544,332
Raw,104,545,332
Raw,49,545,332
Raw,112,547,332
Raw,54,548,332
Raw,99,549,332
Raw,57,550,332
Raw,54,551,332
Raw,30,551,332
Raw,122,552,332
Raw,51,553,332
Raw,60,555,332
Raw,114,556,332
Raw,25,556,332
Raw,57,557,332
Raw,41,558,332
Raw,96,558,332
Raw,156,559,332
Raw,52,560,332
Raw,163,562,332
Raw,34,562,332
Raw,123,563,332
Raw,69,564,332
Raw,161,566,332
Raw,53,567,332
Raw,114,568,332
Raw,53,569,332
Raw,48,569,332
Raw,54,570,332
Raw,54,571,332
Raw,51,572,332
Raw,125,573,332
Raw,75,574,332
Raw,30,574,332
Raw,56,575,332
Raw,31,575,332
Raw,61,576,332
Raw,63,577,332
Raw,97,577,332
Raw,57,578,332
Raw,56,581,332
Raw,53,582,332
Raw,52,583,332
Raw,107,584,332
Raw,34,587,332
Raw,103,587,332
Raw,25,587,332
Raw,114,588,332
Raw,49,588,332
Raw,59,589,332
Raw,70,590,332
Raw,17,590,332
Raw,61,591,332
Raw,96,591,332
Raw,61,592,332
Raw,109,593,332
Raw,68,594,332
Raw,31,595,332
Raw,53,596,332
Raw,48,596,332
Raw,164,597,332
Raw,48,598,332
Raw,60,598,332
Raw,68,599,332
Raw,57,600,332
Raw,43,601,332
Raw,60,601,332
Raw,58,602,332
Raw,64,603,332
Raw,113,604,332
Raw,65,605,332
Raw,38,605,332
Raw,155,607,332
Raw,51,608,332
Raw,62,609,332
Raw,64,611,332
Raw,36,612,332
Raw,63,613,332
Raw,170,614,332
Raw,43,614,332
Raw,105,615,332
Raw,138,616,332
Raw,70,618,332
Raw,108,619,332
Raw,57,620,332
Raw,49,621,332
Raw,62,622,332
Raw,61,623,332
Raw,95,624,332
Raw,91,625,332
Raw,57,625,332
Raw,53,627,332
Raw,64,628,332
Raw,95,629,332
Raw,53,630,332
Raw,26,630,332
Raw,62,631,332
Raw,140,632,332
Raw,62,633,332
Raw,98,634,332
Raw,84,635,332
Raw,44,635,332
Raw,158,636,332
Raw,98,637,332
Raw,66,638,332
Raw,57,641,332
Raw,161,642,332
Raw,118,643,332
Raw,63,644,332
Raw,131,645,332
Raw,57,646,332
Raw,159,647,332
Raw,111,650,332
Raw,19,650,332
Raw,95,651,332
Raw,108,652,332
Raw,59,653,332
Raw,105,654,332
Raw,65,655,332
Raw,137,656,332
Raw,62,657,332
Raw,58,658,332
Raw,60,659,332
Raw,104,660,332
Raw,49,660,332
Raw,59,661,332
Raw,50,662,332
Raw,40,663,332
Raw,64,663,332
Raw,59,664,332
Raw,63,666,332
Raw,53,667,332
Raw,67,668,332
Raw,120,670,332
Raw,60,672,332
Raw,44,672,332
Raw,101,673,332
Raw,157,674,332
Raw,55,675,332
Raw,57,676,332
Raw,155,678,332
Raw,65,679,332
Raw,147,680,332
Raw,162,682,332
Raw,116,683,332
Raw,33,684,332
Raw,19,686,332
Raw,54,686,332
Raw,83,687,332
Raw,46,687,332
Raw,59,688,332
Raw,90,688,332
Raw,58,689,332
Raw,117,690,332
Raw,61,692,332
Raw,161,693,332
Raw,103,694,332
Raw,65,695,332
Raw,98,696,332
Raw,98,697,332
Raw,151,698,332
Raw,60,699,332
Raw,111,701,332
Raw,29,703,332
Raw,125,703,332
Raw,61,704,332
Raw,100,704,332
Raw,60,705,332
Raw,57,705,332
Raw,161,706,332
Raw,42,706,332
Raw,66,707,332
Raw,82,708,332
Raw,68,709,332
Raw,46,709,332
Raw,57,710,332
Raw,63,711,332
Raw,48,711,332
Raw,56,712,332
Raw,63,713,332
Raw,58,713,332
Raw,62,715,332
Raw,62,716,332
Raw,38,717,332
Raw,60,717,332
Raw,101,719,332
Raw,97,720,332
Raw,66,721,332
Raw,72,722,332
Raw,47,722,332
Raw,60,724,332
Raw,168,725,332
Raw,59,726,332
Raw,61,727,332
Raw,59,728,332
Raw,166,729,332
Raw,60,730,332
Raw,154,731,332
Raw,53,732,332
Raw,135,733,332
Raw,53,734,332
Raw,85,734,332
Raw,98,735,332
Raw,124,736,332
Raw,64,737,332
Raw,53,738,332
Raw,18,740,332
Raw,60,740,332
Raw,53,743,332
Raw,95,744,332
Raw,55,745,332
Raw,124,746,332
Raw,56,747,332
Raw,87,748,332
Raw,49,751,332
Raw,53,752,332
Raw,58,754,332
Raw,58,755,332
Raw,118,757,332
Raw,58,758,332
Raw,50,759,332
Raw,67,759,332
Raw,92,760,332
Raw,51,761,332
Raw,64,762,332
Raw,63,763,332
Raw,62,763,332
Raw,46,764,332
Raw,66,764,332
Raw,27,764,332
Raw,57,764,332
Raw,113,765,332
Raw,103,766,332
Raw,63,767,332
Raw,56,768,332
Raw,72,770,332
Raw,125,772,332
Raw,94,774,332
Raw,54,774,332
Raw,60,775,332
Raw,155,776,332
Raw,112,777,332
Raw,81,777,332
Raw,62,778,332
Raw,47,782,332
Raw,59,782,332
Raw,59,783,332
Raw,99,784,332
Raw,103,785,332
Raw,59,786,332
Raw,125,786,332
Raw,99,787,332
Raw,56,787,332
Raw,120,788,332
Raw,56,790,332
Raw,80,791,332
Raw,48,791,332
Raw,52,792,332
Raw,59,793,332
Raw,59,794,332
Raw,58,795,332
Raw,55,797,332
Raw,58,798,332
Raw,60,799,332
Raw,84,800,332
Raw,56,800,332
Raw,57,801,332
Raw,100,802,332
Raw,79,803,332
Raw,64,804,332
Raw,56,805,332
Raw,69,806,332
Raw,60,807,332
Raw,45,807,332
Raw,52,808,332
Raw,110,809,332
Raw,51,810,332
Raw,97,811,332
Raw,72,813,332
Raw,60,813,332
Raw,94,814,332
Raw,102,817,332
Raw,130,818,332
Raw,56,819,332
Raw,66,820,332
Raw,29,821,332
Raw,111,821,332
Raw,93,822,332
Raw,38,822,332
Raw,74,822,332
Raw,140,823,332
Raw,125,826,332
Raw,115,827,332
Raw,59,828,332
Raw,14,829,332
Raw,52,829,332
Raw,60,830,332
Raw,56,831,332
Raw,153,832,332
Raw,54,833,332
Raw,53,833,332
Raw,63,834,332
Raw,161,835,332
Raw,62,836,332
Raw,145,837,332
Raw,40,838,332
Raw,65,838,332
Raw,59,839,332
Raw,10,843,332
Raw,55,843,332
Raw,55,845,332
Raw,54,847,332
Raw,116,849,332
Raw,60,850,332
Raw,92,850,332
Raw,68,851,332
Raw,49,852,332
Raw,111,852,332
Raw,64,853,332
Raw,27,853,332
Raw,54,854,332
Raw,137,855,332
Raw,89,857,332
Raw,56,858,332
Raw,53,859,332
Raw,70,860,332
Raw,106,861,332
Raw,60,862,332
Raw,70,863,332
Raw,58,864,332
Raw,98,865,332
Raw,55,866,332
Raw,169,867,332
Raw,149,868,332
Raw,172,869,332
Raw,155,870,332
Raw,62,871,332
Raw,61,872,332
Raw,52,874,332
Raw,17,875,332
Raw,55,875,332
Raw,96,876,332
Raw,81,876,332
Raw,62,878,332
Raw,98,879,332
Raw,64,880,332
Raw,46,880,332
Raw,70,882,332
Raw,82,882,332
Raw,55,883,332
Raw,52,884,332
Raw,56,884,332
Raw,136,885,332
Raw,54,887,332
Raw,110,889,332
Raw,119,890,332
Raw,108,891,332
Raw,102,892,332
Raw,41,892,332
Raw,106,893,332
Raw,32,894,332
Raw,108,894,332
Raw,171,895,332
Raw,57,896,332
Raw,152,897,332
Raw,64,899,332
Raw,46,899,332
Raw,135,900,332
Raw,105,901,332
Raw,109,902,332
Raw,63,902,332
Raw,27,903,332
Raw,50,903,332
Raw,10,904,332
Raw,64,905,332
Raw,57,906,332
Raw,118,907,332
Raw,48,908,332
Raw,107,909,332
Raw,62,910,332
Raw,166,911,332
Raw,54,911,332
Raw,155,912,332
Raw,59,913,332
Raw,27,913,332
Raw,110,914,332
Raw,94,915,332
Raw,58,916,332
Raw,60,918,332
Raw,56,919,332
Raw,58,920,332
Raw,56,921,332
Raw,159,922,332
Raw,67,923,332
Raw,56,924,332
Raw,57,925,332
Raw,61,926,332
Raw,25,926,332
Raw,58,928,332
Raw,40,929,332
Raw,107,929,332
Raw,107,930,332
Raw,111,932,332
Raw,66,933,332
Raw,58,934,332
Raw,145,935,332
Raw,66,936,332
Raw,106,937,332
Raw,53,938,332
Raw,23,938,332
Raw,57,939,332
Raw,45,940,332
Raw,62,942,332
Raw,61,943,332
Raw,57,944,332
Raw,54,946,332
Raw,12,946,332
Raw,49,947,332
Raw,122,947,332
Raw,46,948,332
Raw,129,948,332
Raw,56,951,332
Raw,108,953,332
Raw,69,954,332
Raw,45,954,332
Raw,56,955,332
Raw,51,956,332
Raw,52,957,332
Raw,67,958,332
Raw,38,958,332
Raw,33,958,332
Raw,137,961,332
Raw,141,962,332
Raw,67,963,332
Raw,99,965,332
Raw,37,965,332
Raw,52,966,332
Raw,57,966,332
Raw,101,967,332
Raw,59,968,332
Raw,55,969,332
Raw,45,972,332
Raw,98,972,332
Raw,105,973,332
Raw,101,973,332
Raw,57,974,332
Raw,53,975,332
Raw,58,976,332
Raw,74,977,332
Raw,59,979,332
Raw,48,980,332
Raw,53,980,332
Raw,63,981,332
Raw,110,983,332
Raw,122,985,332
Raw,105,986,332
Raw,54,987,332
Raw,56,988,332
Raw,53,989,332
Raw,57,991,332
Raw,49,991,332
Raw,141,992,332
Raw,63,993,332
Raw,44,993,332
Raw,121,994,332
Raw,66,995,332
Raw,46,996,332
Raw,53,997,332
Raw,45,997,332
Raw,60,999,332
Raw,58,1000,332
Raw,152,1001,332
Raw,72,1002,332
Raw,110,1003,332
Raw,49,1004,332
Raw,107,1005,332
Raw,54,1006,332
Raw,35,1007,332
Raw,136,1007,332
Raw,97,1008,332
Raw,50,1008,332
Raw,43,1009,332
Raw,107,1009,332
Raw,64,1010,332
Raw,31,1011,332
Raw,87,1011,332
Raw,101,1012,332
Raw,35,1012,332
Raw,111,1013,332
Raw,97,1014,332
Raw,154,1016,332
Raw,108,1017,332
Raw,161,1018,332
Raw,55,1019,332
Raw,47,1020,332
Raw,59,1020,332
Raw,59,1021,332
Raw,65,1023,332
Raw,108,1024,332
Raw,152,1025,332
Raw,73,1025,332
Raw,106,1026,332
Raw,52,1027,332
Raw,53,1028,332
Raw,137,1029,332
Raw,137,1030,332
Raw,53,1031,332
Raw,53,1032,332
Raw,90,1033,332
Raw,144,1034,332
Raw,111,1034,332
Raw,54,1035,332
Raw,57,1036,332
Raw,62,1038,332
Raw,149,1039,332
Raw,116,1040,332
Raw,37,1040,332
Raw,53,1041,332
Raw,60,1043,332
Raw,60,1044,332
Raw,14,1044,332
Raw,58,1045,332
Raw,41,1046,332
Raw,56,1046,332
Raw,60,1047,332
Raw,46,1048,332
Raw,53,1048,332
Raw,108,1049,332
Raw,142,1050,332
Raw,60,1050,332
Raw,56,1051,332
Raw,96,1052,332
Raw,60,1053,332
Raw,30,1053,332
Raw,55,1054,332
Raw,31,1054,332
Raw,53,1055,332
Raw,54,1056,332
Raw,66,1057,332
Raw,54,1058,332
Raw,141,1059,332
Raw,59,1060,332
Raw,53,1061,332
Raw,59,1062,332
Raw,63,1063,332
Raw,111,1064,332
Raw,56,1066,332
Raw,91,1067,332
Raw,164,1068,332
Raw,105,1069,332
Raw,55,1070,332
Raw,137,1071,332
Raw,57,1072,332
Raw,155,1073,332
Raw,74,1074,332
Raw,55,1076,332
Raw,42,1077,332
Raw,49,1077,332
Raw,52,1078,332
Raw,59,1079,332
Raw,42,1080,332
Raw,55,1080,332
Raw,53,1081,332
Raw,54,1082,332
Raw,71,1083,332
Raw,23,1083,332
Raw,55,1084,332
Raw,42,1085,332
Raw,51,1085,332
Raw,44,1086,332
Raw,54,1086,332
Raw,108,1087,332
Raw,51,1088,332
Raw,54,1088,332
Raw,63,1089,332
Raw,61,1090,332
Raw,99,1092,332
Raw,109,1093,332
Raw,54,1094,332
Raw,135,1095,332
Raw,39,1095,332
Raw,157,1096,332
Raw,61,1098,332
Raw,161,1100,332
Raw,47,1102,332
Raw,55,1103,332
Raw,53,1103,332
Raw,103,1104,332
Raw,48,1104,332
Raw,56,1105,332
Raw,58,1106,332
Raw,56,1107,332
Raw,111,1108,332
Raw,153,1108,332
Raw,107,1109,332
Raw,161,1110,332
Raw,45,1110,332
Raw,40,1110,332
Raw,97,1111,332
Raw,61,1112,332
Raw,125,1113,332
Raw,59,1115,332
Raw,155,1117,332
Raw,57,1119,332
Raw,156,1120,332
Raw,13,1120,332
Raw,59,1121,332
Raw,89,1122,332
Raw,163,1122,332
Raw,129,1124,332
Raw,67,1124,332
Raw,47,1125,332
Raw,109,1125,332
Raw,66,1126,332
Raw,111,1127,332
Raw,59,1128,332
Raw,50,1128,332
Raw,133,1129,332
Raw,116,1130,332
Raw,51,1134,332
Raw,48,1134,332
Raw,118,1135,332
Raw,29,1136,332
Raw,122,1136,332
Raw,53,1137,332
Raw,53,1137,332
Raw,56,1138,332
Raw,105,1139,332
Raw,53,1140,332
Raw,140,1141,332
Raw,62,1142,332
Raw,34,1142,332
Raw,104,1143,332
Raw,39,1143,332
Raw,56,1145,332
Raw,82,1147,332
Raw,42,1147,332
Raw,100,1148,332
Raw,53,1148,332
Raw,68,1149,332
Raw,61,1153,332
Raw,55,1155,332
Raw,36,1155,332
Raw,28,1156,332
Raw,49,1156,332
Raw,100,1157,332
Raw,51,1158,332
Raw,104,1159,332
Raw,56,1160,332
Raw,155,1161,332
Raw,50,1162,332
Raw,50,1162,332
Raw,56,1163,332
Raw,58,1165,332
Raw,67,1167,332
Raw,52,1168,332
Raw,76,1169,332
Raw,52,1169,332
Raw,81,1170,332
Raw,57,1171,332
Raw,55,1173,332
Raw,58,1174,332
Raw,51,1175,332
Raw,104,1176,332
Raw,61,1177,332
Raw,33,1177,332
Raw,107,1178,332
Raw,68,1178,332
Raw,137,1179,332
Raw,30,1179,332
Raw,60,1181,332
Raw,114,1182,332
Raw,154,1183,332
Raw,53,1185,332
Raw,46,1185,332
Raw,140,1186,332
Raw,43,1187,332
Raw,96,1187,332
Raw,64,1188,332
Raw,77,1188,332
Raw,16,1189,332
Raw,59,1190,332
Raw,144,1191,332
Raw,54,1192,332
Raw,53,1193,332
Raw,46,1194,332
Raw,54,1194,332
Raw,66,1195,332
Raw,54,1195,332
Raw,91,1196,332
Raw,132,1197,332
Raw,59,1198,332
Raw,57,1199,332
Raw,97,1200,332
Raw,48,1201,332
Raw,54,1202,332
Raw,58,1203,332
Raw,111,1205,332
Raw,50,1206,332
Raw,47,1206,332
Raw,120,1208,332
Raw,31,1208,332
Raw,52,1209,332
Raw,108,1209,332
Raw,55,1210,332
Raw,59,1211,332
Raw,65,1213,332
Raw,57,1214,332
Raw,57,1215,332
Raw,33,1217,332
Raw,148,1218,332
Raw,57,1219,332
Raw,168,1220,332
Raw,154,1221,332
Raw,95,1223,332
Raw,67,1224,332
Raw,57,1225,332
Raw,81,1226,332
Raw,155,1227,332
Raw,22,1227,332
Raw,59,1228,332
Raw,161,1231,332
Raw,35,1231,332
Raw,100,1232,332
Raw,54,1233,332
Raw,58,1234,332
Raw,52,1235,332
Raw,150,1236,332
Raw,126,1237,332
Raw,65,1240,332
Raw,39,1240,332
Raw,114,1241,332
Raw,61,1242,332
Raw,101,1244,332
Raw,160,1245,332
Raw,83,1246,332
Raw,44,1246,332
Raw,118,1247,332
Raw,167,1248,332
Raw,57,1250,332
Raw,58,1252,332
Raw,56,1253,332
Raw,47,1253,332
Raw,62,1254,332
Raw,105,1256,332
Raw,61,1258,332
Raw,55,1259,332
Raw,52,1260,332
Raw,36,1260,332
Raw,63,1264,332
Raw,152,1267,332
Raw,100,1268,332
Raw,109,1269,332
Raw,56,1271,332
Raw,82,1272,332
Raw,117,1273,332
Raw,59,1275,332
Raw,163,1276,332
Raw,26,1277,332
Raw,56,1277,332
Raw,57,1278,332
Raw,52,1281,332
Raw,99,1282,332
Raw,112,1283,332
Raw,16,1283,332
Raw,60,1284,332
Raw,59,1285,332
Raw,55,1286,332
Raw,56,1287,332
Raw,58,1288,332
Raw,60,1289,332
Raw,36,1289,332
Raw,135,1290,332
Raw,62,1291,332
Raw,71,1292,332
Raw,95,1293,332
Raw,67,1294,332
Raw,65,1295,332
Raw,109,1295,332
Raw,106,1297,332
Raw,90,1300,332
Raw,56,1301,332
Raw,84,1302,332
Raw,103,1304,332
Raw,54,1305,332
Raw,52,1306,332
Raw,39,1306,332
Raw,18,1307,332
Raw,60,1310,332
Raw,54,1311,332
Raw,109,1312,332
Raw,115,1313,332
Raw,48,1313,332
Raw,43,1313,332
Raw,51,1314,332
Raw,54,1314,332
Raw,62,1315,332
Raw,60,1316,332
Raw,44,1316,332
Raw,126,1318,332
Raw,114,1319,332
Raw,57,1321,332
Raw,12,1321,332
Raw,18,1321,332
Raw,83,1323,332
Raw,58,1325,332
Raw,58,1325,332
Raw,123,1326,332
Raw,156,1327,332
Raw,161,1328,332
Raw,131,1329,332
Raw,61,1330,332
Raw,57,1331,332
Raw,62,1332,332
Raw,148,1334,332
Raw,68,1335,332
Raw,45,1336,332
Raw,118,1337,332
Raw,59,1338,332
Raw,67,1339,332
Raw,39,1339,332
Raw,55,1340,332
Raw,105,1341,332
Raw,20,1342,332
Raw,163,1343,332
Raw,144,1345,332
Raw,52,1345,332
Raw,53,1346,332
Raw,54,1348,332
Raw,50,1348,332
Raw,48,1348,332
Raw,94,1350,332
Raw,64,1351,332
Raw,115,1351,332
Raw,105,1352,332
Raw,57,1353,332
Raw,53,1355,332
Raw,62,1356,332
Raw,115,1357,332
Raw,94,1358,332
Raw,95,1359,332
Raw,33,1359,332
Raw,169,1360,332
Raw,53,1362,332
Raw,38,1362,332
Raw,61,1363,332
Raw,98,1364,332
Raw,114,1366,332
Raw,100,1367,332
Raw,114,1368,332
Raw,60,1369,332
Raw,101,1371,332
Raw,61,1372,332
Raw,56,1373,332
Raw,61,1375,332
Raw,58,1376,332
Raw,113,1377,332
Raw,160,1378,332
Raw,57,1379,332
Raw,53,1382,332
Raw,57,1383,332
Raw,63,1384,332
Raw,53,1385,332
Raw,54,1386,332
Raw,45,1386,332
Raw,163,1387,332
Raw,49,1387,332
Raw,51,1390,332
Raw,58,1391,332
Raw,100,1392,332
Raw,55,1393,332
Raw,48,1393,332
Raw,57,1394,332
Raw,54,1395,332
Raw,85,1396,332
Raw,92,1397,332
Raw,74,1397,332
Raw,95,1398,332
Raw,54,1399,332
Raw,58,1400,332
Raw,143,1402,332
Raw,57,1403,332
Raw,55,1404,332
Raw,36,1405,332
Raw,107,1405,332
Raw,47,1406,332
Raw,56,1407,332
Raw,155,1408,332
Raw,61,1409,332
Raw,55,1410,332
Raw,129,1411,332
Raw,61,1412,332
Raw,52,1413,332
Raw,62,1415,332
Raw,100,1416,332
Raw,28,1417,332
Raw,115,1417,332
Raw,63,1418,332
Raw,116,1419,332
Raw,10,1419,332
Raw,150,1420,332
Raw,104,1421,332
Raw,109,1422,332
Raw,49,1423,332
Raw,166,1424,332
Raw,58,1425,332
Raw,65,1426,332
Raw,108,1427,332
Raw,55,1428,332
Raw,59,1430,332
Raw,64,1431,332
Raw,56,1431,332
Raw,65,1432,332
Raw,73,1433,332
Raw,122,1434,332
Raw,52,1435,332
Raw,67,1436,332
Raw,100,1437,332
Raw,63,1438,332
Raw,52,1439,332
Raw,97,1439,332
Raw,57,1441,332
Raw,54,1441,332
Raw,70,1442,332
Raw,55,1443,332
Raw,95,1445,332
Raw,35,1445,332
Raw,59,1447,332
Raw,92,1448,332
Raw,61,1449,332
Raw,67,1450,332
Raw,58,1451,332
Raw,34,1451,332
Raw,62,1452,332
Raw,112,1455,332
Raw,39,1456,332
Raw,52,1456,332
Raw,62,1457,332
Raw,57,1458,332
Raw,47,1458,332
Raw,71,1459,332
Raw,143,1460,332
Raw,117,1461,332
Raw,103,1462,332
Raw,60,1463,332
Raw,131,1464,332
Raw,55,1465,332
Raw,53,1466,332
Raw,53,1468,332
Raw,50,1469,332
Raw,55,1470,332
Raw,108,1471,332
Raw,27,1472,332
Raw,87,1472,332
Raw,54,1473,332
Raw,119,1474,332
Raw,67,1475,332
Raw,66,1476,332
Raw,144,1477,332
Raw,141,1478,332
Raw,58,1478,332
Raw,59,1479,332
Raw,144,1480,332
Raw,87,1481,332
Raw,38,1481,332
Raw,106,1483,332
Raw,59,1484,332
Raw,61,1486,332
Raw,56,1487,332
Raw,58,1488,332
Raw,63,1489,332
Raw,106,1490,332
Raw,72,1491,332
Raw,43,1491,332
Raw,61,1492,332
Raw,100,1494,332
Raw,31,1494,332
Raw,55,1497,332
Raw,86,1498,332
Raw,64,1499,332
Raw,47,1499,332
Raw,36,1500,332
Raw,60,1500,332
Raw,48,1502,332
Raw,52,1503,332
Raw,101,1504,332
Raw,55,1504,332
Raw,57,1505,332
Raw,106,1505,332
Raw,119,1506,332
Raw,62,1507,332
Raw,136,1508,332
Raw,64,1509,332
Raw,119,1511,332
Raw,34,1512,332
Raw,130,1512,332
Raw,59,1513,332
Raw,55,1514,332
Raw,57,1515,332
Raw,52,1516,332
Raw,38,1516,332
Raw,54,1518,332
Raw,92,1519,332
Raw,49,1519,332
Raw,58,1520,332
Raw,74,1520,332
Raw,64,1521,332
Raw,57,1522,332
Raw,113,1522,332
Raw,162,1523,332
Raw,56,1525,332
Raw,57,1526,332
Raw,64,1528,332
Raw,104,1529,332
Raw,60,1531,332
Raw,62,1533,332
Raw,71,1534,332
Raw,49,1535,332
Raw,58,1536,332
Raw,60,1537,332
Raw,46,1537,332
Raw,73,1538,332
Raw,55,1539,332
Raw,62,1540,332
Raw,59,1541,332
Raw,56,1542,332
Raw,126,1542,332
Raw,64,1543,332
Raw,59,1544,332
Raw,167,1545,332
Raw,51,1545,332
Raw,53,1546,332
Raw,37,1546,332
Raw,48,1547,332
Raw,99,1548,332
Raw,57,1549,332
Raw,62,1550,332
Raw,96,1551,332
Raw,28,1551,332
Raw,130,1554,332
Raw,52,1555,332
Raw,35,1555,332
Raw,61,1556,332
Raw,60,1559,332
Raw,40,1559,332
Raw,65,1561,332
Raw,61,1562,332
Raw,49,1562,332
Raw,54,1563,332
Raw,109,1564,332
Raw,131,1565,332
Raw,63,1566,332
Raw,114,1569,332
Raw,98,1571,332
Raw,58,1572,332
Raw,67,1573,332
Raw,51,1574,332
Raw,84,1575,332
Raw,51,1576,332
Raw,51,1578,332
Raw,129,1579,332
Raw,22,1579,332
Raw,69,1580,332
Raw,57,1581,332
Raw,124,1582,332
Raw,50,1584,332
Raw,59,1584,332
Raw,32,1584,332
Raw,58,1585,332
Raw,63,1586,332
Raw,96,1588,332
Raw,123,1589,332
Raw,64,1590,332
Raw,107,1591,332
Raw,137,1592,332
Raw,48,1592,332
Raw,132,1593,332
Raw,132,1595,332
Raw,62,1596,332
Raw,59,1597,332
Raw,111,1598,332
Raw,50,1599,332
Raw,98,1600,332
Raw,106,1600,332
Raw,145,1601,332
Raw,56,1602,332
Raw,67,1603,332
Raw,137,1604,332
Raw,64,1605,332
Raw,98,1606,332
Raw,65,1607,332
Raw,133,1609,332
Raw,153,1611,332
Raw,57,1613,332
Raw,65,1613,332
Raw,37,1614,332
Raw,61,1614,332
Raw,122,1615,332
Raw,79,1616,332
Raw,106,1616,332
Raw,58,1617,332
Raw,107,1618,332
Raw,97,1619,332
Raw,151,1620,332
Raw,166,1621,332
Raw,61,1622,332
Raw,107,1623,332
Raw,132,1624,332
Raw,49,1624,332
Raw,57,1625,332
Raw,84,1626,332
Raw,102,1626,332
Raw,61,1627,332
Raw,64,1628,332
Raw,55,1629,332
Raw,119,1630,332
Raw,100,1632,332
Raw,160,1633,332
Raw,96,1635,332
Raw,52,1636,332
Raw,60,1638,332
Raw,113,1639,332
Raw,52,1640,332
Raw,160,1641,332
Raw,56,1642,332
Raw,61,1645,332
Raw,161,1646,332
Raw,112,1647,332
Raw,164,1648,332
Raw,53,1649,332
Raw,113,1649,332
Raw,111,1651,332
Raw,71,1652,332
Raw,66,1654,332
Raw,46,1654,332
Raw,62,1655,332
Raw,159,1656,332
Raw,48,1656,332
Raw,61,1658,332
Raw,120,1659,332
Raw,60,1660,332
Raw,112,1662,332
Raw,37,1663,332
Raw,111,1663,332
Raw,27,1663,332
Raw,145,1664,332
Raw,63,1665,332
Raw,55,1666,332
Raw,56,1667,332
Raw,145,1668,332
Raw,56,1670,332
Raw,98,1671,332
Raw,51,1673,332
Raw,92,1673,332
Raw,64,1675,332
Raw,124,1676,332
Raw,146,1677,332
Raw,116,1679,332
Raw,102,1680,332
Raw,55,1681,332
Raw,54,1682,332
Raw,53,1683,332
Raw,53,1684,332
Raw,63,1685,332
Raw,81,1686,332
Raw,27,1686,332
Raw,77,1687,332
Raw,46,1687,332
Raw,62,1689,332
Raw,118,1690,332
Raw,119,1691,332
Raw,92,1692,332
Raw,59,1693,332
Raw,53,1694,332
Raw,61,1695,332
Raw,65,1696,332
Raw,60,1697,332
Raw,44,1698,332
Raw,57,1699,332
Raw,51,1700,332
Raw,35,1701,332
Raw,51,1701,332
Raw,45,1702,332
Raw,55,1703,332
Raw,61,1704,332
Raw,41,1704,332
Raw,24,1705,332
Raw,47,1705,332
Raw,62,1707,332
Raw,102,1708,332
Raw,95,1709,332
Raw,102,1710,332
Raw,50,1711,332
Raw,49,1712,332
Raw,67,1713,332
Raw,119,1714,332
Raw,95,1715,332
Raw,54,1716,332
Raw,123,1717,332
Raw,61,1718,332
Raw,53,1719,332
Raw,57,1720,332
Raw,128,1721,332
Raw,51,1723,332
Raw,58,1724,332
Raw,85,1725,332
Raw,29,1725,332
Raw,49,1726,332
Raw,56,1727,332
Raw,63,1728,332
Raw,118,1729,332
Raw,31,1729,332
Raw,61,1730,332
Raw,60,1731,332
Raw,49,1732,332
Raw,65,1733,332
Raw,23,1733,332
Raw,56,1734,332
Raw,54,1735,332
Raw,53,1736,332
Raw,49,1737,332
Raw,61,1738,332
Raw,47,1739,332
Raw,47,1739,332
Raw,50,1740,332
Raw,51,1741,332
Raw,112,1742,332
Raw,51,1744,332
Raw,59,1745,332
Raw,47,1745,332
Raw,50,1746,332
Raw,47,1748,332
Raw,49,1749,332
Raw,51,1750,332
Raw,52,1751,332
Raw,59,1752,332
Raw,57,1754,332
Raw,125,1756,332
Raw,50,1757,332
Raw,46,1758,332
Raw,40,1759,332
Raw,37,1760,332
Raw,57,1761,332
Raw,55,1762,332
Raw,52,1763,332
Raw,61,1764,332
Raw,53,1766,332
Raw,57,1767,332
Raw,50,1768,332
Raw,61,1769,332
Raw,65,1770,332
Raw,46,1771,332
Raw,17,1771,332
Raw,59,1772,332
Raw,72,1773,332
Raw,62,1774,332
Raw,47,1775,332
Raw,80,1776,332
Raw,57,1777,332
Raw,54,1777,332
Raw,115,1778,332
Raw,55,1779,332
Raw,24,1779,332
Raw,165,1780,332
Raw,62,1781,332
Raw,24,1781,332
Raw,73,1782,332
Raw,55,1783,332
Raw,47,1783,332
Raw,114,1784,332
Raw,48,1785,332
Raw,40,1786,332
Raw,65,1787,332
Raw,59,1788,332
Raw,32,1789,332
Raw,50,1789,332
Raw,51,1790,332
Raw,58,1791,332
Raw,53,1792,332
Raw,89,1793,332
Raw,51,1795,332
Raw,48,1796,332
Raw,36,1797,332
Raw,50,1797,332
Raw,46,1798,332
Raw,51,1799,332
Raw,49,1800,332
Raw,62,1801,332
Raw,63,1802,332
Raw,45,1803,332
Raw,43,1804,332
Raw,112,1806,332
Raw,56,1807,332
Raw,46,1808,332
Raw,28,1808,332
Raw,83,1809,332
Raw,59,1810,332
Raw,52,1811,332
Raw,49,1811,332
Raw,46,1812,332
Raw,51,1814,332
Raw,54,1815,332
Raw,40,1816,332
Raw,49,1817,332
Raw,80,1818,332
Raw,43,1819,332
Raw,54,1820,332
Raw,54,1821,332
Raw,50,1822,332
Raw,49,1823,332
Raw,71,1824,332
Raw,148,1825,332
Raw,123,1826,332
Raw,62,1827,332
Raw,39,1828,332
Raw,51,1828,332
Raw,28,1828,332
Raw,57,1829,332
Raw,44,1830,332
Raw,50,1831,332
Raw,51,1832,332
Raw,55,1833,332
Raw,56,1834,332
Raw,25,1834,332
Raw,25,1834,332
Raw,49,1835,332
Raw,95,1836,332
Raw,45,1837,332
Raw,36,1838,332
Raw,59,1838,332
Raw,47,1839,332
Raw,66,1840,332
Raw,151,1841,332
Raw,57,1843,332
Raw,62,1844,332
Raw,94,1845,332
Raw,53,1846,332
Raw,113,1847,332
Raw,40,1847,332
Raw,56,1848,332
Raw,97,1849,332
Raw,105,1850,332
Raw,91,1851,332
Raw,47,1852,332
Raw,55,1853,332
Raw,54,1854,332
Raw,52,1856,332
Raw,85,1857,332
Raw,45,1858,332
Raw,65,1859,332
Raw,63,1860,332
Raw,117,1861,332
Raw,100,1862,332
Raw,55,1863,332
Raw,55,1863,332
Raw,45,1864,332
Raw,45,1865,332
Raw,60,1866,332
Raw,43,1867,332
Raw,48,1867,332
Raw,50,1868,332
Raw,49,1870,332
Raw,74,1870,332
Raw,67,1871,332
Raw,94,1873,332
Raw,53,1874,332
Raw,57,1875,332
Raw,49,1876,332
Raw,45,1877,332
Raw,82,1878,332
Raw,86,1879,332
Raw,59,1880,332
Raw,52,1881,332
Raw,58,1882,332
Raw,102,1883,332
Raw,68,1884,332
Raw,72,1885,332
Raw,47,1886,332
Raw,48,1887,332
Raw,47,1888,332
Raw,102,1889,332
Raw,67,1890,332
Raw,46,1891,332
Raw,56,1892,332
Raw,38,1892,332
Raw,108,1893,332
Raw,57,1894,332
Raw,53,1895,332
Raw,46,1895,332
Raw,54,1896,332
Raw,48,1897,332
Raw,52,1898,332
Raw,5,1899,332
Raw,58,1899,332
Raw,63,1900,332
Raw,59,1901,332
Raw,99,1902,332
Raw,65,1902,332
Raw,50,1903,332
Raw,47,1904,332
Raw,57,1905,332
Raw,114,1906,332
Raw,80,1907,332
Raw,115,1908,332
Raw,124,1909,332
Raw,53,1911,332
Raw,100,1912,332
Raw,65,1913,332
Raw,61,1914,332
Raw,57,1915,332
Raw,56,1916,332
Raw,87,1917,332
Raw,39,1918,332
Raw,54,1919,332
Raw,59,1920,332
Raw,56,1921,332
Raw,97,1922,332
Raw,63,1923,332
Raw,95,1924,332
Raw,47,1925,332
Raw,73,1926,332
Raw,62,1928,332
Raw,55,1929,332
Raw,53,1930,332
Raw,80,1931,332
Raw,55,1932,332
Raw,92,1933,332
Raw,39,1933,332
Raw,107,1934,332
Raw,56,1935,332
Raw,63,1936,332
Raw,53,1937,332
Raw,29,1937,332
Raw,42,1937,332
Raw,27,1938,332
Raw,47,1938,332
Raw,62,1939,332
Raw,53,1940,332
Raw,101,1942,332
Raw,65,1943,332
Raw,55,1944,332
Raw,55,1945,332
Raw,55,1946,332
Raw,67,1947,332
Raw,20,1947,332
Raw,53,1949,332
Raw,48,1949,332
Raw,36,1950,332
Raw,78,1951,332
Raw,45,1952,332
Raw,60,1953,332
Raw,38,1953,332
Raw,68,1954,332
Raw,58,1955,332
Raw,116,1956,332
Raw,58,1957,332
Raw,96,1958,332
Raw,65,1959,332
Raw,53,1960,332
Raw,46,1961,332
Raw,63,1963,332
Raw,68,1964,332
Raw,53,1965,332
Raw,56,1966,332
Raw,65,1967,332
Raw,61,1968,332
Raw,98,1969,332
Raw,51,1970,332
Raw,59,1971,332
Raw,56,1972,332
Raw,99,1973,332
Raw,39,1973,332
Raw,51,1974,332
Raw,59,1976,332
Raw,37,1977,332
Raw,78,1977,332
Raw,165,1979,332
Raw,56,1980,332
Raw,57,1981,332
Raw,54,1982,332
Raw,54,1983,332
Raw,80,1984,332
Raw,51,1985,332
Raw,48,1986,332
Raw,31,1986,332
Raw,56,1987,332
Raw,62,1988,332
Raw,54,1989,332
Raw,62,1990,332
Raw,47,1991,332
Raw,55,1991,332
Raw,69,1992,332
Raw,41,1993,332
Raw,69,1994,332
Raw,55,1995,332
Raw,60,1996,332
Raw,61,1997,332
Raw,55,1998,332
Raw,60,2000,332
Raw,112,2001,332
Raw,57,2002,332
Raw,56,2003,332
Raw,59,2004,332
Raw,24,2005,332
Raw,49,2005,332
Raw,53,2006,332
Raw,56,2007,332
Raw,63,2008,332
Raw,60,2009,332
Raw,50,2010,332
Raw,52,2011,332
Raw,117,2012,332
Raw,59,2013,332
Raw,21,2014,332
Raw,58,2014,332
Raw,47,2015,332
Raw,66,2016,332
Raw,126,2017,332
Raw,54,2018,332
Raw,68,2019,332
Raw,63,2020,332
Raw,60,2021,332
Raw,29,2021,332
Raw,98,2022,332
Raw,103,2023,332
Raw,62,2024,332
Raw,48,2025,332
Raw,57,2026,332
Raw,50,2027,332
Raw,72,2028,332
Raw,45,2029,332
Raw,61,2030,332
Raw,83,2031,332
Raw,66,2032,332
Raw,96,2033,332
Raw,49,2034,332
Raw,44,2034,332
Raw,63,2035,332
Raw,65,2036,332
Raw,47,2037,332
Raw,47,2038,332
Raw,58,2039,332
Raw,61,2040,332
Raw,54,2041,332
Raw,127,2042,332
Raw,52,2043,332
Raw,60,2044,332
Raw,56,2045,332
Raw,101,2046,332
Raw,54,2047,332
Raw,46,2048,332
Raw,144,2049,332
Raw,81,2049,332
Raw,54,2050,332
Raw,40,2050,332
Raw,53,2051,332
Raw,54,2052,332
Raw,50,2053,332
Raw,57,2054,332
Raw,68,2055,332
Raw,46,2056,332
Raw,54,2057,332
Raw,63,2059,332
Raw,55,2060,332
Raw,60,2061,332
Raw,96,2062,332
Raw,58,2063,332
Raw,63,2064,332
Raw,131,2065,332
Raw,50,2067,332
Raw,84,2068,332
Raw,89,2069,332
Raw,40,2069,332
Raw,102,2070,332
Raw,50,2071,332
Raw,53,2072,332
Raw,47,2073,332
Raw,63,2074,332
Raw,49,2075,332
Raw,53,2076,332
Raw,58,2077,332
Raw,61,2078,332
Raw,65,2079,332
Raw,55,2080,332
Raw,98,2081,332
Raw,49,2083,332
Raw,22,2083,332
Raw,66,2084,332
Raw,54,2085,332
Raw,54,2086,332
Raw,46,2087,332
Raw,87,2088,332
Raw,107,2089,332
Raw,38,2090,332
Raw,60,2091,332
Raw,54,2092,332
Raw,51,2092,332
Raw,99,2093,332
Raw,45,2094,332
Raw,51,2095,332
Raw,50,2096,332
Raw,55,2098,332
Raw,54,2099,332
Raw,57,2100,332
Raw,57,2101,332
Raw,51,2102,332
Raw,45,2103,332
Raw,52,2104,332
Raw,56,2105,332
Raw,60,2106,332
Raw,46,2106,332
Raw,104,2108,332
Raw,101,2109,332
Raw,96,2110,332
Raw,48,2111,332
Raw,58,2112,332
Raw,62,2113,332
Raw,38,2113,332
Raw,54,2115,332
Raw,54,2116,332
Raw,55,2117,332
Raw,43,2117,332
Raw,53,2118,332
Raw,51,2119,332
Raw,49,2120,332
Raw,73,2121,332
Raw,55,2122,332
Raw,18,2123,332
Raw,51,2123,332
Raw,52,2125,332
Raw,49,2126,332
Raw,78,2126,332
Raw,98,2127,332
Raw,45,2128,332
Raw,49,2129,332
Raw,61,2130,332
Raw,51,2131,332
Raw,43,2132,332
Raw,137,2133,332
Raw,43,2134,332
Raw,73,2134,332
Raw,80,2135,332
Raw,133,2136,332
Raw,75,2138,332
Raw,56,2140,332
Raw,35,2140,332
Raw,52,2141,332
Raw,150,2142,332
Raw,62,2143,332
Raw,74,2144,332
Raw,25,2144,332
Raw,52,2145,332
Raw,55,2146,332
Raw,46,2147,332
Raw,53,2148,332
Raw,57,2149,332
Raw,52,2150,332
Raw,50,2151,332
Raw,58,2152,332
Raw,51,2153,332
Raw,52,2154,332
Raw,48,2155,332
Raw,53,2156,332
Raw,50,2157,332
Raw,49,2158,332
Raw,44,2159,332
Raw,34,2159,332
Raw,48,2160,332
Raw,55,2161,332
Raw,58,2162,332
Raw,53,2164,332
Raw,57,2165,332
Raw,82,2166,332
Raw,53,2167,332
Raw,55,2168,332
Raw,107,2169,332
Raw,35,2170,332
Raw,50,2170,332
Raw,20,2170,332
Raw,56,2171,332
Raw,50,2172,332
Raw,64,2173,332
Raw,51,2175,332
Raw,50,2176,332
Raw,53,2177,332
Raw,34,2177,332
Raw,53,2178,332
Raw,96,2179,332
Raw,57,2180,332
Raw,121,2181,332
Raw,53,2182,332
Raw,80,2184,332
Raw,48,2185,332
Raw,82,2185,332
Raw,42,2186,332
Raw,59,2187,332
Raw,52,2188,332
Raw,46,2188,332
Raw,51,2190,332
Raw,48,2191,332
Raw,35,2191,332
Raw,57,2192,332
Raw,57,2193,332
Raw,54,2194,332
Raw,59,2195,332
Raw,44,2196,332
Raw,59,2197,332
Raw,23,2198,332
Raw,50,2198,332
Raw,50,2199,332
Raw,81,2200,332
Raw,58,2201,332
Raw,91,2202,332
Raw,37,2202,332
Raw,54,2203,332
Raw,141,2204,332
Raw,29,2204,332
Raw,61,2205,332
Raw,52,2206,332
Raw,61,2207,332
Raw,47,2208,332
Raw,66,2209,332
Raw,76,2210,332
Raw,109,2211,332
Raw,63,2213,332
Raw,51,2214,332
Raw,84,2215,332
Raw,76,2216,332
Raw,37,2216,332
Raw,102,2217,332
Raw,99,2218,332
Raw,106,2219,332
Raw,72,2221,332
Raw,48,2222,332
Raw,112,2223,332
Raw,65,2224,332
Raw,50,2225,332
Raw,145,2226,332
Raw,51,2227,332
Raw,64,2228,332
Raw,82,2229,332
Raw,72,2230,332
Raw,51,2230,332
Raw,60,2231,332
Raw,63,2232,332
Raw,55,2233,332
Raw,62,2234,332
Raw,54,2235,332
Raw,47,2236,332
Raw,110,2237,332
Raw,66,2238,332
Raw,65,2239,332
Raw,54,2240,332
Raw,43,2241,332
Raw,61,2241,332
Raw,68,2242,332
Raw,49,2243,332
Raw,50,2244,332
Raw,128,2245,332
Raw,81,2246,332
Raw,54,2247,332
Raw,59,2248,332
Raw,54,2249,332
Raw,81,2250,332
Raw,56,2251,332
Raw,157,2252,332
Raw,45,2252,332
Raw,70,2252,332
Raw,44,2253,332
Raw,54,2254,332
Raw,67,2255,332
Raw,73,2256,332
Raw,34,2256,332
Raw,76,2257,332
Raw,62,2258,332
Raw,38,2259,332
Raw,113,2260,332
Raw,51,2261,332
Raw,141,2262,332
Raw,50,2263,332
Raw,49,2263,332
Raw,31,2263,332
Raw,28,2267,332
Raw,47,2267,332
Raw,44,2268,332
Raw,60,2269,332
Raw,67,2270,332
Raw,64,2271,332
Raw,55,2272,332
Raw,59,2273,332
Raw,58,2275,332
Raw,79,2276,332
Raw,126,2277,332
Raw,56,2278,332
Raw,57,2279,332
Raw,97,2280,332
Raw,161,2281,332
Raw,52,2282,332
Raw,95,2283,332
Raw,111,2284,332
Raw,49,2285,332
Raw,46,2286,332
Raw,51,2287,332
Raw,134,2288,332
Raw,110,2289,332
Raw,47,2290,332
Raw,54,2291,332
Raw,62,2292,332
Raw,44,2293,332
Raw,55,2294,332
Raw,145,2295,332
Raw,50,2296,332
Raw,31,2297,332
Raw,72,2297,332
Raw,84,2298,332
Raw,51,2299,332
Raw,166,2300,332
Raw,57,2301,332
Raw,12,2302,332
Raw,62,2302,332
Raw,46,2303,332
Raw,42,2303,332
Raw,55,2304,332
Raw,120,2305,332
Raw,63,2306,332
Raw,50,2307,332
Raw,63,2308,332
Raw,48,2309,332
Raw,49,2310,332
Raw,62,2311,332
Raw,57,2312,332
Raw,46,2312,332
Raw,34,2312,332
Raw,45,2313,332
Raw,49,2313,332
Raw,40,2314,332
Raw,55,2315,332
Raw,58,2317,332
Raw,45,2317,332
Raw,51,2318,332
Raw,95,2318,332
Raw,45,2319,332
Raw,54,2320,332
Raw,57,2322,332
Raw,52,2323,332
Raw,57,2324,332
Raw,49,2325,332
Raw,52,2326,332
Raw,44,2327,332
Raw,94,2328,332
Raw,51,2329,332
Raw,63,2330,332
Raw,115,2331,332
Raw,52,2332,332
Raw,50,2333,332
Raw,40,2334,332
Raw,66,2334,332
Raw,54,2335,332
Raw,43,2336,332
Raw,58,2337,332
Raw,49,2338,332
Raw,59,2339,332
Raw,56,2340,332
Raw,52,2341,332
Raw,52,2342,332
Raw,55,2343,332
Raw,85,2345,332
Raw,80,2346,332
Raw,49,2347,332
Raw,51,2349,332
Raw,47,2352,332
Raw,58,2353,332
Raw,86,2354,332
Raw,35,2355,332
Raw,47,2355,332
Raw,49,2356,332
Raw,63,2357,332
Raw,103,2358,332
Raw,37,2358,332
Raw,60,2359,332
Raw,61,2360,332
Raw,46,2361,332
Raw,95,2362,332
Raw,54,2364,332
Raw,47,2365,332
Raw,27,2366,332
Raw,56,2366,332
Raw,48,2367,332
Raw,104,2368,332
Raw,54,2369,332
Raw,61,2370,332
Raw,58,2371,332
Raw,45,2372,332
Raw,55,2373,332
Raw,53,2374,332
Raw,64,2375,332
Raw,30,2375,332
Raw,44,2376,332
Raw,80,2377,332
Raw,46,2378,332
Raw,48,2379,332
Raw,45,2380,332
Raw,148,2381,332
Raw,43,2381,332
Raw,88,2383,332
Raw,50,2384,332
Raw,52,2385,332
Raw,125,2386,332
Raw,63,2387,332
Raw,43,2388,332
Raw,54,2388,332
Raw,50,2389,332
Raw,54,2389,332
Raw,65,2390,332
Raw,18,2391,332
Raw,50,2391,332
Raw,59,2392,332
Raw,51,2392,332
Raw,53,2393,332
Raw,61,2395,332
Raw,45,2396,332
Raw,106,2397,332
Raw,119,2398,332
Raw,126,2399,332
Raw,51,2400,332
Raw,48,2402,332
Raw,54,2403,332
Raw,52,2404,332
Raw,119,2405,332
Raw,77,2406,332
Raw,46,2407,332
Raw,98,2409,332
Raw,51,2411,332
Raw,54,2412,332
Raw,138,2413,332
Raw,60,2414,332
Raw,59,2415,332
Raw,99,2416,332
Raw,73,2417,332
Raw,64,2418,332
Raw,58,2419,332
Raw,57,2420,332
Raw,43,2421,332
Raw,59,2422,332
Raw,62,2423,332
Raw,93,2424,332
Raw,50,2425,332
Raw,53,2426,332
Raw,148,2427,332
Raw,65,2428,332
Raw,55,2429,332
Raw,47,2430,332
Raw,81,2431,332
Raw,57,2432,332
Raw,79,2433,332
Raw,105,2434,332
Raw,36,2435,332
Raw,65,2436,332
Raw,62,2437,332
Raw,56,2438,332
Raw,6,2439,332
Raw,63,2439,332
Raw,44,2440,332
Raw,39,2441,332
Raw,51,2442,332
Raw,68,2443,332
Raw,132,2444,332
Raw,59,2445,332
Raw,70,2446,332
Raw,61,2447,332
Raw,47,2448,332
Raw,54,2449,332
Raw,81,2450,332
Raw,119,2451,332
Raw,90,2452,332
Raw,43,2452,332
Raw,44,2453,332
Raw,50,2454,332
Raw,52,2456,332
Raw,41,2456,332
Raw,60,2457,332
Raw,55,2458,332
Raw,118,2459,332
Raw,54,2460,332
Raw,53,2461,332
Raw,50,2462,332
Raw,48,2463,332
Raw,58,2464,332
Raw,50,2465,332
Raw,81,2466,332
Raw,119,2467,332
Raw,56,2468,332
Raw,59,2469,332
Raw,61,2470,332
Raw,44,2471,332
Raw,48,2472,332
Raw,42,2472,332
Raw,60,2473,332
Raw,63,2475,332
Raw,56,2476,332
Raw,54,2477,332
Raw,54,2478,332
Raw,52,2479,332
Raw,58,2480,332
Raw,54,2481,332
Raw,46,2482,332
Raw,45,2482,332
Raw,51,2483,332
Raw,117,2484,332
Raw,66,2485,332
Raw,53,2486,332
Raw,153,2487,332
Raw,39,2487,332
Raw,63,2488,332
Raw,41,2489,332
Raw,57,2489,332
Raw,60,2490,332
Raw,56,2491,332
Raw,94,2492,332
Raw,53,2493,332
Raw,119,2494,332
Raw,104,2495,332
Raw,50,2496,332
Raw,44,2496,332
Raw,89,2497,332
Raw,47,2498,332
Raw,65,2500,332
Raw,43,2500,332
Raw,57,2501,332
Raw,49,2502,332
Raw,44,2504,332
Raw,44,2505,332
Raw,57,2506,332
Raw,53,2507,332
Raw,57,2508,332
Raw,50,2509,332
Raw,48,2510,332
Raw,60,2511,332
Raw,62,2512,332
Raw,27,2512,332
Raw,61,2513,332
Raw,98,2514,332
Raw,58,2516,332
Raw,111,2517,332
Raw,59,2518,332
Raw,57,2519,332
Raw,51,2520,332
Raw,53,2521,332
Raw,56,2522,332
Raw,52,2523,332
Raw,60,2524,332
Raw,64,2527,332
Raw,34,2527,332
Raw,113,2529,332
Raw,94,2530,332
Raw,34,2530,332
Raw,122,2532,332
Raw,52,2533,332
Raw,60,2534,332
Raw,57,2535,332
Raw,60,2536,332
Raw,59,2537,332
Raw,147,2538,332
Raw,50,2539,332
Raw,36,2540,332
Raw,49,2541,332
Raw,46,2543,332
Raw,64,2544,332
Raw,45,2545,332
Raw,26,2546,332
Raw,57,2546,332
Raw,131,2547,332
Raw,28,2548,332
Raw,87,2548,332
Raw,57,2549,332
Raw,31,2549,332
Raw,140,2550,332
Raw,55,2551,332
Raw,50,2552,332
Raw,91,2553,332
Raw,57,2554,332
Raw,45,2555,332
Raw,48,2557,332
Raw,105,2558,332
Raw,57,2559,332
Raw,47,2560,332
Raw,67,2561,332
Raw,52,2562,332
Raw,75,2563,332
Raw,41,2564,332
Raw,58,2565,332
Raw,70,2566,332
Raw,98,2567,332
Raw,57,2568,332
Raw,55,2570,332
Raw,97,2571,332
Raw,51,2572,332
Raw,48,2574,332
Raw,47,2575,332
Raw,41,2576,332
Raw,56,2577,332
Raw,80,2578,332
Raw,66,2578,332
Raw,103,2579,332
Raw,62,2580,332
Raw,73,2581,332
Raw,23,2583,332
Raw,50,2583,332
Raw,37,2584,332
Raw,106,2584,332
Raw,127,2585,332
Raw,109,2586,332
Raw,51,2587,332
Raw,57,2589,332
Raw,50,2590,332
Raw,132,2591,332
Raw,58,2592,332
Raw,36,2592,332
Raw,51,2593,332
Raw,52,2594,332
Raw,56,2595,332
Raw,46,2596,332
Raw,58,2597,332
Raw,78,2598,332
Raw,49,2599,332
Raw,62,2600,332
Raw,68,2601,332
Raw,53,2602,332
Raw,50,2603,332
Raw,101,2604,332
Raw,56,2605,332
Raw,58,2606,332
Raw,54,2607,332
Raw,77,2609,332
Raw,56,2610,332
Raw,36,2611,332
Raw,102,2611,332
Raw,71,2612,332
Raw,51,2613,332
Raw,56,2616,332
Raw,47,2617,332
Raw,68,2619,332
Raw,49,2620,332
Raw,47,2621,332
Raw,26,2621,332
Raw,60,2622,332
Raw,31,2622,332
Raw,62,2623,332
Raw,105,2624,332
Raw,62,2625,332
Raw,47,2626,332
Raw,141,2627,332
Raw,20,2628,332
Raw,56,2628,332
Raw,58,2630,332
Raw,58,2632,332
Raw,32,2632,332
Raw,57,2633,332
Raw,112,2634,332
Raw,81,2636,332
Raw,58,2637,332
Raw,52,2638,332
Raw,52,2639,332
Raw,81,2640,332
Raw,52,2641,332
Raw,64,2642,332
Raw,35,2642,332
Raw,54,2643,332
Raw,52,2645,332
Raw,57,2646,332
Raw,132,2647,332
Raw,91,2648,332
Raw,75,2649,332
Raw,51,2650,332
Raw,41,2651,332
Raw,47,2651,332
Raw,55,2652,332
Raw,146,2653,332
Raw,62,2654,332
Raw,46,2655,332
Raw,49,2656,332
Raw,61,2657,332
Raw,55,2658,332
Raw,52,2659,332
Raw,44,2660,332
Raw,38,2661,332
Raw,56,2662,332
Raw,41,2662,332
Raw,55,2663,332
Raw,63,2664,332
Raw,52,2665,332
Raw,46,2666,332
Raw,124,2667,332
Raw,106,2668,332
Raw,45,2669,332
Raw,58,2670,332
Raw,29,2670,332
Raw,55,2671,332
Raw,56,2671,332
Raw,59,2672,332
Raw,54,2673,332
Raw,61,2674,332
Raw,59,2675,332
Raw,58,2677,332
Raw,55,2678,332
Raw,130,2679,332
Raw,97,2680,332
Raw,27,2680,332
Raw,43,2681,332
Raw,51,2682,332
Raw,62,2683,332
Raw,68,2684,332
Raw,56,2686,332
Raw,74,2687,332
Raw,132,2688,332
Raw,58,2688,332
Raw,58,2689,332
Raw,42,2689,332
Raw,52,2690,332
Raw,40,2691,332
Raw,91,2691,332
Raw,58,2693,332
Raw,134,2694,332
Raw,60,2695,332
Raw,59,2696,332
Raw,46,2696,332
Raw,57,2697,332
Raw,35,2697,332
Raw,53,2698,332
Raw,53,2699,332
Raw,26,2699,332
Raw,51,2700,332
Raw,98,2701,332
Raw,64,2702,332
Raw,52,2703,332
Raw,53,2705,332
Raw,100,2706,332
Raw,48,2707,332
Raw,52,2708,332
Raw,49,2709,332
Raw,25,2711,332
Raw,56,2711,332
Raw,48,2712,332
Raw,56,2713,332
Raw,38,2713,332
Raw,70,2714,332
Raw,61,2715,332
Raw,59,2716,332
Raw,58,2717,332
Raw,31,2717,332
Raw,63,2718,332
Raw,63,2718,332
Raw,46,2720,332
Raw,62,2721,332
Raw,61,2722,332
Raw,45,2723,332
Raw,44,2724,332
Raw,49,2725,332
Raw,109,2726,332
Raw,90,2728,332
Raw,55,2730,332
Raw,47,2731,332
Raw,82,2732,332
Raw,50,2733,332
Raw,101,2734,332
Raw,102,2735,332
Raw,111,2736,332
Raw,127,2737,332
Raw,61,2738,332
Raw,173,2739,332
Raw,88,2740,332
Raw,55,2741,332
Raw,55,2742,332
Raw,71,2743,332
Raw,76,2744,332
Raw,53,2744,332
Raw,59,2745,332
Raw,59,2746,332
Raw,63,2747,332
Raw,52,2748,332
Raw,162,2749,332
Raw,48,2750,332
Raw,92,2752,332
Raw,55,2753,332
Raw,52,2754,332
Raw,77,2755,332
Raw,52,2756,332
Raw,54,2758,332
Raw,93,2759,332
Raw,101,2760,332
Raw,45,2760,332
Raw,93,2761,332
Raw,65,2762,332
Raw,136,2763,332
Raw,110,2764,332
Raw,51,2765,332
Raw,47,2766,332
Raw,57,2767,332
Raw,94,2768,332
Raw,58,2770,332
Raw,52,2771,332
Raw,53,2772,332
Raw,51,2773,332
Raw,58,2774,332
Raw,56,2775,332
Raw,59,2776,332
Raw,56,2777,332
Raw,58,2778,332
Raw,52,2779,332
Raw,93,2780,332
Raw,46,2781,332
Raw,50,2781,332
Raw,75,2781,332
Raw,67,2782,332
Raw,28,2782,332
Raw,55,2783,332
Raw,49,2784,332
Raw,56,2785,332
Raw,98,2786,332
Raw,55,2787,332
Raw,31,2787,332
Raw,52,2788,332
Raw,52,2789,332
Raw,61,2790,332
Raw,57,2791,332
Raw,51,2792,332
Raw,88,2793,332
Raw,66,2794,332
Raw,43,2794,332
Raw,50,2796,332
Raw,55,2797,332
Raw,33,2798,332
Raw,54,2798,332
Raw,115,2799,332
Raw,155,2800,332
Raw,64,2801,332
Raw,20,2801,332
Raw,91,2802,332
Raw,57,2803,332
Raw,61,2804,332
Raw,63,2805,332
Raw,62,2807,332
Raw,57,2808,332
Raw,94,2809,332
Raw,56,2810,332
Raw,58,2811,332
Raw,58,2812,332
Raw,56,2813,332
Raw,36,2813,332
Raw,49,2814,332
Raw,134,2815,332
Raw,35,2815,332
Raw,39,2816,332
Raw,61,2817,332
Raw,52,2818,332
Raw,54,2819,332
Raw,40,2820,332
Raw,42,2820,332
Raw,49,2821,332
Raw,51,2823,332
Raw,60,2824,332
Raw,135,2825,332
Raw,91,2827,332
Raw,50,2828,332
Raw,112,2830,332
Raw,59,2831,332
Raw,55,2832,332
Raw,34,2832,332
Raw,58,2833,332
Raw,60,2834,332
Raw,90,2835,332
Raw,60,2836,332
Raw,62,2837,332
Raw,62,2838,332
Raw,51,2839,332
Raw,52,2840,332
Raw,59,2841,332
Raw,57,2842,332
Raw,42,2843,332
Raw,51,2844,332
Raw,59,2845,332
Raw,80,2846,332
Raw,57,2847,332
Raw,119,2848,332
Raw,46,2848,332
Raw,93,2849,332
Raw,26,2849,332
Raw,130,2850,332
Raw,119,2851,332
Raw,63,2852,332
Raw,41,2852,332
Raw,46,2853,332
Raw,57,2854,332
Raw,66,2855,332
Raw,56,2856,332
Raw,62,2857,332
Raw,89,2858,332
Raw,124,2859,332
Raw,51,2860,332
Raw,51,2861,332
Raw,56,2862,332
Raw,20,2862,332
Raw,50,2863,332
Raw,41,2864,332
Raw,131,2865,332
Raw,106,2866,332
Raw,51,2867,332
Raw,44,2868,332
Raw,57,2868,332
Raw,154,2869,332
Raw,52,2870,332
Raw,73,2871,332
Raw,136,2872,332
Raw,56,2874,332
Raw,113,2875,332
Raw,44,2876,332
Raw,52,2876,332
Raw,61,2877,332
Raw,47,2878,332
Raw,51,2879,332
Raw,134,2880,332
Raw,61,2881,332
Raw,52,2882,332
Raw,101,2883,332
Raw,47,2884,332
Raw,53,2885,332
Raw,96,2886,332
Raw,57,2887,332
Raw,62,2888,332
Raw,58,2889,332
Raw,58,2891,332
Raw,85,2892,332
Raw,85,2893,332
Raw,46,2894,332
Raw,56,2895,332
Raw,128,2896,332
Raw,63,2897,332
Raw,108,2898,332
Raw,17,2898,332
Raw,86,2900,332
Raw,50,2901,332
Raw,57,2902,332
Raw,101,2903,332
Raw,98,2904,332
Raw,46,2905,332
Raw,43,2907,332
Raw,45,2907,332
Raw,96,2908,332
Raw,34,2908,332
Raw,50,2909,332
Raw,7,2910,332
Raw,48,2910,332
Raw,66,2912,332
Raw,25,2912,332
Raw,73,2913,332
Raw,97,2914,332
Raw,52,2915,332
Raw,57,2916,332
Raw,50,2917,332
Raw,56,2920,332
Raw,55,2921,332
Raw,54,2922,332
Raw,61,2923,332
Raw,97,2924,332
Raw,59,2925,332
Raw,158,2926,332
Raw,55,2927,332
Raw,47,2928,332
Raw,163,2929,332
Raw,57,2930,332
Raw,52,2931,332
Raw,121,2932,332
Raw,117,2933,332
Raw,62,2934,332
Raw,135,2935,332
Raw,61,2936,332
Raw,47,2937,332
Raw,110,2939,332
Raw,56,2940,332
Raw,58,2941,332
Raw,137,2942,332
Raw,74,2944,332
Raw,48,2944,332
Raw,46,2945,332
Raw,50,2946,332
Raw,54,2947,332
Raw,59,2948,332
Raw,95,2949,332
Raw,24,2949,332
Raw,63,2950,332
Raw,37,2950,332
Raw,53,2951,332
Raw,101,2952,332
Raw,56,2953,332
Raw,61,2954,332
Raw,79,2955,332
Raw,51,2956,332
Raw,86,2957,332
Raw,64,2958,332
Raw,57,2959,332
Raw,64,2960,332
Raw,57,2961,332
Raw,58,2962,332
Raw,58,2963,332
Raw,64,2964,332
Raw,128,2965,332
Raw,50,2965,332
Raw,59,2966,332
Raw,52,2967,332
Raw,114,2968,332
Raw,53,2969,332
Raw,92,2970,332
Raw,52,2971,332
Raw,87,2972,332
Raw,54,2973,332
Raw,130,2974,332
Raw,53,2975,332
Raw,90,2976,332
Raw,44,2977,332
Raw,45,2978,332
Raw,88,2979,332
Raw,145,2980,332
Raw,54,2981,332
Raw,58,2982,332
Raw,107,2983,332
Raw,58,2986,332
Raw,56,2988,332
Raw,120,2990,332
Raw,40,2990,332
Raw,54,2991,332
Raw,60,2992,332
Raw,148,2994,332
Raw,41,2995,332
Raw,55,2996,332
Raw,58,2997,332
Raw,100,2998,332
Raw,52,2999,332
Raw,45,3000,332
Raw,86,3001,332
Raw,83,3002,332
Raw,110,3003,332
Raw,55,3004,332
Raw,47,3005,332
Raw,49,3006,332
Raw,66,3007,332
Raw,61,3008,332
Raw,63,3009,332
Raw,56,3010,332
Raw,45,3012,332
Raw,123,3013,332
Raw,65,3014,332
Raw,117,3015,332
Raw,48,3016,332
Raw,100,3017,332
Raw,45,3018,332
Raw,88,3019,332
Raw,60,3020,332
Raw,56,3021,332
Raw,59,3022,332
Raw,54,3023,332
Raw,113,3024,332
Raw,57,3025,332
Raw,46,3026,332
Raw,52,3026,332
Raw,103,3027,332
Raw,57,3028,332
Raw,69,3030,332
Raw,144,3032,332
Raw,55,3033,332
Raw,64,3034,332
Raw,51,3035,332
Raw,51,3036,332
Raw,107,3037,332
Raw,17,3037,332
Raw,47,3039,332
Raw,63,3040,332
Raw,88,3041,332
Raw,70,3042,332
Raw,52,3043,332
Raw,71,3044,332
Raw,54,3045,332
Raw,60,3046,332
Raw,23,3046,332
Raw,99,3047,332
Raw,14,3048,332
Raw,60,3048,332
Raw,62,3050,332
Raw,53,3051,332
Raw,37,3051,332
Raw,41,3052,332
Raw,53,3052,332
Raw,66,3053,332
Raw,57,3054,332
Raw,48,3055,332
Raw,51,3056,332
Raw,68,3058,332
Raw,53,3060,332
Raw,57,3061,332
Raw,55,3062,332
Raw,50,3063,332
Raw,54,3064,332
Raw,75,3065,332
Raw,18,3066,332
Raw,56,3066,332
Raw,53,3067,332
Raw,55,3068,332
Raw,137,3069,332
Raw,60,3070,332
Raw,56,3071,332
Raw,66,3073,332
Raw,62,3074,332
Raw,47,3075,332
Raw,68,3076,332
Raw,57,3077,332
Raw,81,3078,332
Raw,54,3079,332
Raw,56,3080,332
Raw,40,3081,332
Raw,43,3081,332
Raw,91,3081,332
Raw,60,3082,332
Raw,51,3083,332
Raw,58,3084,332
Raw,27,3084,332
Raw,102,3085,332
Raw,50,3086,332
Raw,99,3086,332
Raw,99,3087,332
Raw,55,3088,332
Raw,57,3089,332
Raw,67,3090,332
Raw,129,3091,332
Raw,121,3092,332
Raw,42,3093,332
Raw,28,3094,332
Raw,48,3094,332
Raw,54,3095,332
Raw,58,3096,332
Raw,88,3097,332
Raw,56,3098,332
Raw,46,3099,332
Raw,105,3099,332
Raw,49,3100,332
Raw,57,3102,332
Raw,65,3103,332
Raw,89,3104,332
Raw,56,3105,332
Raw,48,3106,332
Raw,96,3107,332
Raw,68,3108,332
Raw,48,3109,332
Raw,61,3110,332
Raw,37,3110,332
Raw,107,3111,332
Raw,102,3112,332
Raw,50,3113,332
Raw,60,3114,332
Raw,46,3115,332
Raw,47,3116,332
Raw,99,3117,332
Raw,59,3118,332
Raw,53,3119,332
Raw,51,3120,332
Raw,55,3121,332
Raw,167,3122,332
Raw,91,3123,332
Raw,96,3124,332
Raw,56,3125,332
Raw,58,3126,332
Raw,57,3126,332
Raw,67,3127,332
Raw,53,3127,332
Raw,51,3128,332
Raw,112,3129,332
Raw,52,3130,332
Raw,57,3131,332
Raw,87,3132,332
Raw,58,3133,332
Raw,61,3134,332
Raw,48,3135,332
Raw,55,3136,332
Raw,60,3137,332
Raw,26,3137,332
Raw,65,3138,332
Raw,62,3139,332
Raw,44,3140,332
Raw,51,3141,332
Raw,53,3142,332
Raw,51,3143,332
Raw,100,3144,332
Raw,62,3145,332
Raw,38,3145,332
Raw,99,3146,332
Raw,62,3148,332
Raw,52,3149,332
Raw,58,3150,332
Raw,57,3151,332
Raw,65,3152,332
Raw,82,3153,332
Raw,51,3154,332
Raw,21,3155,332
Raw,60,3155,332
Raw,19,3155,332
Raw,68,3156,332
Raw,149,3157,332
Raw,61,3158,332
Raw,103,3159,332
Raw,61,3160,332
Raw,52,3161,332
Raw,59,3162,332
Raw,56,3163,332
Raw,89,3165,332
Raw,55,3166,332
Raw,102,3167,332
Raw,47,3168,332
Raw,89,3169,332
Raw,138,3170,332
Raw,89,3171,332
Raw,37,3172,332
Raw,80,3172,332
Raw,59,3173,332
Raw,49,3174,332
Raw,58,3175,332
Raw,95,3176,332
Raw,59,3177,332
Raw,51,3178,332
Raw,97,3179,332
Raw,44,3180,332
Raw,54,3181,332
Raw,61,3183,332
Raw,64,3184,332
Raw,88,3185,332
Raw,51,3186,332
Raw,61,3187,332
Raw,37,3187,332
Raw,55,3188,332
Raw,62,3189,332
Raw,56,3190,332
Raw,66,3191,332
Raw,47,3192,332
Raw,56,3193,332
Raw,92,3194,332
Raw,63,3195,332
Raw,41,3196,332
Raw,57,3196,332
Raw,58,3197,332
Raw,31,3197,332
Raw,70,3198,332
Raw,61,3199,332
Raw,63,3200,332
Raw,68,3201,332
Raw,56,3202,332
Raw,57,3203,332
Raw,53,3204,332
Raw,50,3205,332
Raw,54,3206,332
Raw,56,3208,332
Raw,51,3209,332
Raw,85,3210,332
Raw,50,3211,332
Raw,51,3212,332
Raw,53,3214,332
Raw,89,3215,332
Raw,52,3216,332
Raw,62,3217,332
Raw,137,3218,332
Raw,97,3218,332
Raw,63,3220,332
Raw,59,3222,332
Raw,56,3223,332
Raw,56,3224,332
Raw,52,3226,332
Raw,115,3227,332
Raw,55,3228,332
Raw,57,3229,332
Raw,116,3230,332
Raw,103,3231,332
Raw,77,3231,332
Raw,50,3232,332
Raw,98,3234,332
Raw,47,3235,332
Raw,46,3237,332
Raw,62,3238,332
Raw,64,3239,332
Raw,45,3240,332
Raw,65,3241,332
Raw,47,3241,332
Raw,135,3242,332
Raw,10,3242,332
Raw,51,3243,332
Raw,51,3244,332
Raw,82,3245,332
Raw,54,3246,332
Raw,46,3247,332
Raw,59,3248,332
Raw,37,3248,332
Raw,78,3248,332
Raw,61,3249,332
Raw,149,3250,332
Raw,110,3252,332
Raw,99,3253,332
Raw,25,3253,332
Raw,51,3254,332
Raw,105,3254,332
Raw,126,3255,332
Raw,48,3256,332
Raw,62,3257,332
Raw,55,3258,332
Raw,95,3259,332
Raw,52,3261,332
Raw,40,3262,332
Raw,77,3262,332
Raw,65,3263,332
Raw,57,3264,332
Raw,32,3265,332
Raw,70,3265,332
Raw,54,3266,332
Raw,85,3267,332
Raw,60,3268,332
Raw,28,3270,332
Raw,27,3270,332
Raw,102,3270,332
Raw,99,3271,332
Raw,60,3272,332
Raw,75,3273,332
Raw,60,3274,332
Raw,50,3275,332
Raw,60,3276,332
Raw,52,3277,332
Raw,66,3278,332
Raw,54,3279,332
Raw,29,3280,332
Raw,47,3280,332
Raw,60,3281,332
Raw,50,3282,332
Raw,58,3283,332
Raw,12,3284,332
Raw,57,3284,332
Raw,67,3285,332
Raw,48,3286,332
Raw,149,3287,332
Raw,108,3288,332
Raw,96,3289,332
Raw,108,3290,332
Raw,58,3292,332
Raw,48,3293,332
Raw,59,3294,332
Raw,46,3295,332
Raw,71,3296,332
Raw,64,3297,332
Raw,37,3298,332
Raw,48,3298,332
Raw,138,3299,332
Raw,108,3300,332
Raw,55,3301,332
Raw,53,3303,332
Raw,48,3304,332
Raw,53,3306,332
Raw,70,3307,332
Raw,66,3308,332
Raw,54,3309,332
Raw,81,3310,332
Raw,105,3311,332
Raw,99,3312,332
Raw,117,3313,332
Raw,111,3314,332
Raw,50,3315,332
Raw,57,3316,332
Raw,61,3317,332
Raw,67,3318,332
Raw,62,3319,332
Raw,54,3320,332
Raw,112,3321,332
Raw,40,3321,332
Raw,62,3322,332
Raw,57,3323,332
Raw,36,3323,332
Raw,54,3324,332
Raw,65,3325,332
Raw,43,3326,332
Raw,49,3327,332
Raw,136,3327,332
Raw,52,3328,332
Raw,46,3329,332
Raw,88,3330,332
Raw,59,3331,332
Raw,50,3332,332
Raw,91,3333,332
Raw,53,3335,332
Raw,63,3336,332
Raw,62,3337,332
Raw,57,3338,332
Raw,139,3339,332
Raw,67,3340,332
Raw,36,3342,332
Raw,70,3342,332
Raw,71,3343,332
Raw,49,3344,332
Raw,58,3345,332
Raw,88,3346,332
Raw,59,3347,332
Raw,94,3348,332
Raw,53,3349,332
Raw,100,3350,332
Raw,55,3351,332
Raw,47,3352,332
Raw,52,3353,332
Raw,52,3354,332
Raw,54,3355,332
Raw,156,3356,332
Raw,54,3357,332
Raw,69,3358,332
Raw,49,3359,332
Raw,52,3360,332
Raw,132,3361,332
Raw,49,3362,332
Raw,62,3363,332
Raw,61,3364,332
Raw,40,3364,332
Raw,109,3365,332
Raw,44,3366,332
Raw,19,3367,332
Raw,56,3367,332
Raw,59,3368,332
Raw,135,3369,332
Raw,81,3370,332
Raw,57,3371,332
Raw,130,3372,332
Raw,54,3373,332
Raw,56,3374,332
Raw,56,3375,332
Raw,61,3376,332
Raw,52,3378,332
Raw,56,3379,332
Raw,134,3380,332
Raw,58,3381,332
Raw,55,3382,332
Raw,48,3383,332
Raw,51,3384,332
Raw,30,3384,332
Raw,53,3385,332
Raw,41,3385,332
Raw,19,3385,332
Raw,47,3386,332
Raw,100,3387,332
Raw,55,3388,332
Raw,58,3389,332
Raw,77,3390,332
Raw,54,3391,332
Raw,45,3392,332
Raw,42,3392,332
Raw,53,3393,332
Raw,106,3396,332
Raw,80,3397,332
Raw,79,3398,332
Raw,55,3399,332
Raw,95,3400,332
Raw,57,3401,332
Raw,94,3402,332
Raw,123,3403,332
Raw,96,3404,332
Raw,55,3405,332
Raw,47,3406,332
Raw,56,3407,332
Raw,51,3408,332
Raw,33,3409,332
Raw,54,3409,332
Raw,65,3410,332
Raw,88,3411,332
Raw,135,3412,332
Raw,57,3413,332
Raw,66,3414,332
Raw,99,3416,332
Raw,98,3417,332
Raw,114,3418,332
Raw,98,3419,332
Raw,60,3420,332
Raw,55,3420,332
Raw,53,3421,332
Raw,57,3422,332
Raw,57,3423,332
Raw,56,3424,332
Raw,41,3425,332
Raw,122,3426,332
Raw,46,3426,332
Raw,61,3427,332
Raw,56,3428,332
Raw,59,3430,332
Raw,102,3431,332
Raw,64,3432,332
Raw,67,3433,332
Raw,70,3434,332
Raw,143,3435,332
Raw,52,3436,332
Raw,54,3437,332
Raw,53,3438,332
Raw,42,3438,332
Raw,67,3439,332
Raw,70,3441,332
Raw,48,3442,332
Raw,99,3443,332
Raw,38,3444,332
Raw,55,3445,332
Raw,62,3446,332
Raw,35,3446,332
Raw,61,3447,332
Raw,50,3448,332
Raw,57,3449,332
Raw,110,3450,332
Raw,87,3451,332
Raw,101,3452,332
Raw,76,3453,332
Raw,52,3454,332
Raw,51,3455,332
Raw,55,3456,332
Raw,54,3457,332
Raw,66,3458,332
Raw,88,3459,332
Raw,47,3460,332
Raw,109,3461,332
Raw,39,3461,332
Raw,54,3462,332
Raw,54,3463,332
Raw,30,3463,332
Raw,131,3464,332
Raw,103,3465,332
Raw,54,3466,332
Raw,50,3467,332
Raw,54,3468,332
Raw,139,3469,332
Raw,57,3470,332
Raw,63,3471,332
Raw,13,3472,332
Raw,54,3472,332
Raw,98,3473,332
Raw,45,3474,332
Raw,97,3475,332
Raw,63,3476,332
Raw,49,3477,332
Raw,47,3478,332
Raw,49,3478,332
Raw,59,3479,332
Raw,43,3480,332
Raw,101,3481,332
Raw,57,3482,332
Raw,56,3483,332
Raw,48,3484,332
Raw,105,3486,332
Raw,88,3487,332
Raw,109,3488,332
Raw,21,3488,332
Raw,127,3489,332
Raw,50,3490,332
Raw,42,3491,332
Raw,91,3494,332
Raw,49,3495,332
Raw,62,3496,332
Raw,49,3497,332
Raw,83,3498,332
Raw,48,3499,332
Raw,36,3499,332
Raw,85,3500,332
Raw,52,3501,332
Raw,52,3502,332
Raw,58,3503,332
Raw,53,3504,332
Raw,112,3505,332
Raw,23,3506,332
Raw,49,3506,332
Raw,54,3507,332
Raw,45,3508,332
Raw,97,3509,332
Raw,50,3511,332
Raw,55,3512,332
Raw,33,3512,332
Raw,63,3512,332
Raw,92,3514,332
Raw,24,3514,332
Raw,60,3515,332
Raw,170,3516,332
Raw,41,3516,332
Raw,35,3517,332
Raw,50,3518,332
Raw,55,3519,332
Raw,56,3520,332
Raw,66,3521,332
Raw,52,3522,332
Raw,45,3524,332
Raw,70,3525,332
Raw,44,3526,332
Raw,58,3527,332
Raw,27,3527,332
Raw,18,3528,332
Raw,57,3528,332
Raw,58,3529,332
Raw,55,3530,332
Raw,57,3531,332
Raw,85,3532,332
Raw,58,3533,332
Raw,52,3534,332
Raw,77,3535,332
Raw,63,3537,332
Raw,96,3538,332
Raw,84,3539,332
Raw,98,3540,332
Raw,52,3541,332
Raw,55,3543,332
Raw,39,3543,332
Raw,97,3544,332
Raw,72,3545,332
Raw,52,3546,332
Raw,55,3547,332
Raw,56,3548,332
Raw,64,3549,332
Raw,56,3550,332
Raw,59,3551,332
Raw,42,3552,332
Raw,42,3553,332
Raw,58,3554,332
Raw,52,3555,332
Raw,99,3556,332
Raw,63,3557,332
Raw,53,3558,332
Raw,66,3559,332
Raw,44,3560,332
Raw,107,3561,332
Raw,44,3563,332
Raw,59,3564,332
Raw,56,3565,332
Raw,52,3566,332
Raw,77,3566,332
Raw,46,3567,332
Raw,98,3568,332
Raw,59,3569,332
Raw,89,3570,332
Raw,100,3571,332
Raw,101,3572,332
Raw,56,3573,332
Raw,59,3574,332
Raw,56,3575,332
Raw,63,3576,332
Raw,50,3577,332
Raw,71,3578,332
Raw,55,3579,332
Raw,16,3579,332
Raw,155,3580,332
Raw,79,3581,332
Raw,50,3582,332
Raw,116,3583,332
Raw,89,3584,332
Raw,72,3585,332
Raw,56,3586,332
Raw,29,3587,332
Raw,50,3587,332
Raw,42,3588,332
Raw,47,3588,332
Raw,94,3589,332
Raw,92,3590,332
Raw,52,3591,332
Raw,61,3592,332
Raw,54,3593,332
Raw,43,3594,332
Raw,99,3595,332
Raw,88,3596,332
Raw,144,3597,332
Raw,52,3598,332
Raw,50,3599,332
Raw,54,3600,332
Raw,89,3601,332
Raw,53,3603,332
Raw,54,3604,332
Raw,58,3605,332
Raw,54,3606,332
Raw,70,3607,332
Raw,100,3608,332
Raw,48,3609,332
Raw,30,3609,332
Raw,51,3610,332
Raw,59,3611,332
Raw,50,3612,332
Raw,45,3614,332
Raw,64,3614,332
Raw,70,3615,332
Raw,35,3616,332
Raw,89,3616,332
Raw,80,3617,332
Raw,45,3618,332
Raw,60,3619,332
Raw,55,3620,332
Raw,65,3621,332
Raw,51,3622,332
Raw,59,3623,332
Raw,63,3624,332
Raw,51,3625,332
Raw,51,3626,332
Raw,48,3626,332
Raw,64,3627,332
Raw,61,3628,332
Raw,63,3629,332
Raw,47,3630,332
Raw,22,3630,332
Raw,112,3631,332
Raw,55,3632,332
Raw,56,3633,332
Raw,53,3635,332
Raw,43,3635,332
Raw,54,3636,332
Raw,60,3637,332
Raw,58,3638,332
Raw,73,3639,332
Raw,63,3640,332
Raw,56,3641,332
Raw,48,3642,332
Raw,50,3643,332
Raw,64,3644,332
Raw,106,3645,332
Raw,53,3646,332
Raw,105,3647,332
Raw,52,3648,332
Raw,98,3649,332
Raw,50,3650,332
