Cut?,Counts,eventNumber,runNumber
Raw,55,138,333
Raw,116,138,333
Raw,128,157,333
Raw,24,157,333
Raw,26,161,333
Raw,108,161,333
Raw,62,166,333
Raw,39,168,333
Raw,122,171,333
Raw,168,172,333
Raw,58,174,333
Raw,83,175,333
Raw,109,177,333
Raw,89,179,333
Raw,60,182,333
Raw,86,183,333
Raw,103,190,333
Raw,84,190,333
Raw,90,200,333
Raw,83,211,333
Raw,50,213,333
Raw,21,220,333
Raw,53,229,333
Raw,47,229,333
Raw,47,233,333
Raw,56,239,333
Raw,61,240,333
Raw,132,240,333
Raw,47,243,333
Raw,108,256,333
Raw,143,259,333
Raw,35,267,333
Raw,157,269,333
Raw,66,270,333
Raw,66,277,333
Raw,111,277,333
Raw,60,290,333
Raw,59,291,333
Raw,53,298,333
Raw,44,317,333
Raw,51,321,333
Raw,48,322,333
Raw,91,322,333
Raw,116,324,333
Raw,39,336,333
Raw,54,336,333
Raw,53,344,333
Raw,47,346,333
Raw,44,352,333
Raw,44,356,333
Raw,54,362,333
Raw,55,362,333
Raw,42,369,333
Raw,71,375,333
Raw,31,376,333
Raw,58,379,333
Raw,39,394,333
Raw,55,396,333
Raw,59,400,333
Raw,106,409,333
Raw,109,414,333
Raw,100,415,333
Raw,47,418,333
Raw,27,418,333
Raw,25,422,333
Raw,54,425,333
Raw,43,434,333
Raw,42,434,333
Raw,64,439,333
Raw,28,440,333
Raw,100,442,333
Raw,39,443,333
Raw,43,446,333
Raw,111,472,333
Raw,60,484,333
Raw,94,484,333
Raw,44,485,333
Raw,44,486,333
Raw,35,487,333
Raw,37,489,333
Raw,75,490,333
Raw,98,491,333
Raw,91,499,333
Raw,49,502,333
Raw,34,513,333
Raw,49,520,333
Raw,129,520,333
Raw,55,529,333
Raw,26,529,333
Raw,90,538,333
Raw,64,539,333
Raw,36,539,333
Raw,46,543,333
Raw,59,556,333
Raw,57,558,333
Raw,45,561,333
Raw,44,561,333
Raw,116,562,333
Raw,33,568,333
Raw,67,569,333
Raw,44,578,333
Raw,48,579,333
Raw,61,585,333
Raw,53,598,333
Raw,38,601,333
Raw,33,601,333
Raw,54,603,333
Raw,50,613,333
Raw,53,621,333
Raw,152,643,333
Raw,57,655,333
Raw,43,657,333
Raw,45,657,333
Raw,51,665,333
Raw,37,665,333
Raw,68,667,333
Raw,101,670,333
Raw,45,671,333
Raw,45,671,333
Raw,61,676,333
Raw,61,676,333
Raw,62,682,333
Raw,38,687,333
Raw,49,688,333
Raw,53,689,333
Raw,49,693,333
Raw,43,704,333
Raw,41,710,333
Raw,147,711,333
Raw,155,712,333
Raw,41,713,333
Raw,104,715,333
Raw,108,716,333
Raw,160,727,333
Raw,53,737,333
Raw,57,737,333
Raw,33,737,333
Raw,52,739,333
Raw,133,741,333
Raw,103,755,333
Raw,91,758,333
Raw,112,778,333
Raw,48,790,333
Raw,121,795,333
Raw,56,796,333
Raw,24,801,333
Raw,31,814,333
Raw,29,827,333
Raw,63,842,333
Raw,69,843,333
Raw,54,849,333
Raw,65,850,333
Raw,51,854,333
Raw,40,863,333
Raw,62,873,333
Raw,45,878,333
Raw,43,879,333
Raw,102,881,333
Raw,49,891,333
Raw,55,897,333
Raw,62,904,333
Raw,49,904,333
Raw,33,915,333
Raw,52,921,333
Raw,121,924,333
Raw,56,926,333
Raw,50,942,333
Raw,58,949,333
Raw,61,950,333
Raw,50,963,333
Raw,154,965,333
Raw,48,973,333
Raw,42,980,333
Raw,93,985,333
Raw,85,986,333
Raw,55,987,333
Raw,58,988,333
Raw,139,994,333
Raw,129,997,333
Raw,48,1015,333
Raw,68,1018,333
Raw,59,1022,333
Raw,31,1025,333
Raw,88,1029,333
Raw,45,1031,333
Raw,42,1031,333
Raw,52,1032,333
Raw,62,1032,333
Raw,105,1034,333
Raw,31,1040,333
Raw,51,1041,333
Raw,62,1061,333
Raw,57,1067,333
Raw,56,1071,333
Raw,53,1074,333
Raw,55,1080,333
Raw,54,1083,333
Raw,51,1090,333
Raw,13,1098,333
Raw,89,1115,333
Raw,43,1115,333
Raw,103,1118,333
Raw,54,1122,333
Raw,62,1127,333
Raw,31,1129,333
Raw,22,1137,333
Raw,46,1150,333
Raw,76,1160,333
Raw,58,1160,333
Raw,59,1163,333
Raw,52,1178,333
Raw,36,1179,333
Raw,150,1180,333
Raw,29,1180,333
Raw,94,1183,333
Raw,119,1193,333
Raw,112,1195,333
Raw,55,1225,333
Raw,66,1226,333
Raw,112,1227,333
Raw,71,1230,333
Raw,60,1232,333
Raw,52,1238,333
Raw,31,1239,333
Raw,53,1243,333
Raw,36,1252,333
Raw,42,1256,333
Raw,59,1257,333
Raw,36,1257,333
Raw,40,1260,333
Raw,36,1262,333
Raw,158,1286,333
Raw,124,1287,333
Raw,123,1296,333
Raw,56,1298,333
Raw,57,1300,333
Raw,60,1309,333
Raw,76,1325,333
Raw,61,1332,333
Raw,65,1341,333
Raw,101,1373,333
Raw,50,1375,333
Raw,52,1390,333
Raw,107,1396,333
Raw,53,1396,333
Raw,46,1405,333
Raw,57,1406,333
Raw,76,1408,333
Raw,117,1416,333
Raw,47,1419,333
Raw,64,1431,333
Raw,42,1436,333
Raw,58,1438,333
Raw,69,1454,333
Raw,167,1464,333
Raw,121,1474,333
Raw,60,1489,333
Raw,52,1492,333
Raw,56,1493,333
Raw,36,1494,333
Raw,62,1497,333
Raw,42,1500,333
Raw,64,1502,333
Raw,170,1505,333
Raw,143,1515,333
Raw,63,1524,333
Raw,119,1524,333
Raw,37,1529,333
Raw,85,1536,333
Raw,107,1540,333
Raw,44,1556,333
Raw,53,1557,333
Raw,52,1559,333
Raw,56,1566,333
Raw,106,1571,333
Raw,13,1571,333
Raw,78,1576,333
Raw,108,1579,333
Raw,53,1582,333
Raw,96,1590,333
Raw,110,1605,333
Raw,52,1607,333
Raw,39,1607,333
Raw,108,1609,333
Raw,47,1612,333
Raw,103,1623,333
Raw,57,1626,333
Raw,114,1628,333
Raw,52,1629,333
Raw,150,1636,333
Raw,166,1639,333
Raw,41,1650,333
Raw,56,1650,333
Raw,60,1651,333
Raw,100,1667,333
Raw,45,1667,333
Raw,53,1673,333
Raw,116,1675,333
Raw,79,1683,333
Raw,55,1683,333
Raw,53,1689,333
Raw,61,1691,333
Raw,66,1691,333
Raw,58,1695,333
Raw,45,1704,333
Raw,67,1704,333
Raw,52,1705,333
Raw,59,1706,333
Raw,118,1707,333
Raw,66,1708,333
Raw,69,1714,333
Raw,48,1714,333
Raw,42,1714,333
Raw,67,1717,333
Raw,106,1719,333
Raw,44,1729,333
Raw,110,1731,333
Raw,62,1732,333
Raw,58,1733,333
Raw,158,1742,333
Raw,88,1743,333
Raw,52,1749,333
Raw,64,1760,333
Raw,37,1760,333
Raw,110,1761,333
Raw,54,1767,333
Raw,46,1770,333
Raw,115,1779,333
Raw,39,1780,333
Raw,46,1780,333
Raw,53,1785,333
Raw,34,1787,333
Raw,94,1790,333
Raw,25,1790,333
Raw,60,1797,333
Raw,91,1798,333
Raw,40,1800,333
Raw,64,1803,333
Raw,53,1803,333
Raw,31,1807,333
Raw,104,1818,333
Raw,121,1821,333
Raw,9,1822,333
Raw,131,1827,333
Raw,52,1831,333
Raw,68,1840,333
Raw,13,1840,333
Raw,49,1850,333
Raw,50,1853,333
Raw,47,1860,333
Raw,123,1869,333
Raw,55,1875,333
Raw,59,1887,333
Raw,56,1888,333
Raw,105,1890,333
Raw,41,1891,333
Raw,34,1891,333
Raw,58,1897,333
Raw,127,1897,333
Raw,64,1903,333
Raw,53,1903,333
Raw,107,1908,333
Raw,59,1909,333
Raw,55,1910,333
Raw,59,1917,333
Raw,49,1922,333
Raw,65,1926,333
Raw,53,1930,333
Raw,55,1938,333
Raw,104,1941,333
Raw,64,1942,333
Raw,70,1956,333
Raw,154,1957,333
Raw,48,1959,333
Raw,47,1961,333
Raw,52,1987,333
Raw,89,1990,333
Raw,17,1998,333
Raw,64,2015,333
Raw,23,2015,333
Raw,49,2018,333
Raw,38,2022,333
Raw,18,2022,333
Raw,101,2034,333
Raw,39,2039,333
Raw,105,2041,333
Raw,156,2044,333
Raw,100,2049,333
Raw,44,2055,333
Raw,86,2062,333
Raw,114,2065,333
Raw,50,2068,333
Raw,18,2069,333
Raw,58,2069,333
Raw,49,2082,333
Raw,27,2099,333
Raw,74,2100,333
Raw,31,2100,333
Raw,35,2103,333
Raw,51,2119,333
Raw,33,2119,333
Raw,117,2124,333
Raw,69,2128,333
Raw,33,2129,333
Raw,56,2136,333
Raw,45,2143,333
Raw,115,2146,333
Raw,103,2149,333
Raw,47,2165,333
Raw,54,2166,333
Raw,88,2187,333
Raw,34,2192,333
Raw,70,2238,333
Raw,52,2239,333
Raw,45,2239,333
Raw,136,2245,333
Raw,52,2252,333
Raw,97,2254,333
Raw,64,2256,333
Raw,40,2263,333
Raw,47,2268,333
Raw,16,2270,333
Raw,60,2271,333
Raw,55,2280,333
Raw,30,2284,333
Raw,45,2284,333
Raw,61,2288,333
Raw,135,2313,333
Raw,56,2320,333
Raw,47,2324,333
Raw,61,2326,333
Raw,64,2334,333
Raw,54,2338,333
Raw,50,2349,333
Raw,93,2365,333
Raw,41,2366,333
Raw,115,2369,333
Raw,12,2370,333
Raw,36,2377,333
Raw,50,2382,333
Raw,34,2382,333
Raw,62,2390,333
Raw,49,2394,333
Raw,104,2397,333
Raw,52,2403,333
Raw,49,2408,333
Raw,52,2415,333
Raw,92,2419,333
Raw,61,2422,333
Raw,31,2430,333
Raw,45,2432,333
Raw,51,2436,333
Raw,114,2444,333
Raw,66,2445,333
Raw,44,2448,333
Raw,66,2452,333
Raw,59,2456,333
Raw,95,2463,333
Raw,46,2463,333
Raw,157,2468,333
Raw,52,2478,333
Raw,43,2479,333
Raw,57,2484,333
Raw,56,2504,333
Raw,64,2509,333
Raw,65,2515,333
Raw,65,2516,333
Raw,121,2517,333
Raw,49,2524,333
Raw,44,2527,333
Raw,61,2533,333
Raw,75,2533,333
Raw,38,2541,333
Raw,54,2542,333
Raw,46,2545,333
Raw,98,2556,333
Raw,68,2558,333
Raw,53,2558,333
Raw,60,2562,333
Raw,49,2564,333
Raw,42,2564,333
Raw,67,2568,333
Raw,14,2568,333
Raw,159,2579,333
Raw,54,2581,333
Raw,47,2581,333
Raw,101,2585,333
Raw,20,2585,333
Raw,58,2589,333
Raw,101,2591,333
Raw,68,2613,333
Raw,112,2614,333
Raw,149,2626,333
Raw,57,2642,333
Raw,137,2650,333
Raw,120,2651,333
Raw,50,2651,333
Raw,45,2653,333
Raw,32,2668,333
Raw,33,2671,333
Raw,112,2680,333
Raw,116,2680,333
Raw,95,2681,333
Raw,37,2687,333
Raw,57,2689,333
Raw,57,2689,333
Raw,56,2695,333
Raw,58,2697,333
Raw,62,2706,333
Raw,47,2721,333
Raw,52,2726,333
Raw,113,2749,333
Raw,15,2749,333
Raw,41,2751,333
Raw,60,2766,333
Raw,52,2768,333
Raw,35,2768,333
Raw,65,2773,333
Raw,23,2775,333
Raw,29,2793,333
Raw,50,2810,333
Raw,19,2810,333
Raw,83,2810,333
Raw,44,2812,333
Raw,54,2812,333
Raw,67,2815,333
Raw,50,2819,333
Raw,60,2824,333
Raw,61,2829,333
Raw,60,2830,333
Raw,6,2847,333
Raw,167,2858,333
Raw,52,2860,333
Raw,40,2860,333
Raw,79,2861,333
Raw,68,2866,333
Raw,52,2870,333
Raw,96,2871,333
Raw,37,2872,333
Raw,121,2875,333
Raw,43,2877,333
Raw,99,2877,333
Raw,160,2885,333
Raw,13,2899,333
Raw,39,2900,333
Raw,21,2900,333
Raw,140,2906,333
Raw,110,2910,333
Raw,86,2920,333
Raw,56,2924,333
Raw,84,2925,333
Raw,65,2932,333
Raw,54,2935,333
Raw,62,2946,333
Raw,89,2949,333
Raw,42,2958,333
Raw,72,2958,333
Raw,16,2959,333
Raw,97,2961,333
Raw,44,2964,333
Raw,133,2965,333
Raw,159,2968,333
Raw,52,2969,333
Raw,107,2975,333
Raw,62,2976,333
Raw,127,2978,333
Raw,62,2987,333
Raw,109,2989,333
Raw,156,2990,333
Raw,115,2994,333
Raw,66,2996,333
Raw,54,3012,333
Raw,43,3013,333
Raw,53,3013,333
Raw,31,3013,333
Raw,126,3015,333
Raw,60,3024,333
Raw,66,3028,333
Raw,69,3029,333
Raw,27,3029,333
Raw,43,3036,333
Raw,58,3036,333
Raw,56,3048,333
Raw,112,3049,333
Raw,39,3052,333
Raw,40,3054,333
Raw,147,3058,333
Raw,117,3074,333
Raw,62,3075,333
Raw,144,3094,333
Raw,58,3096,333
Raw,45,3097,333
Raw,46,3099,333
Raw,36,3105,333
Raw,59,3111,333
Raw,54,3115,333
Raw,50,3129,333
Raw,52,3132,333
Raw,49,3137,333
Raw,55,3157,333
Raw,40,3159,333
Raw,31,3162,333
Raw,52,3162,333
Raw,45,3164,333
Raw,46,3164,333
Raw,62,3182,333
Raw,170,3186,333
Raw,24,3188,333
Raw,23,3190,333
Raw,30,3195,333
Raw,47,3195,333
Raw,53,3198,333
Raw,49,3199,333
Raw,26,3199,333
Raw,61,3200,333
Raw,45,3203,333
Raw,58,3219,333
Raw,105,3223,333
Raw,61,3225,333
Raw,57,3225,333
Raw,58,3227,333
Raw,30,3227,333
Raw,46,3236,333
Raw,30,3240,333
Raw,157,3242,333
Raw,54,3248,333
Raw,45,3250,333
Raw,57,3260,333
Raw,49,3268,333
Raw,52,3270,333
Raw,49,3270,333
Raw,59,3275,333
Raw,33,3276,333
Raw,42,3280,333
Raw,67,3286,333
Raw,45,3290,333
Raw,56,3310,333
Raw,62,3311,333
Raw,166,3314,333
Raw,55,3329,333
Raw,66,3329,333
Raw,54,3331,333
Raw,52,3352,333
Raw,60,3355,333
Raw,34,3355,333
Raw,151,3358,333
Raw,117,3369,333
Raw,43,3370,333
Raw,48,3379,333
Raw,56,3392,333
Raw,170,3394,333
Raw,38,3394,333
Raw,54,3396,333
Raw,37,3400,333
Raw,53,3400,333
Raw,46,3402,333
Raw,22,3404,333
Raw,56,3406,333
Raw,72,3406,333
Raw,34,3408,333
Raw,55,3411,333
Raw,52,3418,333
Raw,22,3418,333
Raw,71,3427,333
Raw,56,3428,333
Raw,53,3432,333
Raw,63,3436,333
Raw,36,3436,333
Raw,61,3441,333
Raw,51,3449,333
Raw,23,3454,333
Raw,64,3458,333
Raw,106,3463,333
Raw,57,3464,333
Raw,73,3471,333
Raw,60,3475,333
Raw,64,3476,333
Raw,37,3476,333
Raw,21,3482,333
Raw,48,3483,333
Raw,14,3488,333
Raw,56,3499,333
Raw,32,3502,333
Raw,58,3507,333
Raw,30,3507,333
Raw,38,3508,333
Raw,51,3508,333
Raw,94,3510,333
Raw,55,3515,333
Raw,92,3519,333
Raw,51,3523,333
Raw,59,3524,333
Raw,45,3530,333
Raw,119,3535,333
Raw,13,3537,333
Raw,44,3545,333
Raw,49,3547,333
Raw,38,3552,333
Raw,104,3556,333
Raw,34,3557,333
Raw,38,3558,333
Raw,89,3558,333
Raw,97,3561,333
Raw,101,3579,333
Raw,100,3581,333
Raw,115,3592,333
Raw,41,3594,333
Raw,68,3595,333
Raw,128,3613,333
Raw,121,3628,333
Raw,84,3634,333
Raw,62,3656,333
Raw,25,3661,333
Raw,32,3668,333
Raw,31,3674,333
Raw,67,3677,333
Raw,46,3685,333
Raw,58,3688,333
Raw,162,3689,333
Raw,52,3697,333
Raw,51,3702,333
Raw,12,3702,333
Raw,67,3703,333
Raw,66,3704,333
Raw,41,3705,333
Raw,86,3712,333
Raw,67,3713,333
Raw,48,3715,333
Raw,133,3719,333
Raw,47,3719,333
Raw,21,3721,333
Raw,66,3724,333
Raw,47,3725,333
Raw,59,3734,333
Raw,50,3737,333
Raw,48,3738,333
Raw,83,3738,333
Raw,51,3739,333
Raw,50,3740,333
Raw,96,3741,333
Raw,44,3746,333
Raw,54,3748,333
Raw,70,3755,333
Raw,101,3758,333
Raw,55,3759,333
Raw,49,3762,333
Raw,58,3772,333
Raw,34,3780,333
Raw,53,3781,333
Raw,57,3785,333
Raw,45,3796,333
Raw,39,3796,333
Raw,62,3807,333
Raw,54,3810,333
Raw,51,3810,333
Raw,50,3815,333
Raw,38,3815,333
Raw,63,3817,333
Raw,47,3821,333
Raw,63,3830,333
Raw,63,3834,333
Raw,107,3834,333
Raw,50,3836,333
Raw,104,3840,333
Raw,61,3850,333
Raw,41,3854,333
Raw,155,3862,333
Raw,47,3867,333
Raw,20,3877,333
Raw,54,3889,333
Raw,165,3891,333
Raw,78,3897,333
Raw,66,3901,333
Raw,39,3902,333
Raw,70,3906,333
Raw,41,3906,333
Raw,54,3914,333
Raw,99,3942,333
Raw,72,3948,333
Raw,53,3952,333
Raw,71,3955,333
Raw,100,3956,333
Raw,53,3972,333
Raw,58,3973,333
Raw,91,3977,333
Raw,25,3980,333
Raw,129,3981,333
Raw,30,3982,333
Raw,50,3982,333
Raw,104,3987,333
Raw,143,3990,333
Raw,43,3994,333
Raw,72,3994,333
Raw,40,3996,333
Raw,35,3998,333
Raw,148,4003,333
Raw,120,4009,333
Raw,113,4012,333
Raw,103,4013,333
Raw,51,4018,333
Raw,63,4026,333
Raw,101,4027,333
Raw,55,4029,333
Raw,55,4046,333
Raw,66,4046,333
Raw,108,4047,333
Raw,170,4054,333
Raw,18,4054,333
Raw,116,4060,333
Raw,29,4065,333
Raw,26,4066,333
Raw,58,4083,333
Raw,50,4087,333
Raw,24,4099,333
Raw,37,4099,333
Raw,47,4103,333
Raw,111,4107,333
Raw,62,4113,333
Raw,64,4116,333
Raw,118,4119,333
Raw,85,4122,333
Raw,57,4134,333
Raw,90,4135,333
Raw,72,4140,333
Raw,57,4146,333
Raw,59,4147,333
Raw,104,4147,333
Raw,39,4152,333
Raw,52,4152,333
Raw,59,4162,333
Raw,69,4163,333
Raw,49,4167,333
Raw,21,4175,333
Raw,44,4175,333
Raw,101,4182,333
Raw,57,4185,333
Raw,16,4192,333
Raw,45,4214,333
Raw,128,4216,333
Raw,42,4217,333
Raw,13,4227,333
Raw,92,4247,333
Raw,63,4258,333
Raw,56,4258,333
Raw,54,4260,333
Raw,35,4260,333
Raw,44,4267,333
Raw,63,4274,333
Raw,67,4279,333
Raw,39,4279,333
Raw,169,4285,333
Raw,53,4292,333
Raw,25,4297,333
Raw,32,4306,333
Raw,60,4313,333
Raw,34,4317,333
Raw,29,4319,333
Raw,158,4324,333
Raw,64,4343,333
Raw,51,4352,333
Raw,58,4353,333
Raw,58,4353,333
Raw,91,4356,333
Raw,94,4361,333
Raw,66,4376,333
Raw,61,4377,333
Raw,60,4407,333
Raw,58,4425,333
Raw,34,4432,333
Raw,59,4438,333
Raw,66,4451,333
Raw,70,4459,333
Raw,39,4459,333
Raw,53,4460,333
Raw,114,4480,333
Raw,100,4488,333
Raw,52,4494,333
Raw,61,4496,333
Raw,23,4496,333
Raw,48,4500,333
Raw,49,4500,333
Raw,56,4510,333
Raw,56,4512,333
Raw,39,4516,333
Raw,79,4528,333
Raw,48,4530,333
Raw,56,4540,333
Raw,63,4540,333
Raw,114,4545,333
Raw,110,4562,333
Raw,143,4569,333
Raw,42,4583,333
Raw,106,4583,333
Raw,16,4589,333
Raw,108,4590,333
Raw,109,4596,333
Raw,120,4598,333
Raw,30,4598,333
Raw,60,4599,333
Raw,56,4599,333
Raw,103,4606,333
Raw,43,4611,333
Raw,40,4613,333
Raw,47,4618,333
Raw,167,4623,333
Raw,37,4626,333
Raw,44,4637,333
Raw,55,4659,333
Raw,164,4678,333
Raw,56,4679,333
Raw,66,4687,333
Raw,58,4688,333
Raw,33,4688,333
Raw,58,4696,333
Raw,102,4698,333
Raw,130,4717,333
Raw,51,4718,333
Raw,110,4727,333
Raw,52,4730,333
Raw,107,4731,333
Raw,33,4732,333
Raw,40,4741,333
Raw,88,4741,333
Raw,110,4750,333
Raw,36,4759,333
Raw,169,4763,333
Raw,49,4765,333
Raw,150,4768,333
Raw,52,4779,333
Raw,132,4790,333
Raw,42,4804,333
Raw,89,4804,333
Raw,31,4806,333
Raw,125,4808,333
Raw,52,4810,333
Raw,44,4816,333
Raw,63,4817,333
Raw,54,4817,333
Raw,6,4819,333
Raw,69,4831,333
Raw,48,4831,333
Raw,39,4840,333
Raw,29,4842,333
Raw,64,4844,333
Raw,47,4844,333
Raw,78,4852,333
Raw,15,4853,333
Raw,63,4854,333
Raw,64,4855,333
Raw,117,4856,333
Raw,118,4862,333
Raw,48,4862,333
Raw,111,4869,333
Raw,110,4869,333
Raw,44,4872,333
Raw,56,4875,333
Raw,60,4875,333
Raw,42,4883,333
Raw,56,4901,333
Raw,45,4915,333
Raw,63,4918,333
Raw,41,4918,333
Raw,51,4924,333
Raw,112,4926,333
Raw,58,4936,333
Raw,56,4938,333
Raw,41,4944,333
Raw,132,4945,333
Raw,55,4952,333
Raw,104,4958,333
Raw,55,4964,333
Raw,84,4965,333
Raw,99,4967,333
Raw,31,4967,333
Raw,32,4970,333
Raw,63,4972,333
Raw,46,4984,333
Raw,40,4991,333
Raw,30,4995,333
Raw,158,4999,333
Raw,57,5004,333
Raw,108,5012,333
Raw,45,5015,333
Raw,53,5028,333
Raw,108,5029,333
Raw,119,5036,333
Raw,64,5041,333
Raw,96,5043,333
Raw,128,5048,333
Raw,13,5060,333
Raw,56,5070,333
Raw,158,5076,333
Raw,52,5077,333
Raw,88,5081,333
Raw,62,5085,333
Raw,30,5097,333
Raw,47,5099,333
Raw,44,5108,333
Raw,52,5111,333
Raw,63,5117,333
Raw,60,5123,333
Raw,39,5137,333
Raw,62,5137,333
Raw,49,5140,333
Raw,67,5145,333
Raw,50,5148,333
Raw,90,5148,333
Raw,59,5154,333
Raw,114,5158,333
Raw,54,5161,333
Raw,42,5169,333
Raw,61,5169,333
Raw,66,5174,333
Raw,58,5176,333
Raw,53,5177,333
Raw,116,5178,333
Raw,110,5179,333
Raw,76,5180,333
Raw,41,5182,333
Raw,82,5183,333
Raw,54,5187,333
Raw,48,5188,333
Raw,95,5195,333
Raw,64,5196,333
Raw,112,5197,333
Raw,40,5197,333
Raw,58,5199,333
Raw,92,5203,333
Raw,58,5204,333
Raw,92,5204,333
Raw,51,5207,333
Raw,36,5207,333
Raw,96,5209,333
Raw,37,5213,333
Raw,48,5213,333
Raw,55,5216,333
Raw,59,5220,333
Raw,107,5224,333
Raw,110,5233,333
Raw,49,5239,333
Raw,52,5240,333
Raw,46,5242,333
Raw,35,5251,333
Raw,73,5251,333
Raw,57,5252,333
Raw,71,5252,333
Raw,48,5254,333
Raw,119,5254,333
Raw,78,5269,333
Raw,78,5270,333
Raw,59,5275,333
Raw,43,5276,333
Raw,118,5277,333
Raw,66,5280,333
Raw,34,5288,333
Raw,54,5293,333
Raw,61,5300,333
Raw,52,5301,333
Raw,56,5303,333
Raw,107,5307,333
Raw,48,5324,333
Raw,56,5337,333
Raw,48,5350,333
Raw,59,5362,333
Raw,41,5363,333
Raw,160,5369,333
Raw,38,5369,333
Raw,58,5373,333
Raw,49,5383,333
Raw,58,5390,333
Raw,88,5396,333
Raw,56,5397,333
Raw,91,5407,333
Raw,38,5421,333
Raw,63,5424,333
Raw,30,5424,333
Raw,112,5429,333
Raw,49,5439,333
Raw,60,5443,333
Raw,40,5458,333
Raw,55,5461,333
Raw,59,5465,333
Raw,111,5483,333
Raw,60,5487,333
Raw,96,5489,333
Raw,45,5498,333
Raw,74,5499,333
Raw,125,5500,333
Raw,57,5502,333
Raw,52,5506,333
Raw,59,5507,333
Raw,39,5515,333
Raw,26,5522,333
Raw,155,5526,333
Raw,83,5532,333
Raw,131,5538,333
Raw,65,5542,333
Raw,39,5542,333
Raw,74,5543,333
Raw,53,5565,333
Raw,103,5574,333
Raw,18,5577,333
Raw,114,5579,333
Raw,39,5581,333
Raw,47,5583,333
Raw,107,5583,333
Raw,48,5587,333
Raw,50,5588,333
Raw,63,5601,333
Raw,102,5614,333
Raw,51,5617,333
Raw,21,5625,333
Raw,46,5630,333
Raw,13,5631,333
Raw,128,5634,333
Raw,9,5635,333
Raw,49,5637,333
Raw,57,5639,333
Raw,60,5644,333
Raw,11,5660,333
Raw,52,5660,333
Raw,51,5662,333
Raw,95,5663,333
Raw,51,5665,333
Raw,109,5666,333
Raw,54,5672,333
Raw,45,5673,333
Raw,58,5674,333
Raw,41,5676,333
Raw,116,5684,333
Raw,55,5686,333
Raw,45,5702,333
Raw,101,5702,333
Raw,65,5704,333
Raw,148,5706,333
Raw,118,5711,333
Raw,49,5711,333
Raw,70,5712,333
Raw,48,5713,333
Raw,54,5721,333
Raw,46,5723,333
Raw,38,5723,333
Raw,35,5723,333
Raw,99,5729,333
Raw,36,5734,333
Raw,29,5734,333
Raw,61,5737,333
Raw,27,5737,333
Raw,101,5746,333
Raw,166,5747,333
Raw,60,5748,333
Raw,62,5757,333
Raw,50,5757,333
Raw,61,5758,333
Raw,52,5758,333
Raw,30,5758,333
Raw,97,5775,333
Raw,43,5777,333
Raw,55,5779,333
Raw,50,5789,333
Raw,100,5791,333
Raw,28,5791,333
Raw,24,5798,333
Raw,58,5807,333
Raw,100,5811,333
Raw,103,5822,333
Raw,46,5824,333
Raw,27,5824,333
Raw,64,5854,333
Raw,64,5866,333
Raw,95,5866,333
Raw,22,5870,333
Raw,45,5871,333
Raw,25,5873,333
Raw,36,5876,333
Raw,149,5877,333
Raw,27,5879,333
Raw,115,5881,333
Raw,27,5881,333
Raw,121,5885,333
Raw,144,5894,333
Raw,57,5918,333
Raw,43,5942,333
Raw,44,5947,333
Raw,146,5962,333
Raw,55,5965,333
Raw,106,5979,333
Raw,65,5979,333
Raw,80,5992,333
Raw,50,5999,333
Raw,49,5999,333
Raw,163,6017,333
Raw,57,6018,333
Raw,53,6019,333
Raw,88,6022,333
Raw,61,6026,333
Raw,33,6026,333
Raw,58,6027,333
Raw,101,6030,333
Raw,58,6034,333
Raw,72,6036,333
Raw,36,6037,333
Raw,53,6065,333
Raw,55,6067,333
Raw,93,6080,333
Raw,35,6080,333
Raw,57,6081,333
Raw,62,6106,333
Raw,56,6126,333
Raw,50,6141,333
Raw,87,6142,333
Raw,36,6144,333
Raw,48,6147,333
Raw,109,6155,333
Raw,118,6171,333
Raw,28,6178,333
Raw,53,6179,333
Raw,19,6182,333
Raw,49,6184,333
Raw,39,6184,333
Raw,105,6213,333
Raw,60,6217,333
Raw,26,6222,333
Raw,39,6222,333
Raw,53,6224,333
Raw,41,6228,333
Raw,126,6236,333
Raw,60,6237,333
Raw,57,6246,333
Raw,62,6248,333
Raw,114,6260,333
Raw,52,6263,333
Raw,19,6263,333
Raw,56,6268,333
Raw,54,6273,333
Raw,27,6280,333
Raw,47,6283,333
Raw,72,6288,333
Raw,104,6290,333
Raw,56,6300,333
Raw,42,6305,333
Raw,16,6310,333
Raw,44,6317,333
Raw,79,6318,333
Raw,26,6328,333
Raw,52,6328,333
Raw,24,6337,333
Raw,60,6338,333
Raw,52,6338,333
Raw,52,6343,333
Raw,59,6355,333
Raw,129,6360,333
Raw,29,6364,333
Raw,50,6364,333
Raw,62,6369,333
Raw,20,6370,333
Raw,61,6371,333
Raw,53,6380,333
Raw,30,6382,333
Raw,57,6382,333
Raw,94,6392,333
Raw,51,6396,333
Raw,62,6407,333
Raw,155,6411,333
Raw,51,6419,333
Raw,49,6419,333
Raw,52,6420,333
Raw,65,6430,333
Raw,95,6430,333
Raw,57,6433,333
Raw,33,6448,333
Raw,45,6451,333
Raw,113,6456,333
Raw,54,6457,333
Raw,16,6461,333
Raw,14,6464,333
Raw,111,6470,333
Raw,25,6490,333
Raw,31,6496,333
Raw,33,6502,333
Raw,68,6502,333
Raw,43,6514,333
Raw,138,6519,333
Raw,54,6519,333
Raw,109,6519,333
Raw,11,6520,333
Raw,15,6522,333
Raw,58,6524,333
Raw,34,6524,333
Raw,108,6526,333
Raw,65,6530,333
Raw,57,6535,333
Raw,119,6539,333
Raw,60,6541,333
Raw,69,6549,333
Raw,55,6554,333
Raw,56,6557,333
Raw,63,6563,333
Raw,56,6563,333
Raw,55,6568,333
Raw,35,6570,333
Raw,44,6576,333
Raw,20,6576,333
Raw,47,6586,333
Raw,88,6592,333
Raw,68,6595,333
Raw,60,6597,333
Raw,111,6604,333
Raw,120,6606,333
Raw,30,6607,333
Raw,73,6623,333
Raw,24,6627,333
Raw,52,6627,333
Raw,112,6631,333
Raw,64,6636,333
Raw,60,6668,333
Raw,112,6668,333
Raw,74,6669,333
Raw,39,6670,333
Raw,16,6671,333
Raw,40,6671,333
Raw,57,6675,333
Raw,61,6681,333
Raw,31,6684,333
Raw,52,6684,333
Raw,156,6689,333
Raw,58,6690,333
Raw,56,6701,333
Raw,67,6701,333
Raw,56,6705,333
Raw,49,6706,333
Raw,53,6709,333
Raw,43,6709,333
Raw,59,6714,333
Raw,47,6718,333
Raw,151,6722,333
Raw,48,6722,333
Raw,57,6723,333
Raw,56,6724,333
Raw,37,6724,333
Raw,41,6729,333
Raw,46,6743,333
Raw,38,6743,333
Raw,108,6753,333
Raw,54,6764,333
Raw,73,6767,333
Raw,57,6770,333
Raw,49,6771,333
Raw,82,6777,333
Raw,54,6778,333
Raw,83,6780,333
Raw,110,6781,333
Raw,59,6782,333
Raw,60,6783,333
Raw,50,6783,333
Raw,40,6784,333
Raw,44,6789,333
Raw,53,6791,333
Raw,85,6794,333
Raw,58,6811,333
Raw,53,6811,333
Raw,53,6813,333
Raw,24,6815,333
Raw,53,6818,333
Raw,69,6824,333
Raw,54,6829,333
Raw,79,6831,333
Raw,87,6834,333
Raw,90,6837,333
Raw,54,6858,333
Raw,51,6862,333
Raw,38,6872,333
Raw,117,6873,333
Raw,114,6876,333
Raw,15,6876,333
Raw,99,6879,333
Raw,49,6882,333
Raw,75,6882,333
Raw,39,6883,333
Raw,57,6896,333
Raw,138,6902,333
Raw,60,6913,333
Raw,19,6913,333
Raw,78,6917,333
Raw,48,6920,333
Raw,106,6938,333
Raw,61,6944,333
Raw,165,6957,333
Raw,63,6978,333
Raw,33,6987,333
Raw,57,6988,333
Raw,54,6988,333
Raw,27,6991,333
Raw,104,6993,333
Raw,69,7005,333
Raw,91,7007,333
Raw,56,7014,333
Raw,108,7015,333
Raw,57,7018,333
Raw,51,7028,333
Raw,113,7031,333
Raw,89,7040,333
Raw,29,7046,333
Raw,49,7047,333
Raw,102,7056,333
Raw,49,7059,333
Raw,14,7070,333
Raw,57,7072,333
Raw,149,7074,333
Raw,55,7077,333
Raw,42,7085,333
Raw,61,7085,333
Raw,57,7095,333
Raw,60,7095,333
Raw,51,7096,333
Raw,59,7096,333
Raw,40,7106,333
Raw,92,7114,333
Raw,119,7118,333
Raw,45,7123,333
Raw,55,7124,333
Raw,41,7124,333
Raw,49,7131,333
Raw,66,7131,333
Raw,109,7136,333
Raw,18,7153,333
Raw,58,7153,333
Raw,86,7157,333
Raw,54,7160,333
Raw,114,7161,333
Raw,43,7162,333
Raw,64,7165,333
Raw,53,7165,333
Raw,147,7167,333
Raw,47,7170,333
Raw,50,7170,333
Raw,48,7174,333
Raw,122,7177,333
Raw,56,7182,333
Raw,54,7182,333
Raw,54,7187,333
Raw,80,7189,333
Raw,36,7195,333
Raw,169,7200,333
Raw,117,7201,333
Raw,50,7201,333
Raw,48,7221,333
Raw,57,7225,333
Raw,39,7233,333
Raw,57,7233,333
Raw,64,7237,333
Raw,130,7245,333
Raw,18,7282,333
Raw,49,7282,333
Raw,44,7287,333
Raw,105,7288,333
Raw,85,7291,333
Raw,111,7295,333
Raw,57,7299,333
Raw,82,7307,333
Raw,102,7310,333
Raw,64,7313,333
Raw,76,7323,333
Raw,57,7325,333
Raw,90,7332,333
Raw,52,7332,333
Raw,52,7342,333
Raw,104,7347,333
Raw,122,7349,333
Raw,56,7350,333
Raw,58,7350,333
Raw,58,7357,333
Raw,106,7367,333
Raw,59,7368,333
Raw,55,7372,333
Raw,48,7380,333
Raw,106,7381,333
Raw,56,7393,333
Raw,61,7395,333
Raw,57,7401,333
Raw,44,7401,333
Raw,56,7405,333
Raw,45,7414,333
Raw,45,7414,333
Raw,44,7418,333
Raw,107,7418,333
Raw,57,7423,333
Raw,51,7425,333
Raw,42,7435,333
Raw,52,7436,333
Raw,101,7440,333
Raw,57,7443,333
Raw,41,7444,333
Raw,114,7459,333
Raw,62,7464,333
Raw,152,7469,333
Raw,55,7470,333
Raw,136,7472,333
Raw,19,7485,333
Raw,46,7486,333
Raw,55,7487,333
Raw,60,7489,333
Raw,25,7489,333
Raw,21,7491,333
Raw,43,7496,333
Raw,64,7497,333
Raw,62,7513,333
Raw,114,7520,333
Raw,115,7521,333
Raw,55,7533,333
Raw,170,7535,333
Raw,56,7536,333
Raw,101,7537,333
Raw,48,7545,333
Raw,46,7546,333
Raw,56,7547,333
Raw,75,7547,333
Raw,27,7548,333
Raw,49,7550,333
Raw,49,7554,333
Raw,46,7554,333
Raw,60,7561,333
Raw,51,7570,333
Raw,43,7592,333
Raw,148,7595,333
Raw,36,7601,333
Raw,54,7601,333
Raw,94,7607,333
Raw,52,7609,333
Raw,50,7612,333
Raw,105,7616,333
Raw,96,7620,333
Raw,21,7624,333
Raw,60,7635,333
Raw,34,7644,333
Raw,48,7649,333
Raw,38,7655,333
Raw,59,7658,333
Raw,135,7660,333
Raw,53,7664,333
Raw,111,7686,333
Raw,26,7696,333
Raw,48,7701,333
Raw,62,7707,333
Raw,49,7707,333
Raw,118,7714,333
Raw,49,7717,333
Raw,58,7722,333
Raw,57,7729,333
Raw,56,7731,333
Raw,60,7731,333
Raw,57,7745,333
Raw,18,7746,333
Raw,51,7750,333
Raw,64,7760,333
Raw,61,7771,333
Raw,53,7778,333
Raw,52,7782,333
Raw,53,7791,333
Raw,27,7791,333
Raw,15,7791,333
Raw,51,7798,333
Raw,151,7803,333
Raw,39,7807,333
Raw,44,7807,333
Raw,42,7809,333
Raw,100,7811,333
Raw,106,7816,333
Raw,53,7816,333
Raw,44,7824,333
Raw,28,7826,333
Raw,147,7838,333
Raw,142,7841,333
Raw,109,7848,333
Raw,45,7852,333
Raw,126,7857,333
Raw,54,7861,333
Raw,136,7862,333
Raw,42,7863,333
Raw,64,7875,333
Raw,36,7880,333
Raw,30,7893,333
Raw,9,7914,333
Raw,52,7914,333
Raw,70,7918,333
Raw,46,7919,333
Raw,46,7927,333
Raw,51,7933,333
Raw,40,7936,333
Raw,60,7942,333
Raw,60,7945,333
Raw,46,7945,333
Raw,161,7952,333
Raw,11,7963,333
Raw,114,7964,333
Raw,142,7965,333
Raw,69,7967,333
Raw,43,7972,333
Raw,96,7974,333
Raw,47,7976,333
Raw,17,7977,333
Raw,59,7977,333
Raw,58,7983,333
Raw,91,7994,333
Raw,145,7996,333
Raw,97,7999,333
Raw,50,7999,333
Raw,52,8001,333
Raw,129,8006,333
Raw,62,8012,333
Raw,58,8015,333
Raw,49,8017,333
Raw,76,8020,333
Raw,51,8027,333
Raw,50,8027,333
Raw,41,8061,333
Raw,106,8062,333
Raw,109,8063,333
Raw,68,8066,333
Raw,25,8070,333
Raw,88,8070,333
Raw,122,8072,333
Raw,94,8087,333
Raw,68,8089,333
Raw,37,8089,333
Raw,113,8096,333
Raw,45,8105,333
Raw,50,8110,333
Raw,45,8114,333
Raw,108,8133,333
Raw,163,8152,333
Raw,48,8155,333
Raw,56,8166,333
Raw,42,8168,333
Raw,120,8184,333
Raw,55,8186,333
Raw,74,8189,333
Raw,38,8195,333
Raw,58,8213,333
Raw,57,8214,333
Raw,95,8220,333
Raw,44,8228,333
Raw,46,8228,333
Raw,98,8234,333
Raw,152,8235,333
Raw,53,8240,333
Raw,42,8248,333
Raw,101,8248,333
Raw,30,8253,333
Raw,55,8266,333
Raw,60,8267,333
Raw,51,8275,333
Raw,58,8277,333
Raw,68,8277,333
Raw,164,8289,333
Raw,16,8290,333
Raw,46,8304,333
Raw,75,8309,333
Raw,21,8309,333
Raw,49,8312,333
Raw,116,8312,333
Raw,130,8319,333
Raw,42,8322,333
Raw,110,8327,333
Raw,58,8329,333
Raw,29,8340,333
Raw,56,8342,333
Raw,47,8342,333
Raw,55,8362,333
Raw,39,8363,333
Raw,64,8363,333
Raw,41,8365,333
Raw,37,8365,333
Raw,104,8367,333
Raw,60,8372,333
Raw,53,8377,333
Raw,34,8378,333
Raw,53,8378,333
Raw,123,8382,333
Raw,75,8388,333
Raw,55,8392,333
Raw,55,8405,333
Raw,23,8412,333
Raw,51,8412,333
Raw,38,8415,333
Raw,57,8417,333
Raw,103,8420,333
Raw,71,8421,333
Raw,143,8423,333
Raw,163,8425,333
Raw,75,8429,333
Raw,113,8434,333
Raw,87,8436,333
Raw,84,8442,333
Raw,27,8443,333
Raw,50,8445,333
Raw,54,8446,333
Raw,58,8446,333
Raw,56,8449,333
Raw,56,8459,333
Raw,125,8460,333
Raw,55,8473,333
Raw,29,8473,333
Raw,68,8474,333
Raw,50,8479,333
Raw,55,8480,333
Raw,51,8481,333
Raw,74,8483,333
Raw,84,8488,333
Raw,60,8493,333
Raw,107,8496,333
Raw,56,8504,333
Raw,87,8506,333
Raw,58,8507,333
Raw,88,8507,333
Raw,37,8516,333
Raw,106,8519,333
Raw,57,8522,333
Raw,68,8526,333
Raw,57,8527,333
Raw,146,8530,333
Raw,102,8535,333
Raw,114,8540,333
Raw,100,8541,333
Raw,47,8554,333
Raw,48,8555,333
Raw,22,8557,333
Raw,36,8561,333
Raw,104,8570,333
Raw,145,8585,333
Raw,31,8585,333
Raw,83,8586,333
Raw,93,8588,333
Raw,58,8591,333
Raw,100,8602,333
Raw,116,8614,333
Raw,54,8625,333
Raw,40,8639,333
Raw,107,8651,333
Raw,54,8656,333
Raw,114,8656,333
Raw,124,8665,333
Raw,58,8666,333
Raw,42,8670,333
Raw,46,8675,333
Raw,45,8675,333
Raw,78,8688,333
Raw,52,8706,333
Raw,48,8706,333
Raw,104,8714,333
Raw,58,8715,333
Raw,50,8725,333
Raw,105,8729,333
Raw,38,8730,333
Raw,56,8731,333
Raw,112,8733,333
Raw,43,8737,333
Raw,57,8737,333
Raw,44,8738,333
Raw,150,8740,333
Raw,127,8742,333
Raw,47,8744,333
Raw,51,8744,333
Raw,48,8749,333
Raw,152,8771,333
Raw,29,8779,333
Raw,72,8788,333
Raw,55,8793,333
Raw,58,8797,333
Raw,55,8802,333
Raw,50,8825,333
Raw,53,8833,333
Raw,47,8836,333
Raw,67,8839,333
Raw,68,8841,333
Raw,58,8844,333
Raw,46,8844,333
Raw,58,8846,333
Raw,159,8847,333
Raw,56,8848,333
Raw,49,8849,333
Raw,20,8849,333
Raw,158,8864,333
Raw,121,8871,333
Raw,54,8876,333
Raw,118,8877,333
Raw,40,8881,333
Raw,59,8881,333
Raw,24,8882,333
Raw,52,8883,333
Raw,156,8901,333
Raw,62,8911,333
Raw,47,8940,333
Raw,52,8940,333
Raw,47,8948,333
Raw,49,8956,333
Raw,128,8958,333
Raw,63,8969,333
Raw,74,8972,333
Raw,58,8977,333
Raw,66,8980,333
Raw,60,8986,333
Raw,51,8987,333
Raw,97,8987,333
Raw,52,8992,333
Raw,40,8993,333
Raw,78,8996,333
Raw,23,9006,333
Raw,51,9006,333
Raw,60,9007,333
Raw,47,9019,333
Raw,35,9019,333
Raw,52,9046,333
Raw,146,9050,333
Raw,58,9058,333
Raw,55,9059,333
Raw,49,9063,333
Raw,58,9069,333
Raw,59,9076,333
Raw,55,9080,333
Raw,54,9084,333
Raw,55,9085,333
Raw,55,9088,333
Raw,49,9096,333
Raw,89,9096,333
Raw,102,9113,333
Raw,52,9114,333
Raw,44,9129,333
Raw,54,9155,333
Raw,80,9155,333
Raw,51,9155,333
Raw,55,9164,333
Raw,63,9170,333
Raw,151,9172,333
Raw,47,9181,333
Raw,77,9183,333
Raw,71,9200,333
Raw,37,9201,333
Raw,51,9204,333
Raw,41,9210,333
Raw,83,9215,333
Raw,89,9217,333
Raw,164,9228,333
Raw,48,9230,333
Raw,57,9231,333
Raw,52,9234,333
Raw,59,9242,333
Raw,59,9244,333
Raw,29,9250,333
Raw,103,9253,333
Raw,55,9258,333
Raw,53,9270,333
Raw,54,9277,333
Raw,59,9283,333
Raw,44,9283,333
Raw,105,9291,333
Raw,35,9298,333
Raw,46,9299,333
Raw,51,9299,333
Raw,55,9313,333
Raw,62,9315,333
Raw,49,9320,333
Raw,53,9320,333
Raw,48,9321,333
Raw,62,9322,333
Raw,49,9332,333
Raw,40,9332,333
Raw,38,9335,333
Raw,53,9336,333
Raw,68,9337,333
Raw,72,9338,333
Raw,55,9344,333
Raw,51,9345,333
Raw,21,9349,333
Raw,102,9357,333
Raw,126,9377,333
Raw,24,9377,333
Raw,44,9380,333
Raw,58,9380,333
Raw,61,9381,333
Raw,55,9384,333
Raw,24,9386,333
Raw,29,9388,333
Raw,30,9406,333
Raw,53,9410,333
Raw,26,9426,333
Raw,46,9426,333
Raw,60,9434,333
Raw,49,9439,333
Raw,50,9448,333
Raw,101,9455,333
Raw,52,9464,333
Raw,44,9470,333
Raw,119,9471,333
Raw,52,9472,333
Raw,36,9473,333
Raw,43,9479,333
Raw,57,9484,333
Raw,42,9492,333
Raw,59,9493,333
Raw,148,9503,333
Raw,29,9503,333
Raw,54,9513,333
Raw,21,9519,333
Raw,109,9520,333
Raw,78,9528,333
Raw,52,9543,333
Raw,15,9548,333
Raw,33,9548,333
Raw,57,9556,333
Raw,46,9577,333
Raw,94,9590,333
Raw,43,9594,333
Raw,56,9596,333
Raw,50,9596,333
Raw,53,9603,333
Raw,168,9607,333
Raw,25,9611,333
Raw,91,9623,333
Raw,42,9625,333
Raw,52,9626,333
Raw,93,9630,333
Raw,105,9637,333
Raw,51,9644,333
Raw,46,9644,333
Raw,93,9645,333
Raw,50,9646,333
Raw,44,9647,333
Raw,38,9647,333
Raw,47,9651,333
Raw,58,9651,333
Raw,45,9655,333
Raw,57,9655,333
Raw,43,9656,333
Raw,57,9660,333
Raw,56,9667,333
Raw,109,9674,333
Raw,111,9679,333
Raw,47,9681,333
Raw,82,9682,333
Raw,48,9686,333
Raw,48,9694,333
Raw,50,9699,333
Raw,33,9699,333
Raw,23,9711,333
Raw,61,9717,333
Raw,32,9717,333
Raw,63,9719,333
Raw,52,9725,333
Raw,40,9726,333
Raw,91,9729,333
Raw,76,9732,333
Raw,36,9732,333
Raw,87,9741,333
Raw,157,9746,333
Raw,37,9751,333
Raw,47,9761,333
Raw,48,9761,333
Raw,56,9767,333
Raw,55,9771,333
Raw,19,9774,333
Raw,59,9774,333
Raw,41,9782,333
Raw,52,9788,333
Raw,97,9791,333
Raw,34,9791,333
Raw,71,9792,333
Raw,44,9798,333
Raw,96,9805,333
Raw,56,9808,333
Raw,58,9822,333
Raw,106,9829,333
Raw,50,9830,333
Raw,63,9831,333
Raw,105,9838,333
Raw,133,9839,333
Raw,53,9869,333
Raw,47,9874,333
Raw,50,9874,333
Raw,66,9884,333
Raw,154,9889,333
Raw,52,9905,333
Raw,61,9905,333
Raw,22,9924,333
Raw,50,9928,333
Raw,162,9937,333
Raw,66,9942,333
Raw,45,9948,333
Raw,53,9953,333
Raw,46,9965,333
Raw,51,9969,333
Raw,41,9974,333
Raw,14,9974,333
Raw,64,9980,333
Raw,24,9987,333
Raw,125,9993,333
Raw,62,10004,333
Raw,45,10004,333
Raw,88,10008,333
Raw,80,10012,333
Raw,36,10018,333
Raw,44,10037,333
Raw,83,10037,333
Raw,64,10043,333
Raw,168,10044,333
Raw,99,10051,333
Raw,146,10055,333
Raw,87,10065,333
Raw,170,10068,333
Raw,33,10070,333
Raw,28,10074,333
Raw,33,10075,333
Raw,129,10088,333
Raw,52,10091,333
Raw,46,10091,333
Raw,63,10094,333
Raw,51,10102,333
Raw,63,10104,333
Raw,51,10105,333
Raw,164,10111,333
Raw,61,10111,333
Raw,35,10117,333
Raw,32,10119,333
Raw,37,10128,333
Raw,98,10131,333
Raw,102,10135,333
Raw,43,10146,333
Raw,5,10149,333
Raw,78,10159,333
Raw,41,10163,333
Raw,66,10164,333
Raw,26,10168,333
Raw,116,10169,333
Raw,50,10171,333
Raw,42,10174,333
Raw,107,10176,333
Raw,52,10176,333
Raw,99,10179,333
Raw,50,10179,333
Raw,34,10183,333
Raw,52,10185,333
Raw,50,10188,333
Raw,50,10191,333
Raw,60,10191,333
Raw,47,10198,333
Raw,61,10208,333
Raw,63,10223,333
Raw,124,10233,333
Raw,10,10240,333
Raw,31,10248,333
Raw,49,10251,333
Raw,22,10262,333
Raw,46,10281,333
Raw,162,10284,333
Raw,75,10286,333
Raw,149,10287,333
Raw,60,10288,333
Raw,121,10293,333
Raw,53,10324,333
Raw,108,10327,333
Raw,37,10328,333
Raw,22,10328,333
Raw,39,10329,333
Raw,66,10331,333
Raw,160,10337,333
Raw,53,10338,333
Raw,39,10338,333
Raw,50,10343,333
Raw,24,10344,333
Raw,140,10348,333
Raw,47,10352,333
Raw,52,10352,333
Raw,38,10354,333
Raw,47,10355,333
Raw,137,10360,333
Raw,122,10369,333
Raw,47,10379,333
Raw,56,10379,333
Raw,48,10384,333
Raw,111,10385,333
Raw,60,10388,333
Raw,55,10394,333
Raw,80,10395,333
Raw,58,10395,333
Raw,121,10396,333
Raw,53,10397,333
Raw,113,10399,333
Raw,46,10414,333
Raw,26,10425,333
Raw,55,10425,333
Raw,165,10432,333
Raw,49,10434,333
Raw,48,10450,333
Raw,161,10455,333
Raw,56,10456,333
Raw,26,10456,333
Raw,149,10470,333
Raw,46,10480,333
Raw,122,10490,333
Raw,45,10490,333
Raw,88,10496,333
Raw,94,10501,333
Raw,36,10501,333
Raw,46,10510,333
Raw,61,10510,333
Raw,73,10519,333
Raw,49,10524,333
Raw,52,10525,333
Raw,51,10532,333
Raw,47,10538,333
Raw,51,10540,333
Raw,28,10547,333
Raw,51,10548,333
Raw,30,10548,333
Raw,54,10555,333
Raw,50,10560,333
Raw,58,10570,333
Raw,58,10577,333
Raw,60,10603,333
Raw,106,10621,333
Raw,66,10626,333
Raw,50,10630,333
Raw,118,10632,333
Raw,112,10636,333
Raw,55,10642,333
Raw,99,10647,333
Raw,54,10654,333
Raw,51,10667,333
Raw,98,10672,333
Raw,59,10683,333
Raw,56,10692,333
Raw,119,10695,333
Raw,92,10698,333
Raw,97,10700,333
Raw,31,10711,333
Raw,56,10712,333
Raw,60,10716,333
Raw,56,10720,333
Raw,26,10720,333
Raw,76,10722,333
Raw,107,10725,333
Raw,18,10725,333
Raw,46,10727,333
Raw,46,10727,333
Raw,48,10729,333
Raw,30,10740,333
Raw,48,10740,333
Raw,12,10742,333
Raw,28,10750,333
Raw,63,10753,333
Raw,44,10755,333
Raw,71,10758,333
Raw,46,10760,333
Raw,54,10767,333
Raw,52,10769,333
Raw,28,10769,333
Raw,49,10770,333
Raw,42,10771,333
Raw,36,10771,333
Raw,64,10779,333
Raw,101,10782,333
Raw,61,10786,333
Raw,59,10790,333
Raw,56,10793,333
Raw,31,10793,333
Raw,101,10797,333
Raw,8,10800,333
Raw,114,10810,333
Raw,58,10814,333
Raw,154,10821,333
Raw,42,10836,333
Raw,59,10839,333
Raw,66,10839,333
Raw,50,10854,333
Raw,37,10854,333
Raw,52,10860,333
Raw,33,10860,333
Raw,49,10863,333
Raw,54,10872,333
Raw,70,10877,333
Raw,59,10878,333
Raw,40,10879,333
Raw,51,10881,333
Raw,41,10881,333
Raw,47,10894,333
Raw,109,10896,333
Raw,59,10898,333
Raw,59,10900,333
Raw,95,10902,333
Raw,95,10905,333
Raw,62,10908,333
Raw,51,10909,333
Raw,33,10917,333
Raw,50,10920,333
Raw,38,10922,333
Raw,58,10929,333
Raw,55,10929,333
Raw,46,10930,333
Raw,66,10933,333
Raw,16,10933,333
Raw,40,10936,333
Raw,121,10946,333
Raw,47,10949,333
Raw,61,10957,333
Raw,47,10960,333
Raw,119,10966,333
Raw,13,10966,333
Raw,48,10967,333
Raw,58,10974,333
Raw,44,10979,333
Raw,63,10981,333
Raw,63,10981,333
Raw,56,10984,333
Raw,85,10984,333
Raw,84,10986,333
Raw,54,10987,333
Raw,103,10996,333
Raw,57,10997,333
Raw,51,11000,333
Raw,101,11001,333
Raw,115,11002,333
Raw,102,11002,333
Raw,37,11005,333
Raw,45,11011,333
Raw,58,11012,333
Raw,23,11012,333
Raw,56,11017,333
Raw,52,11023,333
Raw,32,11023,333
Raw,57,11025,333
Raw,46,11026,333
Raw,48,11038,333
Raw,107,11038,333
Raw,98,11040,333
Raw,32,11040,333
Raw,121,11041,333
Raw,49,11042,333
Raw,57,11043,333
Raw,50,11046,333
Raw,48,11062,333
Raw,167,11064,333
Raw,90,11083,333
Raw,52,11093,333
Raw,48,11106,333
Raw,79,11107,333
Raw,58,11108,333
Raw,70,11115,333
Raw,38,11118,333
Raw,114,11120,333
Raw,99,11127,333
Raw,49,11131,333
Raw,46,11132,333
Raw,47,11139,333
Raw,101,11142,333
Raw,45,11144,333
Raw,123,11151,333
Raw,47,11160,333
Raw,57,11161,333
Raw,103,11169,333
Raw,50,11171,333
Raw,52,11172,333
Raw,64,11182,333
Raw,54,11186,333
Raw,66,11193,333
Raw,144,11195,333
Raw,26,11195,333
Raw,38,11197,333
Raw,93,11197,333
Raw,71,11206,333
Raw,33,11207,333
Raw,48,11213,333
Raw,44,11218,333
Raw,71,11226,333
Raw,107,11240,333
Raw,62,11248,333
Raw,112,11255,333
Raw,110,11277,333
Raw,57,11279,333
Raw,42,11281,333
Raw,40,11291,333
Raw,59,11291,333
Raw,87,11309,333
Raw,66,11312,333
Raw,34,11322,333
Raw,97,11323,333
Raw,117,11325,333
Raw,59,11326,333
Raw,109,11329,333
Raw,47,11331,333
Raw,108,11332,333
Raw,57,11335,333
Raw,37,11340,333
Raw,54,11341,333
Raw,57,11352,333
Raw,87,11353,333
Raw,29,11358,333
Raw,47,11370,333
Raw,106,11375,333
Raw,57,11376,333
Raw,97,11378,333
Raw,132,11381,333
Raw,60,11383,333
Raw,34,11390,333
Raw,61,11390,333
Raw,61,11397,333
Raw,50,11400,333
Raw,59,11404,333
Raw,46,11404,333
Raw,48,11429,333
Raw,57,11429,333
Raw,59,11434,333
Raw,51,11434,333
Raw,51,11437,333
Raw,58,11439,333
Raw,66,11444,333
Raw,59,11452,333
Raw,58,11462,333
Raw,99,11466,333
Raw,41,11483,333
Raw,55,11483,333
Raw,6,11491,333
Raw,42,11491,333
Raw,25,11493,333
Raw,46,11499,333
Raw,60,11499,333
Raw,165,11503,333
Raw,108,11518,333
Raw,12,11518,333
Raw,16,11520,333
Raw,50,11535,333
Raw,30,11537,333
Raw,32,11537,333
Raw,55,11548,333
Raw,113,11555,333
Raw,107,11559,333
Raw,54,11564,333
Raw,33,11570,333
Raw,51,11574,333
Raw,66,11574,333
Raw,63,11589,333
Raw,68,11592,333
Raw,111,11594,333
Raw,50,11594,333
Raw,49,11596,333
Raw,66,11618,333
Raw,63,11621,333
Raw,3,11623,333
Raw,104,11626,333
Raw,56,11626,333
Raw,63,11633,333
Raw,56,11635,333
Raw,38,11637,333
Raw,62,11638,333
Raw,62,11644,333
Raw,31,11644,333
Raw,59,11647,333
Raw,56,11651,333
Raw,53,11652,333
Raw,43,11665,333
Raw,46,11665,333
Raw,44,11682,333
Raw,55,11688,333
Raw,138,11713,333
Raw,28,11719,333
Raw,40,11722,333
Raw,58,11723,333
Raw,45,11725,333
Raw,84,11732,333
Raw,107,11733,333
Raw,57,11737,333
Raw,52,11739,333
Raw,135,11752,333
Raw,64,11756,333
Raw,42,11756,333
Raw,59,11765,333
Raw,148,11766,333
Raw,63,11777,333
Raw,45,11799,333
Raw,39,11802,333
Raw,77,11808,333
Raw,108,11813,333
Raw,46,11824,333
Raw,63,11827,333
Raw,73,11832,333
Raw,32,11835,333
Raw,7,11841,333
Raw,41,11843,333
Raw,25,11843,333
Raw,111,11845,333
Raw,67,11868,333
Raw,62,11878,333
Raw,57,11878,333
Raw,47,11880,333
Raw,24,11881,333
Raw,59,11885,333
Raw,43,11885,333
Raw,48,11888,333
Raw,47,11897,333
Raw,64,11917,333
Raw,57,11934,333
Raw,135,11935,333
Raw,49,11938,333
Raw,48,11938,333
Raw,62,11940,333
Raw,27,11940,333
Raw,58,11944,333
Raw,110,11956,333
Raw,56,11961,333
Raw,47,11979,333
Raw,19,11980,333
Raw,68,11984,333
Raw,54,11988,333
Raw,48,11996,333
Raw,45,12000,333
Raw,62,12008,333
Raw,86,12011,333
Raw,103,12034,333
Raw,113,12038,333
Raw,57,12043,333
Raw,46,12046,333
Raw,87,12046,333
Raw,33,12047,333
Raw,56,12048,333
Raw,85,12066,333
Raw,91,12068,333
Raw,18,12072,333
Raw,61,12081,333
Raw,42,12087,333
Raw,58,12087,333
Raw,18,12088,333
Raw,47,12091,333
Raw,74,12092,333
Raw,143,12093,333
Raw,48,12094,333
Raw,108,12104,333
Raw,117,12116,333
Raw,64,12118,333
Raw,60,12123,333
Raw,50,12123,333
Raw,124,12131,333
Raw,60,12139,333
Raw,63,12152,333
Raw,60,12154,333
Raw,34,12154,333
Raw,51,12155,333
Raw,98,12156,333
Raw,108,12163,333
Raw,62,12171,333
Raw,64,12184,333
Raw,50,12191,333
Raw,56,12201,333
Raw,51,12202,333
Raw,66,12227,333
Raw,33,12229,333
Raw,141,12230,333
Raw,53,12235,333
Raw,112,12245,333
Raw,63,12248,333
Raw,87,12255,333
Raw,50,12257,333
Raw,116,12260,333
Raw,110,12263,333
Raw,40,12268,333
Raw,61,12268,333
Raw,42,12277,333
Raw,50,12291,333
Raw,56,12297,333
Raw,154,12309,333
Raw,49,12325,333
Raw,85,12326,333
Raw,57,12334,333
Raw,50,12345,333
Raw,157,12357,333
Raw,56,12361,333
Raw,40,12374,333
Raw,47,12380,333
Raw,32,12387,333
Raw,120,12390,333
Raw,38,12396,333
Raw,38,12398,333
Raw,63,12399,333
Raw,61,12408,333
Raw,66,12413,333
Raw,84,12430,333
Raw,50,12431,333
Raw,49,12435,333
Raw,57,12443,333
Raw,54,12444,333
Raw,58,12444,333
Raw,95,12449,333
Raw,56,12451,333
Raw,56,12463,333
Raw,53,12465,333
Raw,25,12465,333
Raw,51,12469,333
Raw,52,12470,333
Raw,39,12470,333
Raw,146,12478,333
Raw,61,12480,333
Raw,92,12480,333
Raw,62,12486,333
Raw,28,12486,333
Raw,6,12491,333
Raw,61,12495,333
Raw,51,12498,333
Raw,108,12511,333
Raw,60,12513,333
Raw,43,12513,333
Raw,95,12513,333
Raw,48,12516,333
Raw,25,12528,333
Raw,63,12531,333
Raw,114,12537,333
Raw,98,12539,333
Raw,46,12547,333
Raw,51,12551,333
Raw,128,12556,333
Raw,106,12559,333
Raw,120,12571,333
Raw,137,12583,333
Raw,55,12589,333
Raw,108,12590,333
Raw,49,12591,333
Raw,51,12601,333
Raw,31,12601,333
Raw,50,12606,333
Raw,64,12607,333
Raw,60,12627,333
Raw,59,12631,333
Raw,51,12631,333
Raw,46,12638,333
Raw,50,12642,333
Raw,56,12647,333
Raw,109,12649,333
Raw,40,12650,333
Raw,55,12665,333
Raw,63,12669,333
Raw,38,12679,333
Raw,58,12683,333
Raw,56,12685,333
Raw,38,12712,333
Raw,45,12713,333
Raw,62,12713,333
Raw,49,12722,333
Raw,105,12722,333
Raw,50,12738,333
Raw,55,12738,333
Raw,111,12739,333
Raw,98,12739,333
Raw,58,12739,333
Raw,28,12745,333
Raw,170,12747,333
Raw,34,12751,333
Raw,38,12759,333
Raw,85,12780,333
Raw,138,12781,333
Raw,55,12783,333
Raw,9,12797,333
Raw,27,12798,333
Raw,41,12802,333
Raw,51,12803,333
Raw,46,12805,333
Raw,124,12810,333
Raw,75,12813,333
Raw,46,12813,333
Raw,57,12817,333
Raw,112,12819,333
Raw,44,12828,333
Raw,113,12844,333
Raw,60,12851,333
Raw,132,12852,333
Raw,21,12856,333
Raw,85,12856,333
Raw,63,12865,333
Raw,6,12867,333
Raw,24,12868,333
Raw,8,12868,333
Raw,62,12883,333
Raw,55,12886,333
Raw,105,12908,333
Raw,54,12912,333
Raw,50,12912,333
Raw,33,12915,333
Raw,48,12915,333
Raw,105,12921,333
Raw,42,12927,333
Raw,130,12929,333
Raw,57,12933,333
Raw,42,12935,333
Raw,117,12937,333
Raw,50,12939,333
Raw,37,12939,333
Raw,28,12943,333
Raw,46,12943,333
Raw,55,12946,333
Raw,55,12948,333
Raw,165,12964,333
Raw,114,12966,333
Raw,64,12973,333
Raw,57,12975,333
Raw,99,12979,333
Raw,48,12980,333
Raw,59,12981,333
Raw,64,12984,333
Raw,42,12984,333
Raw,110,12987,333
Raw,32,13002,333
Raw,60,13005,333
Raw,65,13015,333
Raw,54,13016,333
Raw,45,13020,333
Raw,66,13022,333
Raw,59,13023,333
Raw,50,13033,333
Raw,53,13055,333
Raw,110,13060,333
Raw,61,13074,333
Raw,106,13077,333
Raw,69,13083,333
Raw,28,13084,333
Raw,106,13084,333
Raw,53,13089,333
Raw,101,13090,333
Raw,9,13100,333
Raw,61,13100,333
Raw,79,13120,333
Raw,56,13126,333
Raw,33,13129,333
Raw,54,13141,333
Raw,94,13146,333
Raw,63,13146,333
Raw,117,13173,333
Raw,54,13177,333
Raw,79,13178,333
Raw,81,13181,333
Raw,16,13181,333
Raw,93,13183,333
Raw,56,13190,333
Raw,54,13190,333
Raw,61,13195,333
Raw,29,13197,333
Raw,56,13199,333
Raw,62,13208,333
Raw,55,13208,333
Raw,97,13211,333
Raw,53,13215,333
Raw,137,13219,333
Raw,33,13220,333
Raw,29,13232,333
Raw,46,13235,333
Raw,97,13245,333
Raw,50,13247,333
Raw,60,13251,333
Raw,52,13254,333
Raw,63,13256,333
Raw,76,13258,333
Raw,161,13262,333
Raw,53,13262,333
Raw,55,13265,333
Raw,24,13274,333
Raw,149,13280,333
Raw,121,13282,333
Raw,54,13283,333
Raw,39,13289,333
Raw,50,13294,333
Raw,35,13294,333
Raw,52,13296,333
Raw,159,13299,333
Raw,166,13307,333
Raw,53,13322,333
Raw,63,13347,333
Raw,107,13350,333
Raw,65,13350,333
Raw,47,13356,333
Raw,45,13361,333
Raw,15,13365,333
Raw,62,13365,333
Raw,133,13366,333
Raw,70,13367,333
Raw,51,13369,333
Raw,38,13376,333
Raw,46,13377,333
Raw,132,13380,333
Raw,67,13381,333
Raw,53,13382,333
Raw,76,13386,333
Raw,56,13398,333
Raw,134,13401,333
Raw,58,13406,333
Raw,96,13423,333
Raw,47,13430,333
Raw,164,13436,333
Raw,55,13461,333
Raw,94,13462,333
Raw,61,13463,333
Raw,63,13468,333
Raw,62,13471,333
Raw,27,13473,333
Raw,41,13481,333
Raw,108,13484,333
Raw,56,13490,333
Raw,39,13491,333
Raw,60,13491,333
Raw,54,13507,333
Raw,54,13508,333
Raw,48,13513,333
Raw,48,13518,333
Raw,141,13535,333
Raw,59,13545,333
Raw,43,13552,333
Raw,52,13553,333
Raw,93,13562,333
Raw,28,13564,333
Raw,39,13588,333
Raw,57,13588,333
Raw,167,13589,333
Raw,41,13599,333
Raw,54,13608,333
Raw,159,13609,333
Raw,57,13618,333
Raw,31,13621,333
Raw,50,13621,333
Raw,40,13621,333
Raw,64,13629,333
Raw,54,13633,333
Raw,53,13639,333
Raw,108,13642,333
Raw,55,13655,333
Raw,66,13656,333
Raw,42,13673,333
Raw,96,13691,333
Raw,65,13691,333
Raw,43,13695,333
Raw,50,13700,333
Raw,143,13701,333
Raw,58,13701,333
Raw,54,13702,333
Raw,50,13703,333
Raw,54,13703,333
Raw,44,13704,333
Raw,132,13708,333
Raw,95,13721,333
Raw,55,13721,333
Raw,71,13730,333
Raw,48,13734,333
Raw,60,13737,333
Raw,45,13740,333
Raw,49,13759,333
Raw,77,13766,333
Raw,60,13767,333
Raw,72,13771,333
Raw,66,13780,333
Raw,63,13783,333
Raw,42,13789,333
Raw,55,13804,333
Raw,79,13806,333
Raw,41,13806,333
Raw,64,13810,333
Raw,45,13812,333
Raw,114,13825,333
Raw,48,13827,333
Raw,39,13839,333
Raw,136,13841,333
Raw,150,13851,333
Raw,64,13851,333
Raw,50,13858,333
Raw,83,13858,333
Raw,59,13867,333
Raw,67,13872,333
Raw,50,13875,333
Raw,56,13879,333
Raw,109,13886,333
Raw,51,13887,333
Raw,49,13888,333
Raw,55,13889,333
Raw,53,13889,333
Raw,68,13891,333
Raw,119,13891,333
Raw,65,13901,333
Raw,59,13924,333
Raw,58,13925,333
Raw,43,13936,333
Raw,11,13937,333
Raw,55,13939,333
Raw,59,13942,333
Raw,11,13942,333
Raw,118,13948,333
Raw,17,13962,333
Raw,54,13964,333
Raw,51,13969,333
Raw,49,13977,333
Raw,55,13979,333
Raw,103,13985,333
Raw,54,13986,333
Raw,38,13995,333
Raw,46,13996,333
Raw,148,13998,333
Raw,51,14021,333
Raw,50,14026,333
Raw,50,14026,333
Raw,64,14027,333
Raw,49,14029,333
Raw,63,14039,333
Raw,145,14040,333
Raw,40,14042,333
Raw,27,14048,333
Raw,51,14055,333
Raw,49,14057,333
Raw,50,14058,333
Raw,57,14058,333
Raw,107,14059,333
Raw,60,14059,333
Raw,24,14064,333
Raw,49,14072,333
Raw,66,14073,333
Raw,41,14073,333
Raw,62,14074,333
Raw,55,14075,333
Raw,51,14092,333
Raw,42,14092,333
Raw,48,14106,333
Raw,43,14117,333
Raw,94,14127,333
Raw,102,14131,333
Raw,56,14132,333
Raw,33,14135,333
Raw,127,14142,333
Raw,59,14149,333
Raw,118,14151,333
Raw,115,14153,333
Raw,44,14158,333
Raw,23,14162,333
Raw,74,14162,333
Raw,80,14164,333
Raw,65,14164,333
Raw,63,14170,333
Raw,61,14177,333
Raw,48,14195,333
Raw,26,14198,333
Raw,41,14199,333
Raw,36,14204,333
Raw,107,14212,333
Raw,56,14214,333
Raw,36,14214,333
Raw,63,14223,333
Raw,41,14231,333
Raw,58,14238,333
Raw,56,14239,333
Raw,94,14244,333
Raw,55,14247,333
Raw,21,14248,333
Raw,54,14248,333
Raw,29,14250,333
Raw,100,14252,333
Raw,69,14252,333
Raw,46,14254,333
Raw,58,14254,333
Raw,60,14257,333
Raw,102,14264,333
Raw,164,14267,333
Raw,57,14271,333
Raw,56,14281,333
Raw,127,14290,333
Raw,105,14298,333
Raw,56,14301,333
Raw,51,14303,333
Raw,66,14307,333
Raw,95,14316,333
Raw,55,14317,333
Raw,49,14318,333
Raw,80,14322,333
Raw,49,14322,333
Raw,67,14329,333
Raw,13,14334,333
Raw,43,14335,333
Raw,61,14337,333
Raw,39,14343,333
Raw,55,14345,333
Raw,159,14345,333
Raw,55,14352,333
Raw,49,14364,333
Raw,41,14369,333
Raw,58,14391,333
Raw,40,14394,333
Raw,44,14394,333
Raw,51,14398,333
Raw,139,14411,333
Raw,101,14412,333
Raw,64,14419,333
Raw,50,14430,333
Raw,58,14431,333
Raw,43,14431,333
Raw,51,14435,333
Raw,30,14435,333
Raw,58,14440,333
Raw,101,14448,333
Raw,37,14457,333
Raw,57,14462,333
Raw,64,14470,333
Raw,22,14470,333
Raw,46,14472,333
Raw,62,14475,333
Raw,55,14475,333
Raw,62,14477,333
Raw,60,14478,333
Raw,52,14481,333
Raw,66,14482,333
Raw,56,14486,333
Raw,56,14491,333
Raw,40,14493,333
Raw,42,14504,333
Raw,48,14511,333
Raw,60,14513,333
Raw,45,14516,333
Raw,106,14517,333
Raw,36,14519,333
Raw,145,14519,333
Raw,21,14522,333
Raw,31,14533,333
Raw,30,14533,333
Raw,47,14540,333
Raw,60,14541,333
Raw,156,14541,333
Raw,63,14556,333
Raw,108,14557,333
Raw,110,14573,333
Raw,95,14574,333
Raw,71,14579,333
Raw,114,14589,333
Raw,9,14589,333
Raw,92,14594,333
Raw,111,14598,333
Raw,60,14602,333
Raw,93,14607,333
Raw,49,14609,333
Raw,49,14610,333
Raw,36,14610,333
Raw,42,14615,333
Raw,60,14615,333
Raw,112,14616,333
Raw,97,14629,333
Raw,95,14638,333
Raw,49,14642,333
Raw,54,14644,333
Raw,80,14646,333
Raw,57,14659,333
Raw,53,14662,333
Raw,38,14668,333
Raw,29,14674,333
Raw,34,14674,333
Raw,50,14686,333
Raw,56,14695,333
Raw,31,14697,333
Raw,29,14697,333
Raw,42,14699,333
Raw,161,14700,333
Raw,51,14706,333
Raw,69,14707,333
Raw,47,14723,333
Raw,124,14724,333
Raw,110,14725,333
Raw,9,14727,333
Raw,116,14731,333
Raw,24,14734,333
Raw,126,14743,333
Raw,61,14758,333
Raw,61,14763,333
Raw,68,14768,333
Raw,88,14769,333
Raw,50,14770,333
Raw,53,14775,333
Raw,53,14778,333
Raw,105,14779,333
Raw,111,14781,333
Raw,48,14782,333
Raw,87,14787,333
Raw,59,14800,333
Raw,39,14808,333
Raw,38,14808,333
Raw,52,14814,333
Raw,52,14818,333
Raw,29,14824,333
Raw,52,14828,333
Raw,51,14829,333
Raw,37,14829,333
Raw,38,14837,333
Raw,63,14844,333
Raw,115,14845,333
Raw,48,14848,333
Raw,98,14859,333
Raw,73,14859,333
Raw,55,14860,333
Raw,152,14861,333
Raw,121,14864,333
Raw,59,14869,333
Raw,39,14872,333
Raw,55,14898,333
Raw,62,14905,333
Raw,111,14913,333
Raw,28,14916,333
Raw,61,14921,333
Raw,123,14927,333
Raw,114,14928,333
Raw,60,14938,333
Raw,29,14938,333
Raw,47,14942,333
Raw,40,14945,333
Raw,77,14948,333
Raw,55,14949,333
Raw,55,14959,333
Raw,55,14960,333
Raw,53,14964,333
Raw,52,14971,333
Raw,123,14982,333
Raw,22,14992,333
Raw,56,14995,333
Raw,43,14998,333
Raw,55,15002,333
Raw,56,15003,333
Raw,54,15003,333
Raw,119,15006,333
Raw,33,15006,333
Raw,34,15008,333
Raw,63,15010,333
Raw,55,15015,333
Raw,20,15016,333
Raw,115,15016,333
Raw,51,15017,333
Raw,71,15022,333
Raw,43,15032,333
Raw,56,15032,333
Raw,62,15048,333
Raw,42,15056,333
Raw,52,15056,333
Raw,72,15058,333
Raw,24,15064,333
Raw,124,15065,333
Raw,54,15069,333
Raw,14,15070,333
Raw,101,15074,333
Raw,123,15082,333
Raw,48,15082,333
Raw,54,15085,333
Raw,32,15087,333
Raw,53,15112,333
Raw,56,15114,333
Raw,92,15115,333
Raw,40,15127,333
Raw,59,15129,333
Raw,60,15130,333
Raw,54,15134,333
Raw,40,15135,333
Raw,4,15135,333
Raw,61,15136,333
Raw,90,15138,333
Raw,69,15144,333
Raw,54,15150,333
Raw,51,15161,333
Raw,89,15163,333
Raw,84,15166,333
Raw,50,15175,333
Raw,68,15176,333
Raw,47,15176,333
Raw,60,15179,333
Raw,40,15181,333
Raw,52,15184,333
Raw,57,15215,333
Raw,55,15215,333
Raw,70,15217,333
Raw,71,15234,333
Raw,50,15239,333
Raw,95,15240,333
Raw,40,15240,333
Raw,51,15242,333
Raw,41,15245,333
Raw,63,15252,333
Raw,51,15260,333
Raw,54,15262,333
Raw,74,15262,333
Raw,62,15263,333
Raw,71,15263,333
Raw,38,15268,333
Raw,99,15271,333
Raw,49,15287,333
Raw,90,15293,333
Raw,53,15301,333
Raw,36,15314,333
Raw,117,15317,333
Raw,56,15321,333
Raw,45,15331,333
Raw,61,15334,333
Raw,57,15341,333
Raw,115,15346,333
Raw,137,15347,333
Raw,54,15350,333
Raw,103,15358,333
Raw,13,15358,333
Raw,57,15364,333
Raw,28,15364,333
Raw,111,15372,333
Raw,44,15387,333
Raw,53,15389,333
Raw,46,15390,333
Raw,47,15407,333
Raw,60,15408,333
Raw,47,15412,333
Raw,54,15415,333
Raw,109,15426,333
Raw,60,15437,333
Raw,57,15443,333
Raw,54,15443,333
Raw,51,15446,333
Raw,37,15446,333
Raw,51,15448,333
Raw,161,15454,333
Raw,100,15476,333
Raw,44,15486,333
Raw,63,15491,333
Raw,47,15494,333
Raw,51,15494,333
Raw,58,15495,333
Raw,113,15497,333
Raw,44,15498,333
Raw,17,15501,333
Raw,131,15511,333
Raw,48,15512,333
Raw,80,15514,333
Raw,88,15519,333
Raw,52,15522,333
Raw,166,15531,333
Raw,28,15552,333
Raw,48,15552,333
Raw,37,15555,333
Raw,92,15555,333
Raw,60,15559,333
Raw,53,15559,333
Raw,41,15560,333
Raw,109,15562,333
Raw,56,15571,333
Raw,112,15582,333
Raw,109,15587,333
Raw,88,15590,333
Raw,36,15606,333
Raw,53,15606,333
Raw,27,15607,333
Raw,43,15609,333
Raw,27,15609,333
Raw,91,15627,333
Raw,35,15630,333
Raw,46,15630,333
Raw,46,15630,333
Raw,61,15632,333
Raw,60,15634,333
Raw,152,15644,333
Raw,33,15645,333
Raw,19,15647,333
Raw,54,15651,333
Raw,97,15658,333
Raw,103,15675,333
Raw,134,15680,333
Raw,46,15694,333
Raw,47,15694,333
Raw,64,15702,333
Raw,36,15702,333
Raw,47,15709,333
Raw,50,15713,333
Raw,55,15713,333
Raw,162,15714,333
Raw,155,15715,333
Raw,94,15726,333
Raw,99,15729,333
Raw,56,15735,333
Raw,31,15735,333
Raw,72,15740,333
Raw,147,15743,333
Raw,54,15743,333
Raw,51,15753,333
Raw,50,15757,333
Raw,34,15762,333
Raw,48,15771,333
Raw,41,15771,333
Raw,44,15783,333
Raw,27,15785,333
Raw,94,15786,333
Raw,61,15789,333
Raw,102,15791,333
Raw,37,15796,333
Raw,58,15799,333
Raw,45,15803,333
Raw,13,15812,333
Raw,21,15819,333
Raw,53,15822,333
Raw,102,15825,333
Raw,111,15834,333
Raw,55,15835,333
Raw,52,15844,333
Raw,55,15845,333
Raw,57,15845,333
Raw,55,15867,333
Raw,53,15876,333
Raw,44,15877,333
Raw,56,15877,333
Raw,42,15882,333
Raw,56,15888,333
Raw,30,15894,333
Raw,66,15896,333
Raw,49,15902,333
Raw,115,15904,333
Raw,93,15904,333
Raw,61,15910,333
Raw,62,15926,333
Raw,51,15929,333
Raw,88,15947,333
Raw,55,15969,333
Raw,52,15973,333
Raw,105,15974,333
Raw,51,15976,333
Raw,51,15984,333
Raw,54,15986,333
Raw,47,15986,333
Raw,107,15987,333
Raw,108,15993,333
Raw,150,16002,333
Raw,43,16002,333
Raw,60,16003,333
Raw,50,16003,333
Raw,52,16009,333
Raw,34,16009,333
Raw,48,16018,333
Raw,64,16023,333
Raw,40,16023,333
Raw,56,16044,333
Raw,70,16056,333
Raw,120,16062,333
Raw,39,16072,333
Raw,54,16078,333
Raw,31,16086,333
Raw,68,16086,333
Raw,56,16093,333
Raw,86,16103,333
Raw,27,16105,333
Raw,52,16115,333
Raw,62,16116,333
Raw,50,16116,333
Raw,45,16120,333
Raw,114,16122,333
Raw,68,16133,333
Raw,50,16133,333
Raw,85,16133,333
Raw,130,16135,333
Raw,42,16136,333
Raw,114,16141,333
Raw,128,16142,333
Raw,42,16145,333
Raw,59,16145,333
Raw,48,16156,333
Raw,103,16159,333
Raw,46,16160,333
Raw,164,16164,333
Raw,55,16169,333
Raw,59,16181,333
Raw,168,16186,333
Raw,55,16194,333
Raw,99,16203,333
Raw,42,16204,333
Raw,46,16215,333
Raw,65,16223,333
Raw,63,16232,333
Raw,113,16233,333
Raw,119,16247,333
Raw,36,16250,333
Raw,56,16261,333
Raw,45,16277,333
Raw,68,16279,333
Raw,51,16279,333
Raw,44,16279,333
Raw,49,16282,333
Raw,58,16290,333
Raw,109,16310,333
Raw,45,16310,333
Raw,29,16313,333
Raw,142,16321,333
Raw,87,16322,333
Raw,23,16329,333
Raw,117,16330,333
Raw,151,16331,333
Raw,73,16341,333
Raw,105,16343,333
Raw,48,16344,333
Raw,56,16345,333
Raw,60,16348,333
Raw,50,16354,333
Raw,13,16364,333
Raw,52,16364,333
Raw,83,16374,333
Raw,101,16378,333
Raw,120,16382,333
Raw,71,16391,333
Raw,79,16391,333
Raw,54,16398,333
Raw,99,16410,333
Raw,56,16412,333
Raw,54,16413,333
Raw,92,16417,333
Raw,89,16424,333
Raw,144,16425,333
Raw,46,16428,333
Raw,116,16432,333
Raw,119,16433,333
Raw,39,16433,333
Raw,115,16434,333
Raw,47,16435,333
Raw,28,16449,333
Raw,50,16450,333
Raw,63,16459,333
Raw,5,16459,333
Raw,106,16462,333
Raw,68,16469,333
Raw,107,16478,333
Raw,42,16478,333
Raw,89,16481,333
Raw,101,16487,333
Raw,86,16489,333
Raw,50,16493,333
Raw,48,16502,333
Raw,139,16503,333
Raw,113,16514,333
Raw,53,16517,333
Raw,73,16522,333
Raw,115,16532,333
Raw,62,16564,333
Raw,36,16564,333
Raw,94,16568,333
Raw,38,16574,333
Raw,52,16576,333
Raw,31,16590,333
Raw,31,16593,333
Raw,63,16595,333
Raw,25,16599,333
Raw,62,16601,333
Raw,56,16612,333
Raw,96,16612,333
Raw,59,16622,333
Raw,52,16624,333
Raw,51,16630,333
Raw,98,16634,333
Raw,117,16643,333
Raw,93,16654,333
Raw,51,16662,333
Raw,55,16664,333
Raw,55,16668,333
Raw,109,16672,333
Raw,48,16685,333
Raw,86,16686,333
Raw,52,16689,333
Raw,61,16690,333
Raw,56,16695,333
Raw,69,16695,333
Raw,63,16696,333
Raw,54,16701,333
Raw,60,16702,333
Raw,56,16706,333
Raw,53,16714,333
Raw,90,16715,333
Raw,40,16728,333
Raw,16,16729,333
Raw,95,16731,333
Raw,52,16732,333
Raw,110,16734,333
Raw,61,16751,333
Raw,60,16757,333
Raw,116,16759,333
Raw,100,16762,333
Raw,43,16763,333
Raw,110,16775,333
Raw,25,16775,333
Raw,35,16779,333
Raw,42,16782,333
Raw,47,16787,333
Raw,48,16787,333
Raw,92,16791,333
Raw,51,16818,333
Raw,71,16820,333
Raw,56,16821,333
Raw,27,16821,333
Raw,61,16830,333
Raw,101,16838,333
Raw,160,16839,333
Raw,88,16840,333
Raw,67,16844,333
Raw,165,16853,333
Raw,40,16857,333
Raw,163,16877,333
Raw,62,16889,333
Raw,105,16890,333
Raw,148,16905,333
Raw,126,16907,333
Raw,47,16912,333
Raw,116,16913,333
Raw,111,16926,333
Raw,59,16929,333
Raw,72,16932,333
Raw,119,16940,333
Raw,92,16942,333
Raw,30,16942,333
Raw,122,16944,333
Raw,54,16945,333
Raw,52,16945,333
Raw,109,16948,333
Raw,50,16951,333
Raw,109,16953,333
Raw,19,16970,333
Raw,50,16984,333
Raw,57,16991,333
Raw,46,16996,333
Raw,122,17013,333
Raw,95,17033,333
Raw,142,17041,333
Raw,56,17046,333
Raw,48,17060,333
Raw,42,17061,333
Raw,39,17063,333
Raw,123,17073,333
Raw,84,17076,333
Raw,55,17081,333
Raw,97,17082,333
Raw,58,17087,333
Raw,24,17089,333
Raw,48,17089,333
Raw,15,17091,333
Raw,53,17099,333
Raw,44,17103,333
Raw,28,17104,333
Raw,52,17104,333
Raw,54,17120,333
Raw,31,17121,333
Raw,48,17129,333
Raw,85,17142,333
Raw,57,17143,333
Raw,164,17152,333
Raw,120,17160,333
Raw,141,17165,333
Raw,51,17165,333
Raw,57,17173,333
Raw,81,17179,333
Raw,52,17179,333
Raw,116,17183,333
Raw,56,17188,333
Raw,64,17193,333
Raw,43,17208,333
Raw,35,17209,333
Raw,100,17221,333
Raw,49,17221,333
Raw,58,17223,333
Raw,55,17225,333
Raw,64,17225,333
Raw,53,17232,333
Raw,55,17234,333
Raw,112,17234,333
Raw,45,17236,333
Raw,140,17237,333
Raw,54,17238,333
Raw,20,17241,333
Raw,42,17243,333
Raw,54,17248,333
Raw,59,17252,333
Raw,32,17253,333
Raw,96,17255,333
Raw,105,17257,333
Raw,58,17268,333
Raw,96,17276,333
Raw,44,17278,333
Raw,35,17282,333
Raw,42,17286,333
Raw,50,17287,333
Raw,49,17291,333
Raw,58,17300,333
Raw,50,17303,333
Raw,42,17303,333
Raw,50,17316,333
Raw,50,17316,333
Raw,53,17317,333
Raw,132,17318,333
Raw,66,17320,333
Raw,32,17327,333
Raw,96,17332,333
Raw,5,17336,333
Raw,60,17338,333
Raw,36,17339,333
Raw,47,17339,333
Raw,164,17348,333
Raw,84,17348,333
Raw,110,17355,333
Raw,107,17362,333
Raw,61,17366,333
Raw,163,17368,333
Raw,60,17368,333
Raw,68,17372,333
Raw,111,17373,333
Raw,63,17374,333
Raw,49,17375,333
Raw,51,17383,333
Raw,75,17386,333
Raw,43,17392,333
Raw,102,17404,333
Raw,50,17408,333
Raw,127,17413,333
Raw,51,17419,333
Raw,134,17430,333
Raw,87,17433,333
Raw,50,17438,333
Raw,24,17440,333
Raw,32,17443,333
Raw,43,17446,333
Raw,63,17450,333
Raw,103,17452,333
Raw,50,17459,333
Raw,57,17459,333
Raw,64,17462,333
Raw,50,17470,333
Raw,69,17470,333
Raw,57,17471,333
Raw,81,17471,333
Raw,58,17473,333
Raw,20,17473,333
Raw,28,17497,333
Raw,49,17499,333
Raw,111,17501,333
Raw,25,17519,333
Raw,149,17526,333
Raw,62,17529,333
Raw,49,17539,333
Raw,54,17546,333
Raw,39,17547,333
Raw,118,17552,333
Raw,46,17553,333
Raw,58,17556,333
Raw,51,17557,333
Raw,51,17577,333
Raw,128,17583,333
Raw,59,17588,333
Raw,55,17595,333
Raw,44,17598,333
Raw,66,17598,333
Raw,33,17598,333
Raw,156,17602,333
Raw,32,17605,333
Raw,60,17612,333
Raw,40,17614,333
Raw,104,17618,333
Raw,58,17618,333
Raw,44,17620,333
Raw,49,17623,333
Raw,52,17640,333
Raw,59,17648,333
Raw,104,17672,333
Raw,12,17673,333
Raw,18,17693,333
Raw,93,17693,333
Raw,62,17697,333
Raw,35,17703,333
Raw,111,17704,333
Raw,35,17704,333
Raw,63,17711,333
Raw,25,17711,333
Raw,48,17712,333
Raw,67,17715,333
Raw,29,17717,333
Raw,56,17717,333
Raw,60,17722,333
Raw,120,17728,333
Raw,49,17734,333
Raw,121,17736,333
Raw,52,17745,333
Raw,97,17750,333
Raw,45,17756,333
Raw,81,17757,333
Raw,84,17762,333
Raw,113,17764,333
Raw,48,17765,333
Raw,127,17779,333
Raw,81,17781,333
Raw,44,17782,333
Raw,47,17783,333
Raw,53,17788,333
Raw,47,17792,333
Raw,38,17794,333
Raw,88,17794,333
Raw,35,17801,333
Raw,53,17807,333
Raw,57,17815,333
Raw,55,17831,333
Raw,103,17832,333
Raw,49,17849,333
Raw,55,17849,333
Raw,109,17853,333
Raw,40,17859,333
Raw,52,17859,333
Raw,54,17874,333
Raw,37,17874,333
Raw,48,17875,333
Raw,52,17881,333
Raw,47,17885,333
Raw,65,17900,333
Raw,75,17900,333
Raw,116,17914,333
Raw,43,17914,333
Raw,42,17916,333
Raw,53,17917,333
Raw,127,17927,333
Raw,131,17931,333
Raw,34,17939,333
Raw,129,17940,333
Raw,61,17954,333
Raw,14,17957,333
Raw,65,17959,333
Raw,64,17973,333
