Cut?,Counts,eventNumber,runNumber
Raw,1.3077873e+05,138,333
Raw,2.9363531e+05,138,333
Raw,3.10683812e+05,157,333
Raw,56871.344,157,333
Raw,62157.596,161,333
Raw,2.67307438e+05,161,333
Raw,1.45177846e+05,166,333
Raw,96585.921,168,333
Raw,2.95467793e+05,171,333
Raw,1.519923e+05,174,333
Raw,1.94817637e+05,175,333
Raw,2.74522205e+05,177,333
Raw,2.18722756e+05,179,333
Raw,1.48749634e+05,182,333
Raw,2.45346915e+05,183,333
Raw,2.81838874e+05,190,333
Raw,2.17950373e+05,190,333
Raw,2.08920687e+05,200,333
Raw,2.08142344e+05,211,333
Raw,1.34160945e+05,213,333
Raw,44164.972,220,333
Raw,1.38475766e+05,229,333
Raw,1.18024262e+05,229,333
Raw,1.28896431e+05,233,333
Raw,1.25480289e+05,239,333
Raw,1.45552024e+05,240,333
Raw,3.30231052e+05,240,333
Raw,1.18665116e+05,243,333
Raw,2.77042954e+05,256,333
Raw,3.33129483e+05,259,333
Raw,76525.551,267,333
Raw,3.90556119e+05,269,333
Raw,1.64091674e+05,270,333
Raw,1.8127606e+05,277,333
Raw,2.77417847e+05,277,333
Raw,1.37794027e+05,290,333
Raw,1.4772962e+05,291,333
Raw,1.21344936e+05,298,333
Raw,1.02840212e+05,317,333
Raw,1.11403009e+05,321,333
Raw,1.09686416e+05,322,333
Raw,2.20105959e+05,322,333
Raw,2.75881923e+05,324,333
Raw,95395.68,336,333
Raw,1.04098136e+05,336,333
Raw,1.25767509e+05,344,333
Raw,1.16913279e+05,346,333
Raw,90919.898,352,333
Raw,97383.787,356,333
Raw,1.27641538e+05,362,333
Raw,1.38430099e+05,362,333
Raw,89710.92,369,333
Raw,1.65439772e+05,375,333
Raw,69529.935,376,333
Raw,1.50092872e+05,379,333
Raw,96101.28,394,333
Raw,1.2906704e+05,396,333
Raw,1.43709347e+05,400,333
Raw,2.69592131e+05,409,333
Raw,2.58356061e+05,414,333
Raw,2.41824101e+05,415,333
Raw,1.02152769e+05,418,333
Raw,64271.726,418,333
Raw,62787.319,422,333
Raw,1.4896126e+05,425,333
Raw,95207.656,434,333
Raw,96061.444,434,333
Raw,1.46694319e+05,439,333
Raw,61657.685,440,333
Raw,2.39590527e+05,442,333
Raw,84987.905,443,333
Raw,1.17577488e+05,446,333
Raw,2.50331537e+05,472,333
Raw,1.62299635e+05,484,333
Raw,2.50753016e+05,484,333
Raw,92912.298,485,333
Raw,1.15287947e+05,486,333
Raw,76238.462,487,333
Raw,85278.247,489,333
Raw,1.89440879e+05,490,333
Raw,2.30137348e+05,491,333
Raw,2.07010763e+05,499,333
Raw,1.22052509e+05,502,333
Raw,93951.479,513,333
Raw,1.3564719e+05,520,333
Raw,2.91090645e+05,520,333
Raw,1.53437444e+05,529,333
Raw,57913.631,529,333
Raw,2.10876903e+05,538,333
Raw,1.5779061e+05,539,333
Raw,90018.689,539,333
Raw,1.19480387e+05,543,333
Raw,1.30596787e+05,556,333
Raw,1.40876049e+05,558,333
Raw,96307.975,561,333
Raw,97460.503,561,333
Raw,3.07806652e+05,562,333
Raw,79260.757,568,333
Raw,1.53621186e+05,569,333
Raw,1.23608399e+05,578,333
Raw,1.06085153e+05,579,333
Raw,1.43652348e+05,585,333
Raw,1.23579879e+05,598,333
Raw,1.00505081e+05,601,333
Raw,83700.657,601,333
Raw,1.19744107e+05,603,333
Raw,1.11735281e+05,613,333
Raw,1.17466416e+05,621,333
Raw,3.49490032e+05,643,333
Raw,1.66443309e+05,655,333
Raw,1.05793674e+05,657,333
Raw,1.05705048e+05,657,333
Raw,1.32742771e+05,665,333
Raw,92051.988,665,333
Raw,1.47415672e+05,667,333
Raw,2.43000615e+05,670,333
Raw,1.11529494e+05,671,333
Raw,1.21432051e+05,671,333
Raw,1.50921626e+05,676,333
Raw,1.47241538e+05,676,333
Raw,1.76778316e+05,682,333
Raw,90804.147,687,333
Raw,1.11460434e+05,688,333
Raw,1.25648865e+05,689,333
Raw,1.21454524e+05,693,333
Raw,1.19771801e+05,704,333
Raw,1.0671648e+05,710,333
Raw,3.62959221e+05,711,333
Raw,3.72724406e+05,712,333
Raw,1.0541102e+05,713,333
Raw,2.47793523e+05,715,333
Raw,2.59379636e+05,716,333
Raw,1.35612209e+05,737,333
Raw,1.24333442e+05,737,333
Raw,73821.954,737,333
Raw,1.24601132e+05,739,333
Raw,3.62005914e+05,741,333
Raw,2.59909899e+05,755,333
Raw,2.30600093e+05,758,333
Raw,3.07811918e+05,778,333
Raw,1.11404036e+05,790,333
Raw,3.13161337e+05,795,333
Raw,1.46622091e+05,796,333
Raw,47207.124,801,333
Raw,74081.06,814,333
Raw,58523.956,827,333
Raw,1.54851656e+05,842,333
Raw,1.72897249e+05,843,333
Raw,1.16896248e+05,849,333
Raw,1.76823908e+05,850,333
Raw,1.30331817e+05,854,333
Raw,1.01346885e+05,863,333
Raw,1.4429891e+05,873,333
Raw,1.0755103e+05,878,333
Raw,1.34212586e+05,879,333
Raw,2.31961081e+05,881,333
Raw,1.56277884e+05,891,333
Raw,1.33121468e+05,897,333
Raw,1.5714962e+05,904,333
Raw,1.14705683e+05,904,333
Raw,71269.948,915,333
Raw,1.21423787e+05,921,333
Raw,2.96661895e+05,924,333
Raw,1.30274018e+05,926,333
Raw,1.1960878e+05,942,333
Raw,1.44626854e+05,949,333
Raw,1.72541806e+05,950,333
Raw,1.21376104e+05,963,333
Raw,3.78315018e+05,965,333
Raw,1.22352729e+05,973,333
Raw,1.02569257e+05,980,333
Raw,2.06341822e+05,985,333
Raw,2.18020415e+05,986,333
Raw,1.40344039e+05,987,333
Raw,1.53574209e+05,988,333
Raw,3.28706428e+05,994,333
Raw,3.38291396e+05,997,333
Raw,1.12260161e+05,1015,333
Raw,1.52877285e+05,1018,333
Raw,1.51945771e+05,1022,333
Raw,88026.072,1025,333
Raw,2.28312994e+05,1029,333
Raw,1.09577457e+05,1031,333
Raw,99514.429,1031,333
Raw,1.24926694e+05,1032,333
Raw,1.65331445e+05,1032,333
Raw,2.95606214e+05,1034,333
Raw,72595.956,1040,333
Raw,1.08015191e+05,1041,333
Raw,1.53643585e+05,1061,333
Raw,1.57013264e+05,1067,333
Raw,1.30115051e+05,1071,333
Raw,1.20961366e+05,1074,333
Raw,1.39882323e+05,1080,333
Raw,1.11751895e+05,1083,333
Raw,1.11568849e+05,1090,333
Raw,26251.459,1098,333
Raw,2.51294156e+05,1115,333
Raw,98364.012,1115,333
Raw,2.48089731e+05,1118,333
Raw,1.37604444e+05,1122,333
Raw,1.42757627e+05,1127,333
Raw,73570.948,1129,333
Raw,55008.309,1137,333
Raw,97710.234,1150,333
Raw,2.28995292e+05,1160,333
Raw,1.34362428e+05,1160,333
Raw,1.34607491e+05,1163,333
Raw,1.30631857e+05,1178,333
Raw,1.05182935e+05,1179,333
Raw,3.83650969e+05,1180,333
Raw,67349.731,1180,333
Raw,2.37059669e+05,1183,333
Raw,3.05613666e+05,1193,333
Raw,2.78163548e+05,1195,333
Raw,1.25079882e+05,1225,333
Raw,1.73198696e+05,1226,333
Raw,2.47968364e+05,1227,333
Raw,1.81654927e+05,1230,333
Raw,1.59964291e+05,1232,333
Raw,1.49206295e+05,1238,333
Raw,75373.523,1239,333
Raw,1.29536463e+05,1243,333
Raw,97366.097,1252,333
Raw,1.10276187e+05,1256,333
Raw,1.67090247e+05,1257,333
Raw,82445.722,1257,333
Raw,87470.278,1260,333
Raw,75573.157,1262,333
Raw,3.69732772e+05,1286,333
Raw,2.81524199e+05,1287,333
Raw,2.93386024e+05,1296,333
Raw,1.35808747e+05,1298,333
Raw,1.57456822e+05,1300,333
Raw,1.3126791e+05,1309,333
Raw,2.00263522e+05,1325,333
Raw,1.41101863e+05,1332,333
Raw,1.46775845e+05,1341,333
Raw,2.48206509e+05,1373,333
Raw,1.29221444e+05,1375,333
Raw,1.35945538e+05,1390,333
Raw,2.77842945e+05,1396,333
Raw,1.37055069e+05,1396,333
Raw,1.12372344e+05,1405,333
Raw,1.47158864e+05,1406,333
Raw,1.66685624e+05,1408,333
Raw,2.92326917e+05,1416,333
Raw,1.13364385e+05,1419,333
Raw,1.60020242e+05,1431,333
Raw,97059.091,1436,333
Raw,1.72823351e+05,1438,333
Raw,1.9044174e+05,1454,333
Raw,4.025178e+05,1464,333
Raw,3.26854459e+05,1474,333
Raw,1.40698892e+05,1489,333
Raw,1.17373465e+05,1492,333
Raw,1.34994835e+05,1493,333
Raw,87169.815,1494,333
Raw,1.66205654e+05,1497,333
Raw,1.05727486e+05,1500,333
Raw,1.59911733e+05,1502,333
Raw,3.83134536e+05,1515,333
Raw,1.6243103e+05,1524,333
Raw,2.97615097e+05,1524,333
Raw,1.04035721e+05,1529,333
Raw,1.95833715e+05,1536,333
Raw,2.70598536e+05,1540,333
Raw,1.18579002e+05,1556,333
Raw,1.34938769e+05,1557,333
Raw,1.23487396e+05,1559,333
Raw,1.36150841e+05,1566,333
Raw,2.83166465e+05,1571,333
Raw,27149.532,1571,333
Raw,1.70329027e+05,1576,333
Raw,2.78141443e+05,1579,333
Raw,1.18704358e+05,1582,333
Raw,2.17824791e+05,1590,333
Raw,2.86278407e+05,1605,333
Raw,1.44966301e+05,1607,333
Raw,96687.173,1607,333
Raw,2.47783449e+05,1609,333
Raw,1.17545723e+05,1612,333
Raw,2.58277505e+05,1623,333
Raw,1.4745893e+05,1626,333
Raw,3.18478661e+05,1628,333
Raw,1.33841357e+05,1629,333
Raw,1.00598188e+05,1650,333
Raw,1.16092921e+05,1650,333
Raw,1.62511359e+05,1651,333
Raw,2.42078251e+05,1667,333
Raw,86820.75,1667,333
Raw,1.35224063e+05,1673,333
Raw,2.75052348e+05,1675,333
Raw,1.91416928e+05,1683,333
Raw,1.47129761e+05,1683,333
Raw,1.32686763e+05,1689,333
Raw,1.60789126e+05,1691,333
Raw,1.73473535e+05,1691,333
Raw,1.41380252e+05,1695,333
Raw,1.08761089e+05,1704,333
Raw,1.49836594e+05,1704,333
Raw,1.64950441e+05,1705,333
Raw,1.43581876e+05,1706,333
Raw,2.65920445e+05,1707,333
Raw,1.75488706e+05,1708,333
Raw,1.736968e+05,1714,333
Raw,1.11462546e+05,1714,333
Raw,1.12060017e+05,1714,333
Raw,1.8281579e+05,1717,333
Raw,2.67368507e+05,1719,333
Raw,1.05844357e+05,1729,333
Raw,2.67606939e+05,1731,333
Raw,1.64336831e+05,1732,333
Raw,1.34083921e+05,1733,333
Raw,4.04769919e+05,1742,333
Raw,2.17626998e+05,1743,333
Raw,1.06453497e+05,1749,333
Raw,1.55507732e+05,1760,333
Raw,1.06030422e+05,1760,333
Raw,2.60362439e+05,1761,333
Raw,1.16572098e+05,1767,333
Raw,1.07999957e+05,1770,333
Raw,2.61304556e+05,1779,333
Raw,90150.342,1780,333
Raw,1.1358033e+05,1780,333
Raw,1.46012433e+05,1785,333
Raw,91639.094,1787,333
Raw,2.44358573e+05,1790,333
Raw,60812.67,1790,333
Raw,1.36386577e+05,1797,333
Raw,2.28566538e+05,1798,333
Raw,1.01145159e+05,1800,333
Raw,1.7158808e+05,1803,333
Raw,1.32821618e+05,1803,333
Raw,66800.074,1807,333
Raw,2.42082118e+05,1818,333
Raw,3.06830075e+05,1821,333
Raw,24436.55,1822,333
Raw,3.62157363e+05,1827,333
Raw,1.18611399e+05,1831,333
Raw,1.78453923e+05,1840,333
Raw,33124.804,1840,333
Raw,1.04406603e+05,1850,333
Raw,1.25362881e+05,1853,333
Raw,1.07953887e+05,1860,333
Raw,3.31992809e+05,1869,333
Raw,1.30015862e+05,1875,333
Raw,1.42729335e+05,1887,333
Raw,1.34136377e+05,1888,333
Raw,2.817895e+05,1890,333
Raw,1.07873883e+05,1891,333
Raw,89841.512,1891,333
Raw,1.43188234e+05,1897,333
Raw,2.86398491e+05,1897,333
Raw,1.65843288e+05,1903,333
Raw,1.25899842e+05,1903,333
Raw,2.58620044e+05,1908,333
Raw,1.36917626e+05,1909,333
Raw,1.27839723e+05,1910,333
Raw,1.38191034e+05,1917,333
Raw,1.26678391e+05,1922,333
Raw,1.67582092e+05,1926,333
Raw,1.30876364e+05,1930,333
Raw,1.3857198e+05,1938,333
Raw,2.66004711e+05,1941,333
Raw,1.86749652e+05,1942,333
Raw,1.82320324e+05,1956,333
Raw,1.17729116e+05,1959,333
Raw,1.1918163e+05,1961,333
Raw,1.38503854e+05,1987,333
Raw,2.63605636e+05,1990,333
Raw,41932.409,1998,333
Raw,1.65232522e+05,2015,333
Raw,59409.654,2015,333
Raw,1.23990467e+05,2018,333
Raw,97688.88,2022,333
Raw,37800.288,2022,333
Raw,2.91652756e+05,2034,333
Raw,94338.723,2039,333
Raw,2.74738642e+05,2041,333
Raw,2.42711965e+05,2049,333
Raw,1.1046305e+05,2055,333
Raw,2.06228359e+05,2062,333
Raw,2.44098614e+05,2065,333
Raw,1.21670776e+05,2068,333
Raw,41262.957,2069,333
Raw,1.36324944e+05,2069,333
Raw,1.11914909e+05,2082,333
Raw,67136.595,2099,333
Raw,1.83877365e+05,2100,333
Raw,69562.899,2100,333
Raw,87554.279,2103,333
Raw,1.18122559e+05,2119,333
Raw,77910.07,2119,333
Raw,3.06062554e+05,2124,333
Raw,1.65598077e+05,2128,333
Raw,81458.439,2129,333
Raw,1.38142949e+05,2136,333
Raw,1.19263848e+05,2143,333
Raw,2.89916025e+05,2146,333
Raw,2.57621851e+05,2149,333
Raw,1.26971956e+05,2165,333
Raw,1.28543296e+05,2166,333
Raw,2.06449816e+05,2187,333
Raw,1.09136246e+05,2192,333
Raw,1.6000509e+05,2238,333
Raw,1.12066518e+05,2239,333
Raw,94105.341,2239,333
Raw,3.53695279e+05,2245,333
Raw,1.47580608e+05,2252,333
Raw,2.41927086e+05,2254,333
Raw,1.46795066e+05,2256,333
Raw,1.02037831e+05,2263,333
Raw,1.19147503e+05,2268,333
Raw,42121.321,2270,333
Raw,1.56142286e+05,2271,333
Raw,1.25362096e+05,2280,333
Raw,76891.074,2284,333
Raw,1.1949705e+05,2284,333
Raw,1.35821505e+05,2288,333
Raw,3.41654885e+05,2313,333
Raw,1.32990341e+05,2320,333
Raw,1.09065534e+05,2324,333
Raw,1.42939491e+05,2326,333
Raw,1.66520002e+05,2334,333
Raw,1.2402957e+05,2338,333
Raw,1.18531017e+05,2349,333
Raw,2.29770177e+05,2365,333
Raw,88520.039,2366,333
Raw,2.6304062e+05,2369,333
Raw,32008.978,2370,333
Raw,1.05315384e+05,2377,333
Raw,1.22294895e+05,2382,333
Raw,79227.148,2382,333
Raw,1.61443583e+05,2390,333
Raw,1.19697586e+05,2394,333
Raw,2.86111812e+05,2397,333
Raw,1.28796564e+05,2403,333
Raw,1.04852067e+05,2408,333
Raw,1.22613739e+05,2415,333
Raw,2.13884187e+05,2419,333
Raw,1.30323685e+05,2422,333
Raw,81023.89,2430,333
Raw,1.08993318e+05,2432,333
Raw,1.08346915e+05,2436,333
Raw,2.97120384e+05,2444,333
Raw,1.78055037e+05,2445,333
Raw,1.04444345e+05,2448,333
Raw,1.59245952e+05,2452,333
Raw,1.29110781e+05,2456,333
Raw,2.4517266e+05,2463,333
Raw,1.00753032e+05,2463,333
Raw,3.98854989e+05,2468,333
Raw,1.12350149e+05,2478,333
Raw,1.06254814e+05,2479,333
Raw,1.58011727e+05,2484,333
Raw,1.7283249e+05,2504,333
Raw,1.54941645e+05,2509,333
Raw,1.45197824e+05,2515,333
Raw,1.78065791e+05,2516,333
Raw,2.97716288e+05,2517,333
Raw,1.19495706e+05,2524,333
Raw,94180.693,2527,333
Raw,1.88415743e+05,2533,333
Raw,2.12488697e+05,2533,333
Raw,82658.351,2541,333
Raw,1.35888694e+05,2542,333
Raw,1.0481608e+05,2545,333
Raw,2.63079659e+05,2556,333
Raw,2.00782961e+05,2558,333
Raw,1.25831641e+05,2558,333
Raw,1.66888491e+05,2562,333
Raw,1.18710804e+05,2564,333
Raw,97218.987,2564,333
Raw,1.56101192e+05,2568,333
Raw,30537.594,2568,333
Raw,3.97701323e+05,2579,333
Raw,1.53981462e+05,2581,333
Raw,1.07642631e+05,2581,333
Raw,2.37356559e+05,2585,333
Raw,53892.849,2585,333
Raw,1.45023589e+05,2589,333
Raw,2.43279803e+05,2591,333
Raw,1.45515536e+05,2613,333
Raw,2.87611828e+05,2614,333
Raw,3.99925253e+05,2626,333
Raw,1.3367206e+05,2642,333
Raw,3.55939007e+05,2650,333
Raw,2.90331818e+05,2651,333
Raw,1.12827827e+05,2651,333
Raw,97915.443,2653,333
Raw,74268.675,2668,333
Raw,87606.514,2671,333
Raw,2.89869396e+05,2680,333
Raw,3.56013882e+05,2680,333
Raw,2.29806709e+05,2681,333
Raw,1.09724045e+05,2687,333
Raw,1.54713321e+05,2689,333
Raw,1.47985142e+05,2689,333
Raw,1.3906872e+05,2695,333
Raw,1.50388423e+05,2697,333
Raw,1.55675215e+05,2706,333
Raw,1.20266269e+05,2721,333
Raw,1.14846385e+05,2726,333
Raw,2.86601131e+05,2749,333
Raw,38432.273,2749,333
Raw,1.04777175e+05,2751,333
Raw,1.39711005e+05,2766,333
Raw,1.45805181e+05,2768,333
Raw,72173.535,2768,333
Raw,1.64245228e+05,2773,333
Raw,45163.01,2775,333
Raw,80505.983,2793,333
Raw,1.11474931e+05,2810,333
Raw,50763.253,2810,333
Raw,1.83056729e+05,2810,333
Raw,1.00651978e+05,2812,333
Raw,1.40500773e+05,2812,333
Raw,1.76363239e+05,2815,333
Raw,1.1799782e+05,2819,333
Raw,1.3529296e+05,2824,333
Raw,1.59193899e+05,2829,333
Raw,1.66992204e+05,2830,333
Raw,15190.168,2847,333
Raw,1.30751649e+05,2860,333
Raw,93985.094,2860,333
Raw,2.02340384e+05,2861,333
Raw,1.8016085e+05,2866,333
Raw,1.10344894e+05,2870,333
Raw,2.41838996e+05,2871,333
Raw,78286.683,2872,333
Raw,3.09977658e+05,2875,333
Raw,1.14506001e+05,2877,333
Raw,2.56499726e+05,2877,333
Raw,3.8058675e+05,2885,333
Raw,38468.334,2899,333
Raw,96841.89,2900,333
Raw,60132.561,2900,333
Raw,3.51367878e+05,2906,333
Raw,2.66183411e+05,2910,333
Raw,1.91523361e+05,2920,333
Raw,1.24356305e+05,2924,333
Raw,1.92320119e+05,2925,333
Raw,1.77894452e+05,2932,333
Raw,1.521037e+05,2935,333
Raw,1.49494962e+05,2946,333
Raw,2.1700262e+05,2949,333
Raw,96717.98,2958,333
Raw,1.77986311e+05,2958,333
Raw,39061.443,2959,333
Raw,2.22591463e+05,2961,333
Raw,95898.696,2964,333
Raw,3.4017444e+05,2965,333
Raw,3.95499616e+05,2968,333
Raw,1.16195383e+05,2969,333
Raw,2.67993517e+05,2975,333
Raw,1.38766945e+05,2976,333
Raw,3.19650471e+05,2978,333
Raw,1.56569318e+05,2987,333
Raw,2.63451229e+05,2989,333
Raw,3.83009264e+05,2990,333
Raw,2.74087719e+05,2994,333
Raw,1.64622008e+05,2996,333
Raw,1.4197378e+05,3012,333
Raw,98044.898,3013,333
Raw,1.28351566e+05,3013,333
Raw,72997.634,3013,333
Raw,2.8052097e+05,3015,333
Raw,1.58258544e+05,3024,333
Raw,1.68178206e+05,3028,333
Raw,1.84040972e+05,3029,333
Raw,61110.432,3029,333
Raw,99969.113,3036,333
Raw,1.31626211e+05,3036,333
Raw,1.54662807e+05,3048,333
Raw,2.75257201e+05,3049,333
Raw,87058.478,3052,333
Raw,1.08145296e+05,3054,333
Raw,3.97446704e+05,3058,333
Raw,3.05276984e+05,3074,333
Raw,1.63124999e+05,3075,333
Raw,3.53067502e+05,3094,333
Raw,1.4073173e+05,3096,333
Raw,1.14139454e+05,3097,333
Raw,1.04402142e+05,3099,333
Raw,81791.546,3105,333
Raw,1.51969349e+05,3111,333
Raw,1.22669122e+05,3115,333
Raw,1.4008614e+05,3129,333
Raw,1.2284359e+05,3132,333
Raw,1.26589387e+05,3137,333
Raw,1.31089537e+05,3157,333
Raw,1.07672818e+05,3159,333
Raw,77323.156,3162,333
Raw,1.12901971e+05,3162,333
Raw,1.14145211e+05,3164,333
Raw,90383.93,3164,333
Raw,1.6505621e+05,3182,333
Raw,3.89862289e+05,3186,333
Raw,59118.705,3188,333
Raw,58077.334,3190,333
Raw,77589.381,3195,333
Raw,1.24647972e+05,3195,333
Raw,1.21248842e+05,3198,333
Raw,1.29030507e+05,3199,333
Raw,53614.222,3199,333
Raw,1.44938654e+05,3200,333
Raw,1.20212167e+05,3203,333
Raw,1.40304798e+05,3219,333
Raw,2.64171554e+05,3223,333
Raw,1.68486328e+05,3225,333
Raw,1.34682509e+05,3225,333
Raw,1.76944223e+05,3227,333
Raw,65362.322,3227,333
Raw,1.0191887e+05,3236,333
Raw,85928.874,3240,333
Raw,3.70874177e+05,3242,333
Raw,1.43228012e+05,3248,333
Raw,1.12576114e+05,3250,333
Raw,1.32677546e+05,3260,333
Raw,1.01916217e+05,3268,333
Raw,1.36149774e+05,3270,333
Raw,1.21075029e+05,3270,333
Raw,1.41598769e+05,3275,333
Raw,83830.512,3276,333
Raw,1.01154048e+05,3280,333
Raw,1.77957635e+05,3286,333
Raw,1.15039391e+05,3290,333
Raw,1.42382666e+05,3310,333
Raw,1.71328261e+05,3311,333
Raw,1.41973162e+05,3329,333
Raw,1.43072061e+05,3329,333
Raw,1.38300966e+05,3331,333
Raw,1.39038276e+05,3352,333
Raw,1.50739025e+05,3355,333
Raw,82960.687,3355,333
Raw,3.80533382e+05,3358,333
Raw,2.98533432e+05,3369,333
Raw,1.00059071e+05,3370,333
Raw,1.21584476e+05,3379,333
Raw,1.30662388e+05,3392,333
Raw,96381.414,3394,333
Raw,1.2699625e+05,3396,333
Raw,82098.074,3400,333
Raw,1.36015773e+05,3400,333
Raw,1.22122203e+05,3402,333
Raw,55002.615,3404,333
Raw,1.5122288e+05,3406,333
Raw,1.54672121e+05,3406,333
Raw,91105.458,3408,333
Raw,1.29175524e+05,3411,333
Raw,1.35161497e+05,3418,333
Raw,65931.835,3418,333
Raw,1.7402998e+05,3427,333
Raw,1.31551113e+05,3428,333
Raw,1.40519564e+05,3432,333
Raw,1.44664105e+05,3436,333
Raw,86308.085,3436,333
Raw,1.51287959e+05,3441,333
Raw,1.04284905e+05,3449,333
Raw,56951.29,3454,333
Raw,1.55296478e+05,3458,333
Raw,2.67781235e+05,3463,333
Raw,1.56447088e+05,3464,333
Raw,2.06301845e+05,3471,333
Raw,1.4808497e+05,3475,333
Raw,1.71729512e+05,3476,333
Raw,92059.899,3476,333
Raw,45789.281,3482,333
Raw,1.37176499e+05,3483,333
Raw,33858.337,3488,333
Raw,1.53084454e+05,3499,333
Raw,65759.057,3502,333
Raw,1.37910079e+05,3507,333
Raw,81084.537,3507,333
Raw,89912.818,3508,333
Raw,1.23473316e+05,3508,333
Raw,2.20399464e+05,3510,333
Raw,1.47954167e+05,3515,333
Raw,2.04562542e+05,3519,333
Raw,1.34481861e+05,3523,333
Raw,1.34278843e+05,3524,333
Raw,92514.875,3530,333
Raw,3.04384045e+05,3535,333
Raw,27187.029,3537,333
Raw,1.02863943e+05,3545,333
Raw,1.21658657e+05,3547,333
Raw,1.02624077e+05,3552,333
Raw,2.5432908e+05,3556,333
Raw,88652.558,3557,333
Raw,91020.292,3558,333
Raw,2.11348615e+05,3558,333
Raw,2.60173984e+05,3561,333
Raw,2.3857147e+05,3579,333
Raw,2.67763972e+05,3581,333
Raw,2.84868074e+05,3592,333
Raw,91089.426,3594,333
Raw,1.7800695e+05,3595,333
Raw,3.46633483e+05,3613,333
Raw,3.12403947e+05,3628,333
Raw,1.9039344e+05,3634,333
Raw,1.5511376e+05,3656,333
Raw,62125.628,3661,333
Raw,88456.789,3668,333
Raw,74685.078,3674,333
Raw,1.5093303e+05,3677,333
Raw,1.08701345e+05,3685,333
Raw,1.39162934e+05,3688,333
Raw,3.84419778e+05,3689,333
Raw,1.26861835e+05,3697,333
Raw,1.19043978e+05,3702,333
Raw,26991.282,3702,333
Raw,1.56575628e+05,3703,333
Raw,1.93502305e+05,3704,333
Raw,1.21919244e+05,3705,333
Raw,2.08847343e+05,3712,333
Raw,1.63216965e+05,3713,333
Raw,1.18512389e+05,3715,333
Raw,3.20238638e+05,3719,333
Raw,1.20055851e+05,3719,333
Raw,56896.014,3721,333
Raw,1.72672573e+05,3724,333
Raw,1.34577574e+05,3725,333
Raw,1.57277281e+05,3734,333
Raw,1.33231804e+05,3737,333
Raw,1.14033397e+05,3738,333
Raw,1.98021763e+05,3738,333
Raw,1.48583345e+05,3739,333
Raw,1.26494665e+05,3740,333
Raw,2.39860534e+05,3741,333
Raw,1.18670254e+05,3746,333
Raw,1.23897324e+05,3748,333
Raw,1.72857708e+05,3755,333
Raw,2.69107391e+05,3758,333
Raw,1.45401972e+05,3759,333
Raw,1.15348953e+05,3762,333
Raw,1.40224402e+05,3772,333
Raw,79442.848,3780,333
Raw,1.26613624e+05,3781,333
Raw,1.38397535e+05,3785,333
Raw,1.02648517e+05,3796,333
Raw,94543.086,3796,333
Raw,1.838581e+05,3807,333
Raw,1.56949789e+05,3810,333
Raw,1.21375219e+05,3810,333
Raw,1.39142579e+05,3815,333
Raw,94445.134,3815,333
Raw,1.53138959e+05,3817,333
Raw,1.16066401e+05,3821,333
Raw,1.47827258e+05,3830,333
Raw,1.42891339e+05,3834,333
Raw,2.42139182e+05,3834,333
Raw,1.1570668e+05,3836,333
Raw,2.63395568e+05,3840,333
Raw,1.52149807e+05,3850,333
Raw,1.00948241e+05,3854,333
Raw,3.65851936e+05,3862,333
Raw,95733.586,3867,333
Raw,41107.126,3877,333
Raw,1.33719896e+05,3889,333
Raw,1.93169661e+05,3897,333
Raw,1.87514233e+05,3901,333
Raw,1.11333431e+05,3902,333
Raw,1.74966188e+05,3906,333
Raw,1.14188662e+05,3906,333
Raw,1.5438951e+05,3914,333
Raw,2.40121601e+05,3942,333
Raw,1.95032701e+05,3948,333
Raw,1.3861632e+05,3952,333
Raw,1.58540845e+05,3955,333
Raw,2.53090977e+05,3956,333
Raw,1.33208101e+05,3972,333
Raw,1.60979657e+05,3973,333
Raw,2.33944467e+05,3977,333
Raw,58734.627,3980,333
Raw,3.43547713e+05,3981,333
Raw,90294.067,3982,333
Raw,1.20993838e+05,3982,333
Raw,2.72450852e+05,3987,333
Raw,3.55943095e+05,3990,333
Raw,1.14573931e+05,3994,333
Raw,1.82267745e+05,3994,333
Raw,98495.734,3996,333
Raw,82245.18,3998,333
Raw,3.8396761e+05,4003,333
Raw,2.78796081e+05,4009,333
Raw,2.7271075e+05,4012,333
Raw,2.49021065e+05,4013,333
Raw,1.1659178e+05,4018,333
Raw,1.31219722e+05,4026,333
Raw,2.7150489e+05,4027,333
Raw,1.53678771e+05,4029,333
Raw,1.41437371e+05,4046,333
Raw,1.62212948e+05,4046,333
Raw,2.47896112e+05,4047,333
Raw,47191.473,4054,333
Raw,2.90971387e+05,4060,333
Raw,3.99957089e+05,4061,333
Raw,67334.81,4065,333
Raw,61279.212,4066,333
Raw,1.410835e+05,4083,333
Raw,1.25087053e+05,4087,333
Raw,51185.708,4099,333
Raw,95089.614,4099,333
Raw,1.25066658e+05,4103,333
Raw,2.65553565e+05,4107,333
Raw,1.87004635e+05,4113,333
Raw,1.91578673e+05,4116,333
Raw,2.89427517e+05,4119,333
Raw,2.23146214e+05,4122,333
Raw,1.3729854e+05,4134,333
Raw,2.12063405e+05,4135,333
Raw,1.69705496e+05,4140,333
Raw,1.39255376e+05,4146,333
Raw,1.32071614e+05,4147,333
Raw,2.40031241e+05,4147,333
Raw,83335.92,4152,333
Raw,1.47243568e+05,4152,333
Raw,1.67769477e+05,4162,333
Raw,1.4647786e+05,4163,333
Raw,1.51925358e+05,4167,333
Raw,40957.439,4175,333
Raw,1.03128218e+05,4175,333
Raw,2.43040912e+05,4182,333
Raw,1.48129653e+05,4185,333
Raw,36962.667,4192,333
Raw,1.07638778e+05,4214,333
Raw,2.81005939e+05,4216,333
Raw,1.06965378e+05,4217,333
Raw,30963.657,4227,333
Raw,2.28339894e+05,4247,333
Raw,1.70797944e+05,4258,333
Raw,1.41726258e+05,4258,333
Raw,1.22511926e+05,4260,333
Raw,80070.039,4260,333
Raw,89190.421,4267,333
Raw,1.52064414e+05,4274,333
Raw,1.57776002e+05,4279,333
Raw,93633.985,4279,333
Raw,1.35259522e+05,4292,333
Raw,52374.906,4297,333
Raw,73966.504,4306,333
Raw,1.57998467e+05,4313,333
Raw,94054.183,4317,333
Raw,76147.574,4319,333
Raw,1.46989368e+05,4343,333
Raw,1.15074183e+05,4352,333
Raw,1.41661265e+05,4353,333
Raw,1.27538604e+05,4353,333
Raw,2.2952364e+05,4356,333
Raw,2.4201117e+05,4361,333
Raw,1.61260642e+05,4376,333
Raw,1.63068365e+05,4377,333
Raw,1.3251618e+05,4407,333
Raw,1.44337755e+05,4425,333
Raw,1.01419122e+05,4432,333
Raw,1.43870472e+05,4438,333
Raw,1.71712921e+05,4451,333
Raw,1.87649296e+05,4459,333
Raw,1.1315354e+05,4459,333
Raw,1.30888892e+05,4460,333
Raw,2.67384553e+05,4480,333
Raw,2.52641493e+05,4488,333
Raw,1.55848884e+05,4494,333
Raw,1.59433894e+05,4496,333
Raw,51628.053,4496,333
Raw,1.22851867e+05,4500,333
Raw,1.14716733e+05,4500,333
Raw,1.25921034e+05,4510,333
Raw,1.51975588e+05,4512,333
Raw,91302.51,4516,333
Raw,2.33395952e+05,4528,333
Raw,1.29434038e+05,4530,333
Raw,1.40631009e+05,4540,333
Raw,1.66718138e+05,4540,333
Raw,3.0478765e+05,4545,333
Raw,2.5840941e+05,4562,333
Raw,3.69311344e+05,4569,333
Raw,1.03683259e+05,4583,333
Raw,2.49714505e+05,4583,333
Raw,39732.184,4589,333
Raw,2.48205615e+05,4590,333
Raw,2.62141567e+05,4596,333
Raw,2.93329695e+05,4598,333
Raw,65813.373,4598,333
Raw,1.39783202e+05,4599,333
Raw,1.35534321e+05,4599,333
Raw,2.55070379e+05,4606,333
Raw,1.17729876e+05,4611,333
Raw,1.14737018e+05,4613,333
Raw,1.12197165e+05,4618,333
Raw,3.56137578e+05,4623,333
Raw,81569.714,4626,333
Raw,1.0118914e+05,4637,333
Raw,1.41685187e+05,4659,333
Raw,3.97514681e+05,4678,333
Raw,1.18051138e+05,4679,333
Raw,1.6276046e+05,4687,333
Raw,1.63654457e+05,4688,333
Raw,84109.543,4688,333
Raw,1.29764531e+05,4696,333
Raw,2.56350045e+05,4698,333
Raw,3.33720057e+05,4717,333
Raw,1.27058588e+05,4718,333
Raw,2.45289598e+05,4727,333
Raw,1.17602445e+05,4730,333
Raw,2.66109448e+05,4731,333
Raw,80930.193,4732,333
Raw,1.06411131e+05,4741,333
Raw,2.05917522e+05,4741,333
Raw,2.54987075e+05,4750,333
Raw,84590.174,4759,333
Raw,3.83717725e+05,4763,333
Raw,1.19899036e+05,4765,333
Raw,3.73098123e+05,4768,333
Raw,1.41059303e+05,4779,333
Raw,3.21920445e+05,4790,333
Raw,1.11824141e+05,4804,333
Raw,2.31306603e+05,4804,333
Raw,80963.799,4806,333
Raw,3.03444396e+05,4808,333
Raw,1.18930101e+05,4810,333
Raw,1.15957385e+05,4816,333
Raw,1.68395629e+05,4817,333
Raw,1.57854981e+05,4817,333
Raw,14345.489,4819,333
Raw,1.86001751e+05,4831,333
Raw,1.22072276e+05,4831,333
Raw,86312.279,4840,333
Raw,63550.713,4842,333
Raw,1.63435805e+05,4844,333
Raw,1.07145777e+05,4844,333
Raw,1.86003076e+05,4852,333
Raw,26916.702,4853,333
Raw,1.28645977e+05,4854,333
Raw,1.9692002e+05,4855,333
Raw,2.51319582e+05,4856,333
Raw,2.86603224e+05,4862,333
Raw,1.24754276e+05,4862,333
Raw,2.77998643e+05,4869,333
Raw,3.03269156e+05,4869,333
Raw,1.0439961e+05,4872,333
Raw,1.42828308e+05,4875,333
Raw,1.61093193e+05,4875,333
Raw,93919.091,4883,333
Raw,1.39278747e+05,4901,333
Raw,1.19291636e+05,4915,333
Raw,1.62390271e+05,4918,333
Raw,1.04931896e+05,4918,333
Raw,1.21717672e+05,4924,333
Raw,2.74773202e+05,4926,333
Raw,1.42316566e+05,4936,333
Raw,1.6350134e+05,4938,333
Raw,96268.36,4944,333
Raw,3.21149977e+05,4945,333
Raw,1.53427773e+05,4952,333
Raw,2.57921976e+05,4958,333
Raw,1.25098627e+05,4964,333
Raw,1.81221035e+05,4965,333
Raw,2.51576077e+05,4967,333
Raw,83967.077,4967,333
Raw,77913.572,4970,333
Raw,1.45167971e+05,4972,333
Raw,1.13505731e+05,4984,333
Raw,93591.851,4991,333
Raw,80217.219,4995,333
Raw,3.85596137e+05,4999,333
Raw,1.56726017e+05,5004,333
Raw,2.74861151e+05,5012,333
Raw,99205.274,5015,333
Raw,1.53805919e+05,5028,333
Raw,2.6028097e+05,5029,333
Raw,2.78583943e+05,5036,333
Raw,1.52412006e+05,5041,333
Raw,2.43974287e+05,5043,333
Raw,3.13441524e+05,5048,333
Raw,33775.435,5060,333
Raw,1.28603971e+05,5070,333
Raw,3.65262094e+05,5076,333
Raw,1.08327115e+05,5077,333
Raw,2.14227903e+05,5081,333
Raw,1.49054012e+05,5085,333
Raw,82550.177,5097,333
Raw,1.31526424e+05,5099,333
Raw,1.07760278e+05,5108,333
Raw,1.1951906e+05,5111,333
Raw,1.50278616e+05,5117,333
Raw,1.80799777e+05,5123,333
Raw,91972.288,5137,333
Raw,1.50901518e+05,5137,333
Raw,1.15687534e+05,5140,333
Raw,1.64031291e+05,5145,333
Raw,1.15529833e+05,5148,333
Raw,2.26504745e+05,5148,333
Raw,1.46408928e+05,5154,333
Raw,2.78940313e+05,5158,333
Raw,1.33858353e+05,5161,333
Raw,78663.363,5169,333
Raw,1.48695914e+05,5169,333
Raw,1.5467731e+05,5174,333
Raw,1.33068065e+05,5176,333
Raw,1.44568067e+05,5177,333
Raw,3.04901686e+05,5178,333
Raw,2.76994367e+05,5179,333
Raw,1.8681421e+05,5180,333
Raw,1.029823e+05,5182,333
Raw,2.01178972e+05,5183,333
Raw,1.16735337e+05,5187,333
Raw,1.50368461e+05,5188,333
Raw,2.25937714e+05,5195,333
Raw,1.92532822e+05,5196,333
Raw,2.78738555e+05,5197,333
Raw,1.13377292e+05,5197,333
Raw,1.46816624e+05,5199,333
Raw,2.25136992e+05,5203,333
Raw,1.38820546e+05,5204,333
Raw,2.18312071e+05,5204,333
Raw,1.27614295e+05,5207,333
Raw,79319.459,5207,333
Raw,2.37587035e+05,5209,333
Raw,1.03605742e+05,5213,333
Raw,1.28669919e+05,5213,333
Raw,1.40572466e+05,5216,333
Raw,1.45296082e+05,5220,333
Raw,2.62831805e+05,5224,333
Raw,2.46058318e+05,5233,333
Raw,1.06162452e+05,5239,333
Raw,1.13293168e+05,5240,333
Raw,1.26777933e+05,5242,333
Raw,76371.585,5251,333
Raw,1.57218773e+05,5251,333
Raw,1.40034242e+05,5252,333
Raw,1.93031419e+05,5252,333
Raw,1.30669809e+05,5254,333
Raw,2.80513535e+05,5254,333
Raw,1.90987694e+05,5269,333
Raw,1.81957185e+05,5270,333
Raw,1.41537834e+05,5275,333
Raw,1.29441684e+05,5276,333
Raw,2.57467678e+05,5277,333
Raw,1.59395253e+05,5280,333
Raw,64059.076,5288,333
Raw,1.39471979e+05,5293,333
Raw,1.46228628e+05,5300,333
Raw,1.38282932e+05,5301,333
Raw,1.43914694e+05,5303,333
Raw,2.72141509e+05,5307,333
Raw,1.1746784e+05,5324,333
Raw,1.59501571e+05,5337,333
Raw,1.14289124e+05,5350,333
Raw,1.53062061e+05,5362,333
Raw,99680.793,5363,333
Raw,97431.843,5369,333
Raw,1.29384849e+05,5373,333
Raw,1.21462895e+05,5383,333
Raw,1.33889974e+05,5390,333
Raw,2.11934184e+05,5396,333
Raw,1.24447477e+05,5397,333
Raw,2.11986945e+05,5407,333
Raw,90454.997,5421,333
Raw,1.65806341e+05,5424,333
Raw,61459.173,5424,333
Raw,2.61491903e+05,5429,333
Raw,1.20006927e+05,5439,333
Raw,1.54426766e+05,5443,333
Raw,1.0378111e+05,5458,333
Raw,1.38608952e+05,5461,333
Raw,1.85005884e+05,5465,333
Raw,2.61621406e+05,5483,333
Raw,1.51396174e+05,5487,333
Raw,2.17037033e+05,5489,333
Raw,1.10621515e+05,5498,333
Raw,1.92858668e+05,5499,333
Raw,2.86658024e+05,5500,333
Raw,1.55581313e+05,5502,333
Raw,1.15581939e+05,5506,333
Raw,1.35916625e+05,5507,333
Raw,98834.599,5515,333
Raw,54925.451,5522,333
Raw,3.45595358e+05,5526,333
Raw,1.87140655e+05,5532,333
Raw,3.45933044e+05,5538,333
Raw,1.61081321e+05,5542,333
Raw,92449.662,5542,333
Raw,1.65087626e+05,5543,333
Raw,1.36196888e+05,5565,333
Raw,2.55260813e+05,5574,333
Raw,37491.841,5577,333
Raw,2.74085638e+05,5579,333
Raw,88917.94,5581,333
Raw,1.13424206e+05,5583,333
Raw,2.71521595e+05,5583,333
Raw,1.12060531e+05,5587,333
Raw,1.26892023e+05,5588,333
Raw,1.56767091e+05,5601,333
Raw,2.72580522e+05,5614,333
Raw,1.30011128e+05,5617,333
Raw,74364.31,5625,333
Raw,1.1467218e+05,5630,333
Raw,32491.579,5631,333
Raw,3.49692925e+05,5634,333
Raw,18529.615,5635,333
Raw,1.36312352e+05,5637,333
Raw,1.30980262e+05,5639,333
Raw,1.32441818e+05,5644,333
Raw,24141.609,5660,333
Raw,1.33020244e+05,5660,333
Raw,1.32100675e+05,5662,333
Raw,2.36937011e+05,5663,333
Raw,1.30450304e+05,5665,333
Raw,2.84531346e+05,5666,333
Raw,1.50282393e+05,5672,333
Raw,1.14159788e+05,5673,333
Raw,1.67939338e+05,5674,333
Raw,96747.379,5676,333
Raw,3.04192059e+05,5684,333
Raw,1.50673209e+05,5686,333
Raw,1.16586671e+05,5702,333
Raw,2.17274848e+05,5702,333
Raw,1.51044097e+05,5704,333
Raw,3.41476162e+05,5706,333
Raw,3.22318963e+05,5711,333
Raw,1.044793e+05,5711,333
Raw,2.09958826e+05,5712,333
Raw,1.22465508e+05,5713,333
Raw,1.31372741e+05,5721,333
Raw,1.06195189e+05,5723,333
Raw,1.02414665e+05,5723,333
Raw,79538.817,5723,333
Raw,2.58334331e+05,5729,333
Raw,93169.307,5734,333
Raw,69938.843,5734,333
Raw,1.67282795e+05,5737,333
Raw,60093.945,5737,333
Raw,2.31167104e+05,5746,333
Raw,1.60295191e+05,5748,333
Raw,1.86556363e+05,5757,333
Raw,1.09866414e+05,5757,333
Raw,1.55199897e+05,5758,333
Raw,1.3781911e+05,5758,333
Raw,81530.481,5758,333
Raw,2.52528238e+05,5775,333
Raw,1.05254797e+05,5777,333
Raw,1.49161117e+05,5779,333
Raw,1.20226227e+05,5789,333
Raw,2.43166438e+05,5791,333
Raw,73252.762,5791,333
Raw,47490.694,5798,333
Raw,1.48046863e+05,5807,333
Raw,2.60071618e+05,5811,333
Raw,2.39223873e+05,5822,333
Raw,95095.286,5824,333
Raw,56537.613,5824,333
Raw,1.65778375e+05,5854,333
Raw,1.8754644e+05,5866,333
Raw,2.38364437e+05,5866,333
Raw,54629.494,5870,333
Raw,1.1141709e+05,5871,333
Raw,63618.72,5873,333
Raw,85957.087,5876,333
Raw,3.90672413e+05,5877,333
Raw,66469.301,5879,333
Raw,2.87085371e+05,5881,333
Raw,65563.874,5881,333
Raw,2.92951415e+05,5885,333
Raw,3.59660795e+05,5894,333
Raw,1.42914931e+05,5918,333
Raw,3.20888032e+05,5942,333
Raw,90970.013,5947,333
Raw,3.51319977e+05,5962,333
Raw,1.19014309e+05,5965,333
Raw,2.61600679e+05,5979,333
Raw,1.44658989e+05,5979,333
Raw,1.85802759e+05,5992,333
Raw,1.20755101e+05,5999,333
Raw,1.20565836e+05,5999,333
Raw,1.53257668e+05,6018,333
Raw,1.37597826e+05,6019,333
Raw,1.98706791e+05,6022,333
Raw,1.34357405e+05,6026,333
Raw,84261.347,6026,333
Raw,1.36172595e+05,6027,333
Raw,2.51381054e+05,6030,333
Raw,1.35244844e+05,6034,333
Raw,1.70183689e+05,6036,333
Raw,79929.557,6037,333
Raw,1.32437389e+05,6065,333
Raw,1.55850409e+05,6067,333
Raw,2.30121511e+05,6080,333
Raw,98473.811,6080,333
Raw,1.49884839e+05,6081,333
Raw,1.70803847e+05,6106,333
Raw,1.49362793e+05,6126,333
Raw,1.08466274e+05,6141,333
Raw,2.09631835e+05,6142,333
Raw,96563.211,6144,333
Raw,1.28578357e+05,6147,333
Raw,2.87839539e+05,6155,333
Raw,2.85326825e+05,6171,333
Raw,75695.358,6178,333
Raw,1.33419209e+05,6179,333
Raw,40396.302,6182,333
Raw,1.06767929e+05,6184,333
Raw,97456.231,6184,333
Raw,2.87950609e+05,6213,333
Raw,1.48752894e+05,6217,333
Raw,49850.114,6222,333
Raw,1.11846888e+05,6222,333
Raw,1.25663277e+05,6224,333
Raw,95345.18,6228,333
Raw,2.81959709e+05,6236,333
Raw,1.57672823e+05,6237,333
Raw,1.43244392e+05,6246,333
Raw,1.5251543e+05,6248,333
Raw,2.9197435e+05,6260,333
Raw,1.32844042e+05,6263,333
Raw,41992.866,6263,333
Raw,1.54670602e+05,6268,333
Raw,1.31414998e+05,6273,333
Raw,72888.649,6280,333
Raw,1.0284503e+05,6283,333
Raw,1.52368823e+05,6288,333
Raw,2.30946903e+05,6290,333
Raw,1.36711874e+05,6300,333
Raw,82246.044,6305,333
Raw,35661.31,6310,333
Raw,1.06620745e+05,6317,333
Raw,1.7213185e+05,6318,333
Raw,57702.188,6328,333
Raw,1.17738337e+05,6328,333
Raw,69749.011,6337,333
Raw,1.53200964e+05,6338,333
Raw,1.14341637e+05,6338,333
Raw,1.19146293e+05,6343,333
Raw,1.51773005e+05,6355,333
Raw,3.44600478e+05,6360,333
Raw,72039.195,6364,333
Raw,1.25930644e+05,6364,333
Raw,1.69235507e+05,6369,333
Raw,45686.41,6370,333
Raw,1.82002018e+05,6371,333
Raw,1.15807928e+05,6380,333
Raw,71596.4,6382,333
Raw,1.46085935e+05,6382,333
Raw,2.13138525e+05,6392,333
Raw,1.29389231e+05,6396,333
Raw,1.43969587e+05,6407,333
Raw,3.68588619e+05,6411,333
Raw,1.33361712e+05,6419,333
Raw,1.10622682e+05,6419,333
Raw,1.14786659e+05,6420,333
Raw,1.72900983e+05,6430,333
Raw,2.1835881e+05,6430,333
Raw,1.76689304e+05,6433,333
Raw,85237.432,6448,333
Raw,1.04060955e+05,6451,333
Raw,2.93139927e+05,6456,333
Raw,1.25010814e+05,6457,333
Raw,35921.067,6461,333
Raw,35858.244,6464,333
Raw,2.57269834e+05,6470,333
Raw,54793.048,6490,333
Raw,72666.412,6496,333
Raw,90040.492,6502,333
Raw,1.62421813e+05,6502,333
Raw,94161.362,6514,333
Raw,3.46968429e+05,6519,333
Raw,1.45111602e+05,6519,333
Raw,3.0521759e+05,6519,333
Raw,24966.959,6520,333
Raw,35018.453,6522,333
Raw,1.26944597e+05,6524,333
Raw,88932.514,6524,333
Raw,2.55256413e+05,6526,333
Raw,1.62752005e+05,6530,333
Raw,1.33577278e+05,6535,333
Raw,3.29146847e+05,6539,333
Raw,1.35700131e+05,6541,333
Raw,1.79018737e+05,6549,333
Raw,1.39099099e+05,6554,333
Raw,1.49418331e+05,6557,333
Raw,1.62567385e+05,6563,333
Raw,1.34604758e+05,6563,333
Raw,1.45582188e+05,6568,333
Raw,82625.972,6570,333
Raw,1.07963217e+05,6576,333
Raw,46541.521,6576,333
Raw,1.06726866e+05,6586,333
Raw,1.98492298e+05,6592,333
Raw,1.52979378e+05,6595,333
Raw,1.54850637e+05,6597,333
Raw,2.48025157e+05,6604,333
Raw,3.10001667e+05,6606,333
Raw,63429.776,6607,333
Raw,1.65939949e+05,6623,333
Raw,56961.36,6627,333
Raw,1.34909977e+05,6627,333
Raw,3.01987966e+05,6631,333
Raw,1.48431827e+05,6636,333
Raw,1.64099679e+05,6668,333
Raw,2.6309371e+05,6668,333
Raw,1.8018896e+05,6669,333
Raw,96443.033,6670,333
Raw,42303.108,6671,333
Raw,1.03729846e+05,6671,333
Raw,1.68198966e+05,6675,333
Raw,1.66081116e+05,6681,333
Raw,72572.573,6684,333
Raw,1.2745473e+05,6684,333
Raw,3.97521566e+05,6689,333
Raw,1.22819882e+05,6690,333
Raw,1.43077365e+05,6701,333
Raw,1.63096363e+05,6701,333
Raw,1.57269132e+05,6705,333
Raw,1.14045874e+05,6706,333
Raw,1.11163908e+05,6709,333
Raw,1.01704749e+05,6709,333
Raw,1.47032743e+05,6714,333
Raw,1.26954847e+05,6718,333
Raw,3.75023495e+05,6722,333
Raw,1.14479223e+05,6722,333
Raw,1.16748079e+05,6723,333
Raw,1.41528702e+05,6724,333
Raw,1.11345931e+05,6724,333
Raw,1.06937326e+05,6729,333
Raw,1.27888981e+05,6743,333
Raw,1.00714255e+05,6743,333
Raw,2.87141374e+05,6753,333
Raw,1.24065255e+05,6764,333
Raw,1.73983445e+05,6767,333
Raw,1.32109711e+05,6770,333
Raw,1.20722472e+05,6771,333
Raw,1.87134406e+05,6777,333
Raw,1.31444131e+05,6778,333
Raw,1.6569887e+05,6780,333
Raw,2.54550196e+05,6781,333
Raw,1.51980324e+05,6782,333
Raw,1.63818523e+05,6783,333
Raw,1.2148609e+05,6783,333
Raw,96366.7,6784,333
Raw,1.14896106e+05,6789,333
Raw,1.41229757e+05,6791,333
Raw,2.12592682e+05,6794,333
Raw,1.47850377e+05,6811,333
Raw,1.34043387e+05,6811,333
Raw,1.36049394e+05,6813,333
Raw,48028.999,6815,333
Raw,1.26235414e+05,6818,333
Raw,1.90363879e+05,6824,333
Raw,1.45751027e+05,6829,333
Raw,1.68381514e+05,6831,333
Raw,2.19924845e+05,6834,333
Raw,2.23000605e+05,6837,333
Raw,1.29721336e+05,6858,333
Raw,1.24672797e+05,6862,333
Raw,99641.733,6872,333
Raw,2.94528417e+05,6873,333
Raw,3.124515e+05,6876,333
Raw,36955.291,6876,333
Raw,2.51441638e+05,6879,333
Raw,1.20226914e+05,6882,333
Raw,1.79969928e+05,6882,333
Raw,77921.347,6883,333
Raw,1.46472792e+05,6896,333
Raw,3.54223918e+05,6902,333
Raw,1.48737777e+05,6913,333
Raw,46184.88,6913,333
Raw,2.12800369e+05,6917,333
Raw,1.07604071e+05,6920,333
Raw,2.58383753e+05,6938,333
Raw,1.67771561e+05,6944,333
Raw,4.01231893e+05,6957,333
Raw,1.55505924e+05,6978,333
Raw,95365.808,6987,333
Raw,1.43523469e+05,6988,333
Raw,1.21578322e+05,6988,333
Raw,70409.929,6991,333
Raw,2.49123418e+05,6993,333
Raw,1.57140445e+05,7005,333
Raw,2.37529867e+05,7007,333
Raw,1.34193565e+05,7014,333
Raw,2.49419004e+05,7015,333
Raw,1.44936707e+05,7018,333
Raw,1.32784817e+05,7028,333
Raw,2.81732165e+05,7031,333
Raw,2.39220484e+05,7040,333
Raw,67429.878,7046,333
Raw,1.09761073e+05,7047,333
Raw,2.42786937e+05,7056,333
Raw,1.15281254e+05,7059,333
Raw,23169.556,7070,333
Raw,1.23575029e+05,7072,333
Raw,3.60013989e+05,7074,333
Raw,1.35129106e+05,7077,333
Raw,94179.316,7085,333
Raw,1.70560633e+05,7085,333
Raw,1.34334573e+05,7095,333
Raw,1.42928628e+05,7095,333
Raw,1.36439982e+05,7096,333
Raw,1.63228045e+05,7096,333
Raw,1.03798363e+05,7106,333
Raw,2.31977426e+05,7114,333
Raw,3.10646381e+05,7118,333
Raw,1.02280901e+05,7123,333
Raw,1.34410328e+05,7124,333
Raw,84454.214,7124,333
Raw,1.19573489e+05,7131,333
Raw,1.60597013e+05,7131,333
Raw,2.44651223e+05,7136,333
Raw,46464.835,7153,333
Raw,1.23437855e+05,7153,333
Raw,2.12297516e+05,7157,333
Raw,1.37737871e+05,7160,333
Raw,2.71002952e+05,7161,333
Raw,96633.767,7162,333
Raw,1.67022243e+05,7165,333
Raw,1.40487145e+05,7165,333
Raw,3.67607675e+05,7167,333
Raw,1.20959642e+05,7170,333
Raw,1.14566659e+05,7170,333
Raw,1.2951899e+05,7174,333
Raw,2.79602909e+05,7177,333
Raw,1.20794194e+05,7182,333
Raw,1.577616e+05,7182,333
Raw,1.28639253e+05,7187,333
Raw,1.70435296e+05,7189,333
Raw,90608.313,7195,333
Raw,3.97527326e+05,7200,333
Raw,3.05487863e+05,7201,333
Raw,1.21493834e+05,7201,333
Raw,1.19055868e+05,7221,333
Raw,1.3662999e+05,7225,333
Raw,96678.857,7233,333
Raw,1.23256726e+05,7233,333
Raw,1.76930734e+05,7237,333
Raw,3.34627732e+05,7245,333
Raw,42180.577,7282,333
Raw,1.23129158e+05,7282,333
Raw,1.0506836e+05,7287,333
Raw,2.70842253e+05,7288,333
Raw,2.19144371e+05,7291,333
Raw,2.86482071e+05,7295,333
Raw,1.51055294e+05,7299,333
Raw,2.14340139e+05,7307,333
Raw,2.61527364e+05,7310,333
Raw,1.79969933e+05,7313,333
Raw,1.81252952e+05,7323,333
Raw,1.49838888e+05,7325,333
Raw,2.28402611e+05,7332,333
Raw,1.35944704e+05,7332,333
Raw,1.35372662e+05,7342,333
Raw,2.459309e+05,7347,333
Raw,2.81083147e+05,7349,333
Raw,1.57236768e+05,7350,333
Raw,1.56590838e+05,7350,333
Raw,1.56482809e+05,7357,333
Raw,2.53427653e+05,7367,333
Raw,1.43808965e+05,7368,333
Raw,1.40028476e+05,7372,333
Raw,1.13741363e+05,7380,333
Raw,2.54617851e+05,7381,333
Raw,1.39152782e+05,7393,333
Raw,1.68754522e+05,7395,333
Raw,1.38585657e+05,7401,333
Raw,1.16658727e+05,7401,333
Raw,1.4150032e+05,7405,333
Raw,95786.708,7414,333
Raw,1.16947751e+05,7414,333
Raw,94275.396,7418,333
Raw,2.75654306e+05,7418,333
Raw,1.50849619e+05,7423,333
Raw,1.23453018e+05,7425,333
Raw,1.10752604e+05,7435,333
Raw,1.25588407e+05,7436,333
Raw,2.8660596e+05,7440,333
Raw,1.22445014e+05,7443,333
Raw,93533.857,7444,333
Raw,2.69513974e+05,7459,333
Raw,1.44103337e+05,7464,333
Raw,4.06027787e+05,7469,333
Raw,1.53602055e+05,7470,333
Raw,3.27212472e+05,7472,333
Raw,49033.932,7485,333
Raw,1.40551189e+05,7486,333
Raw,1.47590039e+05,7487,333
Raw,1.78242428e+05,7489,333
Raw,68180.078,7489,333
Raw,55642.577,7491,333
Raw,1.0629481e+05,7496,333
Raw,1.73467814e+05,7497,333
Raw,1.58101806e+05,7513,333
Raw,2.79006084e+05,7520,333
Raw,2.94214567e+05,7521,333
Raw,1.29377503e+05,7533,333
Raw,1.26415506e+05,7536,333
Raw,2.57600013e+05,7537,333
Raw,1.01265296e+05,7545,333
Raw,1.05687967e+05,7546,333
Raw,1.30037784e+05,7547,333
Raw,2.08818895e+05,7547,333
Raw,64716.198,7548,333
Raw,1.36367981e+05,7550,333
Raw,1.28418582e+05,7554,333
Raw,1.07800672e+05,7554,333
Raw,1.51771297e+05,7561,333
Raw,1.10851222e+05,7570,333
Raw,1.09396067e+05,7592,333
Raw,3.92478831e+05,7595,333
Raw,92133.976,7601,333
Raw,1.35896487e+05,7601,333
Raw,2.41522262e+05,7607,333
Raw,1.26062699e+05,7609,333
Raw,1.32796891e+05,7612,333
Raw,2.49186322e+05,7616,333
Raw,2.77716209e+05,7620,333
Raw,49489.017,7624,333
Raw,1.60591351e+05,7635,333
Raw,89488.39,7644,333
Raw,1.08216321e+05,7649,333
Raw,87378.225,7655,333
Raw,1.39702347e+05,7658,333
Raw,3.20278496e+05,7660,333
Raw,1.24062574e+05,7664,333
Raw,2.57538879e+05,7686,333
Raw,56510.167,7696,333
Raw,1.0857406e+05,7701,333
Raw,1.45480868e+05,7707,333
Raw,1.07919781e+05,7707,333
Raw,2.89455164e+05,7714,333
Raw,1.29730921e+05,7717,333
Raw,1.18839875e+05,7722,333
Raw,1.36410841e+05,7729,333
Raw,1.54824796e+05,7731,333
Raw,1.55042041e+05,7731,333
Raw,1.6426286e+05,7745,333
Raw,41051.991,7746,333
Raw,1.16808198e+05,7750,333
Raw,1.60283533e+05,7760,333
Raw,1.38958973e+05,7771,333
Raw,1.42514045e+05,7778,333
Raw,1.39847747e+05,7782,333
Raw,1.34646997e+05,7791,333
Raw,63787.054,7791,333
Raw,38296.989,7791,333
Raw,1.22602283e+05,7798,333
Raw,3.75981321e+05,7803,333
Raw,1.24281787e+05,7807,333
Raw,90059.943,7807,333
Raw,1.02367193e+05,7809,333
Raw,2.52373807e+05,7811,333
Raw,2.81369835e+05,7816,333
Raw,1.35417212e+05,7816,333
Raw,99199.998,7824,333
Raw,73862.135,7826,333
Raw,3.89834548e+05,7838,333
Raw,3.46687421e+05,7841,333
Raw,2.88190308e+05,7848,333
Raw,1.18624542e+05,7852,333
Raw,3.04075431e+05,7857,333
Raw,1.422356e+05,7861,333
Raw,3.46441107e+05,7862,333
Raw,1.17994443e+05,7863,333
Raw,1.53701881e+05,7875,333
Raw,78969.792,7880,333
Raw,74848.82,7893,333
Raw,19400.14,7914,333
Raw,1.36159864e+05,7914,333
Raw,1.70110438e+05,7918,333
Raw,1.12316614e+05,7919,333
Raw,1.42041354e+05,7927,333
Raw,1.30275595e+05,7933,333
Raw,97264.299,7936,333
Raw,1.65671747e+05,7942,333
Raw,1.71956732e+05,7945,333
Raw,92616.401,7945,333
Raw,4.0356611e+05,7952,333
Raw,22895.08,7963,333
Raw,2.99659719e+05,7964,333
Raw,3.34588122e+05,7965,333
Raw,1.91404952e+05,7967,333
Raw,1.09065007e+05,7972,333
Raw,2.24740026e+05,7974,333
Raw,1.16055925e+05,7976,333
Raw,38702.65,7977,333
Raw,1.45281601e+05,7977,333
Raw,1.62117885e+05,7983,333
Raw,2.19327199e+05,7994,333
Raw,3.36362695e+05,7996,333
Raw,2.18834579e+05,7999,333
Raw,1.18182795e+05,7999,333
Raw,1.34016277e+05,8001,333
Raw,3.12918779e+05,8006,333
Raw,1.50307204e+05,8012,333
Raw,1.62846934e+05,8015,333
Raw,1.26875921e+05,8017,333
Raw,1.88812573e+05,8020,333
Raw,1.4662217e+05,8027,333
Raw,1.23420948e+05,8027,333
Raw,92105.109,8061,333
Raw,2.67705926e+05,8062,333
Raw,2.89682951e+05,8063,333
Raw,1.95959778e+05,8066,333
Raw,59520.238,8070,333
Raw,2.33271446e+05,8070,333
Raw,3.33086541e+05,8072,333
Raw,2.20291207e+05,8087,333
Raw,1.80149172e+05,8089,333
Raw,94768.484,8089,333
Raw,2.71864239e+05,8096,333
Raw,1.06352409e+05,8105,333
Raw,1.36772781e+05,8110,333
Raw,1.18715847e+05,8114,333
Raw,2.82086066e+05,8133,333
Raw,3.99906524e+05,8152,333
Raw,1.07683289e+05,8155,333
Raw,1.30364584e+05,8166,333
Raw,95409.243,8168,333
Raw,3.30023215e+05,8184,333
Raw,1.26246432e+05,8186,333
Raw,2.09267755e+05,8189,333
Raw,98639.89,8195,333
Raw,1.34969884e+05,8213,333
Raw,1.58626913e+05,8214,333
Raw,2.2347638e+05,8220,333
Raw,1.12629833e+05,8228,333
Raw,1.15621569e+05,8228,333
Raw,2.49988388e+05,8234,333
Raw,3.8598661e+05,8235,333
Raw,1.49084349e+05,8240,333
Raw,99336.616,8248,333
Raw,2.57909859e+05,8248,333
Raw,67865.286,8253,333
Raw,1.26810516e+05,8266,333
Raw,1.70097251e+05,8267,333
Raw,1.28377398e+05,8275,333
Raw,1.50767561e+05,8277,333
Raw,1.54220632e+05,8277,333
Raw,3.9856952e+05,8289,333
Raw,31843.287,8290,333
Raw,1.1049697e+05,8304,333
Raw,1.94020426e+05,8309,333
Raw,55295.786,8309,333
Raw,1.12519121e+05,8312,333
Raw,3.01172331e+05,8312,333
Raw,3.02083886e+05,8319,333
Raw,1.26340075e+05,8322,333
Raw,3.00043305e+05,8327,333
Raw,1.30007608e+05,8329,333
Raw,79738.684,8340,333
Raw,1.46815286e+05,8342,333
Raw,1.22166389e+05,8342,333
Raw,1.49212489e+05,8362,333
Raw,81592.224,8363,333
Raw,1.58121678e+05,8363,333
Raw,1.02174092e+05,8365,333
Raw,87058.603,8365,333
Raw,2.64097657e+05,8367,333
Raw,1.64547921e+05,8372,333
Raw,1.4102909e+05,8377,333
Raw,73469.379,8378,333
Raw,1.20523724e+05,8378,333
Raw,2.95383141e+05,8382,333
Raw,1.72621109e+05,8388,333
Raw,1.28453775e+05,8392,333
Raw,1.63392161e+05,8405,333
Raw,53903.964,8412,333
Raw,1.33909626e+05,8412,333
Raw,87256.121,8415,333
Raw,1.23691143e+05,8417,333
Raw,2.59227834e+05,8420,333
Raw,2.11066513e+05,8421,333
Raw,3.95659327e+05,8423,333
Raw,3.92721629e+05,8425,333
Raw,1.8754347e+05,8429,333
Raw,2.50180078e+05,8434,333
Raw,2.01348365e+05,8436,333
Raw,2.06267855e+05,8442,333
Raw,61629.486,8443,333
Raw,1.19101416e+05,8445,333
Raw,1.28120412e+05,8446,333
Raw,1.29798651e+05,8446,333
Raw,1.63419723e+05,8449,333
Raw,1.22171747e+05,8459,333
Raw,3.26772683e+05,8460,333
Raw,1.31028816e+05,8473,333
Raw,71332.341,8473,333
Raw,1.59709904e+05,8474,333
Raw,1.08565344e+05,8479,333
Raw,1.24951098e+05,8480,333
Raw,1.12332369e+05,8481,333
Raw,1.96053571e+05,8483,333
Raw,2.36521896e+05,8488,333
Raw,1.74871583e+05,8493,333
Raw,2.64506981e+05,8496,333
Raw,1.29604584e+05,8504,333
Raw,1.97421625e+05,8506,333
Raw,1.31936189e+05,8507,333
Raw,2.24673709e+05,8507,333
Raw,99127.148,8516,333
Raw,2.52863912e+05,8519,333
Raw,1.18998349e+05,8522,333
Raw,1.69296037e+05,8526,333
Raw,1.29617766e+05,8527,333
Raw,3.87247318e+05,8530,333
Raw,2.53894473e+05,8535,333
Raw,2.81151294e+05,8540,333
Raw,2.40923507e+05,8541,333
Raw,1.21473378e+05,8554,333
Raw,1.31251947e+05,8555,333
Raw,46292.116,8557,333
Raw,88858.42,8561,333
Raw,2.33261598e+05,8570,333
Raw,3.78297487e+05,8585,333
Raw,80467.38,8585,333
Raw,1.86061909e+05,8586,333
Raw,2.39032124e+05,8588,333
Raw,1.52264945e+05,8591,333
Raw,2.43077158e+05,8602,333
Raw,2.89468625e+05,8614,333
Raw,1.10455212e+05,8625,333
Raw,1.018761e+05,8639,333
Raw,2.63597125e+05,8651,333
Raw,1.36215655e+05,8656,333
Raw,2.64229209e+05,8656,333
Raw,3.25543697e+05,8665,333
Raw,1.39915814e+05,8666,333
Raw,1.15653412e+05,8670,333
Raw,1.24478156e+05,8675,333
Raw,1.08891393e+05,8675,333
Raw,1.89286405e+05,8688,333
Raw,1.40389709e+05,8706,333
Raw,1.08918166e+05,8706,333
Raw,2.63846029e+05,8714,333
Raw,1.48250291e+05,8715,333
Raw,1.28851533e+05,8725,333
Raw,2.40951303e+05,8729,333
Raw,89118.214,8730,333
Raw,1.17407191e+05,8731,333
Raw,2.63669993e+05,8733,333
Raw,1.32511802e+05,8737,333
Raw,1.45010502e+05,8737,333
Raw,1.20486372e+05,8738,333
Raw,3.41210374e+05,8740,333
Raw,3.5453823e+05,8742,333
Raw,1.1571084e+05,8744,333
Raw,1.10839501e+05,8744,333
Raw,1.40273558e+05,8749,333
Raw,3.89783453e+05,8771,333
Raw,57940.565,8779,333
Raw,1.52310168e+05,8788,333
Raw,1.19469134e+05,8793,333
Raw,1.3231735e+05,8797,333
Raw,1.36876836e+05,8802,333
Raw,1.18454793e+05,8825,333
Raw,1.33467495e+05,8833,333
Raw,1.08196187e+05,8836,333
Raw,1.85299438e+05,8839,333
Raw,1.8258896e+05,8841,333
Raw,1.48808336e+05,8844,333
Raw,1.12708021e+05,8844,333
Raw,1.29743139e+05,8846,333
Raw,1.31299317e+05,8848,333
Raw,1.22439462e+05,8849,333
Raw,45565.52,8849,333
Raw,3.66591556e+05,8864,333
Raw,2.92402607e+05,8871,333
Raw,1.31113348e+05,8876,333
Raw,2.92187663e+05,8877,333
Raw,1.1306873e+05,8881,333
Raw,1.65643119e+05,8881,333
Raw,50764.768,8882,333
Raw,1.21347442e+05,8883,333
Raw,3.36749062e+05,8901,333
Raw,1.73167397e+05,8911,333
Raw,1.24657245e+05,8940,333
Raw,1.10779271e+05,8940,333
Raw,1.3166735e+05,8948,333
Raw,1.14359427e+05,8956,333
Raw,3.30307907e+05,8958,333
Raw,1.5690785e+05,8969,333
Raw,2.02570074e+05,8972,333
Raw,1.59452845e+05,8977,333
Raw,1.79912919e+05,8980,333
Raw,1.48463109e+05,8986,333
Raw,1.21697497e+05,8987,333
Raw,2.14070585e+05,8987,333
Raw,1.43127306e+05,8992,333
Raw,99869.335,8993,333
Raw,1.65591174e+05,8996,333
Raw,44676.234,9006,333
Raw,1.20940239e+05,9006,333
Raw,1.32341879e+05,9007,333
Raw,1.18928424e+05,9019,333
Raw,81937.655,9019,333
Raw,1.32478531e+05,9046,333
Raw,3.44683415e+05,9050,333
Raw,1.27727567e+05,9058,333
Raw,1.44360186e+05,9059,333
Raw,1.23317738e+05,9063,333
Raw,1.41875527e+05,9069,333
Raw,1.49038147e+05,9076,333
Raw,1.4869491e+05,9080,333
Raw,1.274984e+05,9084,333
Raw,1.36982127e+05,9085,333
Raw,1.32863721e+05,9088,333
Raw,1.20271313e+05,9096,333
Raw,2.16448246e+05,9096,333
Raw,2.74771011e+05,9113,333
Raw,1.257629e+05,9114,333
Raw,1.16990419e+05,9129,333
Raw,1.20654058e+05,9155,333
Raw,2.05048698e+05,9155,333
Raw,1.23071831e+05,9155,333
Raw,1.22931386e+05,9164,333
Raw,1.4002529e+05,9170,333
Raw,1.26509386e+05,9181,333
Raw,1.8797103e+05,9183,333
Raw,1.70574791e+05,9200,333
Raw,88640.891,9201,333
Raw,1.04205532e+05,9204,333
Raw,1.03114345e+05,9210,333
Raw,1.88275423e+05,9215,333
Raw,2.08241402e+05,9217,333
Raw,3.74643054e+05,9228,333
Raw,1.11392332e+05,9230,333
Raw,1.33848964e+05,9231,333
Raw,1.31075412e+05,9234,333
Raw,1.36177351e+05,9242,333
Raw,1.53700647e+05,9244,333
Raw,69485.952,9250,333
Raw,2.61469061e+05,9253,333
Raw,1.51040049e+05,9258,333
Raw,1.38262374e+05,9270,333
Raw,1.30956316e+05,9277,333
Raw,1.53381925e+05,9283,333
Raw,1.04049239e+05,9283,333
Raw,2.64812777e+05,9291,333
Raw,85649.253,9298,333
Raw,1.14390463e+05,9299,333
Raw,1.29726275e+05,9299,333
Raw,1.20197628e+05,9313,333
Raw,1.48850349e+05,9315,333
Raw,1.18278498e+05,9320,333
Raw,1.21797987e+05,9320,333
Raw,1.35080347e+05,9321,333
Raw,1.42389724e+05,9322,333
Raw,1.22498694e+05,9332,333
Raw,1.11323663e+05,9332,333
Raw,99218.084,9335,333
Raw,1.46297512e+05,9336,333
Raw,1.75678192e+05,9337,333
Raw,1.72387392e+05,9338,333
Raw,1.2345475e+05,9344,333
Raw,1.35484613e+05,9345,333
Raw,52054.048,9349,333
Raw,2.49563602e+05,9357,333
Raw,3.23091803e+05,9377,333
Raw,46042.847,9377,333
Raw,1.017276e+05,9380,333
Raw,1.34850464e+05,9380,333
Raw,1.39696525e+05,9381,333
Raw,1.24621477e+05,9384,333
Raw,58551.82,9386,333
Raw,77429.824,9388,333
Raw,68488.717,9406,333
Raw,1.37590156e+05,9410,333
Raw,64325.006,9426,333
Raw,1.08412717e+05,9426,333
Raw,1.34871763e+05,9434,333
Raw,1.29571949e+05,9439,333
Raw,1.15776852e+05,9448,333
Raw,2.53701049e+05,9455,333
Raw,1.21333277e+05,9464,333
Raw,1.16664675e+05,9470,333
Raw,2.72382973e+05,9471,333
Raw,1.39454311e+05,9472,333
Raw,88775.14,9473,333
Raw,91668.278,9479,333
Raw,1.38709797e+05,9484,333
Raw,89711.401,9492,333
Raw,1.50506852e+05,9493,333
Raw,3.88404531e+05,9503,333
Raw,63049.678,9503,333
Raw,1.44497946e+05,9513,333
Raw,56651.085,9519,333
Raw,2.79465564e+05,9520,333
Raw,2.06878426e+05,9528,333
Raw,1.24597165e+05,9543,333
Raw,34602.197,9548,333
Raw,88972.246,9548,333
Raw,1.45585988e+05,9556,333
Raw,1.02393563e+05,9577,333
Raw,2.47952208e+05,9590,333
Raw,87546.735,9594,333
Raw,1.27594522e+05,9596,333
Raw,1.11612263e+05,9596,333
Raw,1.29854892e+05,9603,333
Raw,3.87075379e+05,9607,333
Raw,48532.723,9611,333
Raw,1.9585512e+05,9623,333
Raw,92123.427,9625,333
Raw,1.1331222e+05,9626,333
Raw,2.11414032e+05,9630,333
Raw,2.47202272e+05,9637,333
Raw,1.20930841e+05,9644,333
Raw,1.16369271e+05,9644,333
Raw,2.15635968e+05,9645,333
Raw,1.0619984e+05,9646,333
Raw,1.08438188e+05,9647,333
Raw,1.00595106e+05,9647,333
Raw,1.15818785e+05,9651,333
Raw,1.40214491e+05,9651,333
Raw,86087.001,9655,333
Raw,1.55585861e+05,9655,333
Raw,1.13905641e+05,9656,333
Raw,1.56387437e+05,9660,333
Raw,1.40628584e+05,9667,333
Raw,2.91174475e+05,9674,333
Raw,2.65713088e+05,9679,333
Raw,1.26515294e+05,9681,333
Raw,2.05924574e+05,9682,333
Raw,1.1006288e+05,9686,333
Raw,1.00162813e+05,9694,333
Raw,1.36585361e+05,9699,333
Raw,73344.946,9699,333
Raw,43494.215,9711,333
Raw,1.51120682e+05,9717,333
Raw,78671.413,9717,333
Raw,1.53896405e+05,9719,333
Raw,1.32800261e+05,9725,333
Raw,90028.269,9726,333
Raw,2.39011164e+05,9729,333
Raw,1.89376555e+05,9732,333
Raw,91417.996,9732,333
Raw,2.29816706e+05,9741,333
Raw,3.65050067e+05,9746,333
Raw,83388.976,9751,333
Raw,91583.035,9761,333
Raw,1.08527594e+05,9761,333
Raw,1.37084302e+05,9767,333
Raw,1.22798248e+05,9771,333
Raw,46113.799,9774,333
Raw,1.45864335e+05,9774,333
Raw,1.09304728e+05,9782,333
Raw,1.27150414e+05,9788,333
Raw,2.34432657e+05,9791,333
Raw,81256.213,9791,333
Raw,1.83288415e+05,9792,333
Raw,1.18240237e+05,9798,333
Raw,2.24182063e+05,9805,333
Raw,1.55451823e+05,9808,333
Raw,1.58517699e+05,9822,333
Raw,2.50692883e+05,9829,333
Raw,1.31874455e+05,9830,333
Raw,1.37782246e+05,9831,333
Raw,2.64851279e+05,9838,333
Raw,3.01031975e+05,9839,333
Raw,1.20319172e+05,9869,333
Raw,1.0370512e+05,9874,333
Raw,1.27217875e+05,9874,333
Raw,1.47937994e+05,9884,333
Raw,3.95403059e+05,9885,333
Raw,3.48624396e+05,9889,333
Raw,1.4950671e+05,9905,333
Raw,1.71469982e+05,9905,333
Raw,42490.526,9924,333
Raw,1.16635498e+05,9928,333
Raw,1.67556293e+05,9942,333
Raw,1.04452237e+05,9948,333
Raw,1.50291519e+05,9953,333
Raw,1.20717235e+05,9965,333
Raw,1.11683379e+05,9969,333
Raw,98414.686,9974,333
Raw,31196.151,9974,333
Raw,1.59980914e+05,9980,333
Raw,51394.327,9987,333
Raw,3.25574905e+05,9993,333
Raw,1.78642099e+05,10004,333
Raw,93382.211,10004,333
Raw,2.21553938e+05,10008,333
Raw,1.67125055e+05,10012,333
Raw,90439.698,10018,333
Raw,1.31053524e+05,10037,333
Raw,2.04730745e+05,10037,333
Raw,1.50774391e+05,10043,333
Raw,2.02920919e+05,10051,333
Raw,3.63219881e+05,10055,333
Raw,2.00413391e+05,10065,333
Raw,1.00722813e+05,10070,333
Raw,69821.819,10074,333
Raw,74945.591,10075,333
Raw,3.09153613e+05,10088,333
Raw,1.1860241e+05,10091,333
Raw,1.09315477e+05,10091,333
Raw,1.74424058e+05,10094,333
Raw,1.22394321e+05,10102,333
Raw,1.47398983e+05,10104,333
Raw,1.25645614e+05,10105,333
Raw,3.95812356e+05,10111,333
Raw,1.61322491e+05,10111,333
Raw,90816.559,10117,333
Raw,69353.194,10119,333
Raw,91024.195,10128,333
Raw,2.31028029e+05,10131,333
Raw,2.65230321e+05,10135,333
Raw,97374.695,10146,333
Raw,8946.3371,10149,333
Raw,1.86292654e+05,10159,333
Raw,86504.653,10163,333
Raw,1.57409639e+05,10164,333
Raw,74944.524,10168,333
Raw,2.86460743e+05,10169,333
Raw,1.20906892e+05,10171,333
Raw,1.16656613e+05,10174,333
Raw,2.51529787e+05,10176,333
Raw,1.26738675e+05,10176,333
Raw,2.55550776e+05,10179,333
Raw,1.01482074e+05,10179,333
Raw,87673.378,10183,333
Raw,1.0465206e+05,10185,333
Raw,1.0142858e+05,10188,333
Raw,1.12155581e+05,10191,333
Raw,1.51016768e+05,10191,333
Raw,96841.245,10198,333
Raw,1.5886646e+05,10208,333
Raw,1.50410567e+05,10223,333
Raw,3.1734984e+05,10233,333
Raw,23839.805,10240,333
Raw,71843.882,10248,333
Raw,1.18572942e+05,10251,333
Raw,59538.498,10262,333
Raw,1.0452594e+05,10281,333
Raw,3.92456204e+05,10284,333
Raw,1.75133582e+05,10286,333
Raw,3.71839079e+05,10287,333
Raw,1.3959191e+05,10288,333
Raw,3.14829591e+05,10293,333
Raw,1.34801631e+05,10324,333
Raw,2.8419238e+05,10327,333
Raw,1.06423092e+05,10328,333
Raw,53850.856,10328,333
Raw,88393.593,10329,333
Raw,1.62318039e+05,10331,333
Raw,3.80216324e+05,10337,333
Raw,1.49724367e+05,10338,333
Raw,95842.952,10338,333
Raw,1.14801348e+05,10343,333
Raw,59389.909,10344,333
Raw,3.06654998e+05,10348,333
Raw,99187.553,10352,333
Raw,1.25474603e+05,10352,333
Raw,86835.688,10354,333
Raw,1.00906539e+05,10355,333
Raw,3.26843306e+05,10360,333
Raw,3.17735034e+05,10369,333
Raw,98306.364,10379,333
Raw,1.17444604e+05,10379,333
Raw,1.21867311e+05,10384,333
Raw,3.10030298e+05,10385,333
Raw,1.35999618e+05,10388,333
Raw,1.31179983e+05,10394,333
Raw,2.15148947e+05,10395,333
Raw,1.2877169e+05,10395,333
Raw,2.89221373e+05,10396,333
Raw,1.35710868e+05,10397,333
Raw,2.84356244e+05,10399,333
Raw,1.18277364e+05,10414,333
Raw,64839.154,10425,333
Raw,1.49390823e+05,10425,333
Raw,3.87142839e+05,10432,333
Raw,1.0421144e+05,10434,333
Raw,1.13136118e+05,10450,333
Raw,3.75923721e+05,10455,333
Raw,1.36400474e+05,10456,333
Raw,57666.241,10456,333
Raw,3.8728871e+05,10470,333
Raw,1.10232235e+05,10480,333
Raw,3.19626392e+05,10490,333
Raw,1.11853862e+05,10490,333
Raw,2.14744887e+05,10496,333
Raw,2.29114783e+05,10501,333
Raw,92359.983,10501,333
Raw,1.02615459e+05,10510,333
Raw,1.30421059e+05,10510,333
Raw,1.53378558e+05,10519,333
Raw,1.34211344e+05,10524,333
Raw,1.30440515e+05,10525,333
Raw,1.3242766e+05,10532,333
Raw,1.15923781e+05,10538,333
Raw,1.28472732e+05,10540,333
Raw,73696.334,10547,333
Raw,1.18890333e+05,10548,333
Raw,62240.521,10548,333
Raw,1.29987777e+05,10555,333
Raw,1.22902956e+05,10560,333
Raw,1.44481502e+05,10570,333
Raw,1.59896621e+05,10577,333
Raw,1.43418979e+05,10603,333
Raw,2.32917199e+05,10621,333
Raw,1.57626489e+05,10626,333
Raw,1.14027216e+05,10630,333
Raw,2.86394982e+05,10632,333
Raw,2.53596579e+05,10636,333
Raw,1.16097284e+05,10642,333
Raw,2.49282654e+05,10647,333
Raw,1.36750751e+05,10654,333
Raw,1.24457162e+05,10667,333
Raw,2.43020186e+05,10672,333
Raw,1.39750893e+05,10683,333
Raw,1.24386651e+05,10692,333
Raw,2.93776209e+05,10695,333
Raw,2.08145885e+05,10698,333
Raw,2.20842756e+05,10700,333
Raw,76556.212,10711,333
Raw,1.30243016e+05,10712,333
Raw,1.53205331e+05,10716,333
Raw,1.3507885e+05,10720,333
Raw,59625.95,10720,333
Raw,1.70452022e+05,10722,333
Raw,2.55134122e+05,10725,333
Raw,45226.705,10725,333
Raw,1.32924969e+05,10727,333
Raw,1.23670394e+05,10727,333
Raw,1.24516852e+05,10729,333
Raw,67921.076,10740,333
Raw,1.06149057e+05,10740,333
Raw,24352.81,10742,333
Raw,82500.926,10750,333
Raw,1.54007994e+05,10753,333
Raw,1.14547873e+05,10755,333
Raw,1.82463597e+05,10758,333
Raw,1.08163024e+05,10760,333
Raw,1.38293146e+05,10767,333
Raw,1.24648445e+05,10769,333
Raw,64725.113,10769,333
Raw,1.06514015e+05,10770,333
Raw,1.03503311e+05,10771,333
Raw,93151.998,10771,333
Raw,1.8144365e+05,10779,333
Raw,2.50584564e+05,10782,333
Raw,1.50378828e+05,10786,333
Raw,1.3881762e+05,10790,333
Raw,1.29027655e+05,10793,333
Raw,73313.107,10793,333
Raw,2.40917497e+05,10797,333
Raw,17819.742,10800,333
Raw,2.69265154e+05,10810,333
Raw,1.38006525e+05,10814,333
Raw,3.45026034e+05,10821,333
Raw,91683.272,10836,333
Raw,1.51857417e+05,10839,333
Raw,1.67409599e+05,10839,333
Raw,1.14898863e+05,10854,333
Raw,88353.964,10854,333
Raw,1.25931237e+05,10860,333
Raw,74279.971,10860,333
Raw,1.17359849e+05,10863,333
Raw,1.14387113e+05,10872,333
Raw,1.83486008e+05,10877,333
Raw,1.49245464e+05,10878,333
Raw,88489.959,10879,333
Raw,1.11970272e+05,10881,333
Raw,1.03124174e+05,10881,333
Raw,1.06877497e+05,10894,333
Raw,2.70960578e+05,10896,333
Raw,1.52988744e+05,10898,333
Raw,1.34625599e+05,10900,333
Raw,2.73676629e+05,10902,333
Raw,2.41808415e+05,10905,333
Raw,1.59886998e+05,10908,333
Raw,1.3573014e+05,10909,333
Raw,76386.12,10917,333
Raw,1.15503719e+05,10920,333
Raw,1.04919215e+05,10922,333
Raw,1.49237402e+05,10929,333
Raw,1.21699779e+05,10929,333
Raw,1.05035696e+05,10930,333
Raw,1.40302642e+05,10933,333
Raw,42441.755,10933,333
Raw,90200.728,10936,333
Raw,2.92813825e+05,10946,333
Raw,1.26076637e+05,10949,333
Raw,1.51254962e+05,10957,333
Raw,1.0828128e+05,10960,333
Raw,3.14154342e+05,10966,333
Raw,29758.14,10966,333
Raw,1.17769308e+05,10967,333
Raw,1.36278756e+05,10974,333
Raw,1.19735568e+05,10979,333
Raw,1.55739212e+05,10981,333
Raw,1.75134057e+05,10981,333
Raw,1.38172958e+05,10984,333
Raw,1.87032157e+05,10984,333
Raw,1.80090742e+05,10986,333
Raw,1.18269096e+05,10987,333
Raw,2.64456913e+05,10996,333
Raw,1.54937484e+05,10997,333
Raw,1.262376e+05,11000,333
Raw,2.7205282e+05,11001,333
Raw,2.76522167e+05,11002,333
Raw,2.33047874e+05,11002,333
Raw,1.00659679e+05,11005,333
Raw,1.30411733e+05,11011,333
Raw,1.52538555e+05,11012,333
Raw,63936.388,11012,333
Raw,1.37499818e+05,11017,333
Raw,1.33983209e+05,11023,333
Raw,93401.621,11023,333
Raw,1.39923149e+05,11025,333
Raw,1.20626737e+05,11026,333
Raw,1.11892002e+05,11038,333
Raw,2.64819476e+05,11038,333
Raw,2.37814482e+05,11040,333
Raw,84411.9,11040,333
Raw,3.11482583e+05,11041,333
Raw,1.22970023e+05,11042,333
Raw,1.47171321e+05,11043,333
Raw,1.28130882e+05,11046,333
Raw,1.12020095e+05,11062,333
Raw,4.0485274e+05,11064,333
