Cut?,Counts,eventNumber,runNumber
Raw,15,2,343
Raw,22,5,343
Raw,4,10,343
Raw,13,10,343
Raw,11,11,343
Raw,38,19,343
Raw,41,19,343
Raw,14,23,343
Raw,4,23,343
Raw,18,25,343
Raw,20,25,343
Raw,53,26,343
Raw,15,31,343
Raw,33,40,343
Raw,30,54,343
Raw,12,59,343
Raw,11,62,343
Raw,16,63,343
Raw,13,63,343
Raw,8,67,343
Raw,32,75,343
Raw,3,75,343
Raw,24,82,343
Raw,17,88,343
Raw,7,93,343
Raw,27,101,343
Raw,14,101,343
Raw,26,109,343
Raw,17,116,343
Raw,7,116,343
Raw,8,118,343
Raw,12,118,343
Raw,6,118,343
Raw,19,121,343
Raw,22,121,343
Raw,22,124,343
Raw,14,125,343
Raw,20,135,343
Raw,23,140,343
Raw,43,141,343
Raw,22,142,343
Raw,13,149,343
Raw,7,161,343
Raw,40,164,343
Raw,25,168,343
Raw,8,171,343
Raw,13,172,343
Raw,32,172,343
Raw,26,174,343
Raw,11,174,343
Raw,36,175,343
Raw,20,179,343
Raw,18,179,343
Raw,15,187,343
Raw,15,190,343
Raw,20,200,343
Raw,14,206,343
Raw,15,211,343
Raw,10,211,343
Raw,30,213,343
Raw,25,220,343
Raw,28,220,343
Raw,48,224,343
Raw,40,229,343
Raw,9,233,343
Raw,18,233,343
Raw,20,239,343
Raw,27,240,343
Raw,27,241,343
Raw,19,243,343
Raw,29,256,343
Raw,53,259,343
Raw,15,267,343
Raw,10,267,343
Raw,15,269,343
Raw,12,270,343
Raw,10,277,343
Raw,13,279,343
Raw,8,281,343
Raw,6,281,343
Raw,18,282,343
Raw,39,290,343
Raw,24,291,343
Raw,35,291,343
Raw,37,298,343
Raw,28,301,343
Raw,9,303,343
Raw,17,309,343
Raw,26,310,343
Raw,29,321,343
Raw,26,322,343
Raw,53,331,343
Raw,37,332,343
Raw,25,333,343
Raw,6,336,343
Raw,19,336,343
Raw,17,336,343
Raw,49,341,343
Raw,9,344,343
Raw,20,344,343
Raw,7,346,343
Raw,14,352,343
Raw,6,352,343
Raw,14,356,343
Raw,31,361,343
Raw,45,362,343
Raw,24,364,343
Raw,16,364,343
Raw,26,369,343
Raw,5,369,343
Raw,20,370,343
Raw,10,370,343
Raw,15,375,343
Raw,16,378,343
Raw,39,378,343
Raw,8,379,343
Raw,27,379,343
Raw,14,379,343
Raw,24,386,343
Raw,22,394,343
Raw,39,396,343
Raw,21,399,343
Raw,13,400,343
Raw,49,409,343
Raw,9,414,343
Raw,8,414,343
Raw,14,414,343
Raw,27,415,343
Raw,14,418,343
Raw,18,418,343
Raw,24,422,343
Raw,14,425,343
Raw,13,425,343
Raw,10,425,343
Raw,47,434,343
Raw,13,439,343
Raw,12,440,343
Raw,23,446,343
Raw,42,447,343
Raw,40,465,343
Raw,20,469,343
Raw,44,472,343
Raw,14,484,343
Raw,18,484,343
Raw,18,485,343
Raw,18,486,343
Raw,49,487,343
Raw,24,489,343
Raw,21,490,343
Raw,14,490,343
Raw,8,491,343
Raw,7,491,343
Raw,35,494,343
Raw,35,499,343
Raw,31,499,343
Raw,25,502,343
Raw,53,502,343
Raw,11,507,343
Raw,23,513,343
Raw,21,513,343
Raw,43,518,343
Raw,14,524,343
Raw,43,529,343
Raw,32,538,343
Raw,22,539,343
Raw,12,543,343
Raw,30,556,343
Raw,7,558,343
Raw,11,563,343
Raw,13,569,343
Raw,17,578,343
Raw,25,587,343
Raw,13,587,343
Raw,8,588,343
Raw,15,588,343
Raw,24,589,343
Raw,15,591,343
Raw,18,591,343
Raw,14,598,343
Raw,14,601,343
Raw,10,601,343
Raw,10,619,343
Raw,29,620,343
Raw,32,621,343
Raw,40,643,343
Raw,25,653,343
Raw,10,655,343
Raw,13,655,343
Raw,22,656,343
Raw,24,656,343
Raw,14,657,343
Raw,30,664,343
Raw,10,665,343
Raw,8,667,343
Raw,36,667,343
Raw,16,669,343
Raw,51,671,343
Raw,24,681,343
Raw,10,681,343
Raw,15,682,343
Raw,20,687,343
Raw,38,688,343
Raw,9,689,343
Raw,38,693,343
Raw,10,694,343
Raw,6,711,343
Raw,27,713,343
Raw,29,715,343
Raw,23,727,343
Raw,38,734,343
Raw,24,737,343
Raw,27,739,343
Raw,17,739,343
Raw,29,744,343
Raw,6,744,343
Raw,29,755,343
Raw,25,755,343
Raw,12,758,343
Raw,12,767,343
Raw,19,775,343
Raw,18,775,343
Raw,16,775,343
Raw,25,778,343
Raw,13,778,343
Raw,49,790,343
Raw,26,791,343
Raw,42,795,343
Raw,3,801,343
Raw,31,804,343
Raw,11,808,343
Raw,11,808,343
Raw,26,812,343
Raw,19,822,343
Raw,21,823,343
Raw,17,827,343
Raw,36,827,343
Raw,16,842,343
Raw,30,842,343
Raw,19,843,343
Raw,11,849,343
Raw,25,850,343
Raw,11,854,343
Raw,21,863,343
Raw,9,863,343
Raw,15,866,343
Raw,12,866,343
Raw,19,869,343
Raw,18,869,343
Raw,35,873,343
Raw,15,878,343
Raw,8,881,343
Raw,8,881,343
Raw,3,885,343
Raw,51,891,343
Raw,10,896,343
Raw,9,897,343
Raw,19,912,343
Raw,14,921,343
Raw,12,926,343
Raw,18,939,343
Raw,32,950,343
Raw,27,965,343
Raw,9,968,343
Raw,12,973,343
Raw,40,980,343
Raw,3,985,343
Raw,19,985,343
Raw,39,986,343
Raw,18,988,343
Raw,17,988,343
Raw,15,994,343
Raw,16,997,343
Raw,9,1000,343
Raw,37,1009,343
Raw,29,1015,343
Raw,17,1018,343
Raw,44,1022,343
Raw,35,1025,343
Raw,43,1029,343
Raw,21,1031,343
Raw,15,1033,343
Raw,5,1034,343
Raw,11,1035,343
Raw,11,1035,343
Raw,29,1040,343
Raw,34,1049,343
Raw,17,1061,343
Raw,11,1061,343
Raw,9,1062,343
Raw,17,1062,343
Raw,11,1065,343
Raw,35,1067,343
Raw,9,1067,343
Raw,14,1068,343
Raw,18,1074,343
Raw,23,1080,343
Raw,47,1090,343
Raw,8,1094,343
Raw,7,1097,343
Raw,12,1098,343
Raw,27,1098,343
Raw,25,1100,343
Raw,15,1104,343
Raw,36,1118,343
Raw,33,1127,343
Raw,23,1129,343
Raw,10,1129,343
Raw,28,1137,343
Raw,18,1142,343
Raw,6,1144,343
Raw,11,1150,343
Raw,19,1150,343
Raw,47,1160,343
Raw,15,1163,343
Raw,25,1168,343
Raw,5,1173,343
Raw,22,1178,343
Raw,16,1179,343
Raw,22,1180,343
Raw,17,1193,343
Raw,3,1193,343
Raw,24,1195,343
Raw,14,1198,343
Raw,12,1208,343
Raw,26,1212,343
Raw,21,1212,343
Raw,15,1222,343
Raw,11,1226,343
Raw,15,1227,343
Raw,17,1230,343
Raw,29,1232,343
Raw,21,1232,343
Raw,25,1233,343
Raw,12,1239,343
Raw,14,1239,343
Raw,17,1243,343
Raw,20,1256,343
Raw,16,1257,343
Raw,11,1257,343
Raw,40,1260,343
Raw,17,1266,343
Raw,14,1271,343
Raw,20,1286,343
Raw,41,1287,343
Raw,22,1296,343
Raw,4,1298,343
Raw,10,1300,343
Raw,20,1301,343
Raw,14,1303,343
Raw,10,1305,343
Raw,17,1307,343
Raw,9,1308,343
Raw,22,1309,343
Raw,17,1309,343
Raw,14,1314,343
Raw,7,1324,343
Raw,14,1325,343
Raw,23,1325,343
Raw,9,1332,343
Raw,32,1332,343
Raw,31,1341,343
Raw,24,1346,343
Raw,16,1357,343
Raw,48,1368,343
Raw,8,1371,343
Raw,37,1373,343
Raw,9,1375,343
Raw,18,1378,343
Raw,22,1386,343
Raw,15,1387,343
Raw,12,1399,343
Raw,21,1399,343
Raw,16,1399,343
Raw,31,1400,343
Raw,36,1405,343
Raw,7,1405,343
Raw,39,1406,343
Raw,27,1408,343
Raw,7,1414,343
Raw,9,1414,343
Raw,16,1416,343
Raw,16,1418,343
Raw,53,1419,343
Raw,24,1431,343
Raw,37,1436,343
Raw,25,1438,343
Raw,18,1442,343
Raw,11,1448,343
Raw,9,1448,343
Raw,34,1454,343
Raw,23,1457,343
Raw,9,1457,343
Raw,24,1464,343
Raw,34,1465,343
Raw,9,1467,343
Raw,22,1477,343
Raw,34,1478,343
Raw,37,1482,343
Raw,27,1486,343
Raw,17,1489,343
Raw,18,1489,343
Raw,13,1492,343
Raw,15,1494,343
Raw,25,1497,343
Raw,12,1497,343
Raw,29,1500,343
Raw,25,1502,343
Raw,34,1505,343
Raw,12,1521,343
Raw,29,1529,343
Raw,23,1531,343
Raw,23,1536,343
Raw,18,1540,343
Raw,16,1540,343
Raw,44,1555,343
Raw,27,1556,343
Raw,18,1557,343
Raw,20,1559,343
Raw,29,1566,343
Raw,26,1568,343
Raw,13,1571,343
Raw,22,1572,343
Raw,33,1572,343
Raw,15,1576,343
Raw,3,1577,343
Raw,20,1579,343
Raw,20,1582,343
Raw,15,1589,343
Raw,17,1590,343
Raw,9,1591,343
Raw,33,1593,343
Raw,15,1599,343
Raw,23,1602,343
Raw,21,1605,343
Raw,38,1607,343
Raw,11,1607,343
Raw,3,1609,343
Raw,25,1610,343
Raw,42,1612,343
Raw,8,1623,343
Raw,7,1626,343
Raw,12,1628,343
Raw,10,1628,343
Raw,16,1634,343
Raw,8,1634,343
Raw,17,1634,343
Raw,16,1636,343
Raw,17,1637,343
Raw,23,1639,343
Raw,16,1641,343
Raw,8,1650,343
Raw,12,1651,343
Raw,12,1651,343
Raw,6,1661,343
Raw,16,1667,343
Raw,14,1670,343
Raw,11,1673,343
Raw,24,1673,343
Raw,21,1675,343
Raw,11,1675,343
Raw,11,1691,343
Raw,11,1693,343
Raw,46,1694,343
Raw,14,1704,343
Raw,13,1706,343
Raw,22,1707,343
Raw,37,1708,343
Raw,15,1714,343
Raw,34,1717,343
Raw,17,1719,343
Raw,46,1719,343
Raw,5,1732,343
Raw,39,1733,343
Raw,50,1742,343
Raw,24,1745,343
Raw,38,1750,343
Raw,12,1760,343
Raw,14,1761,343
Raw,18,1767,343
Raw,10,1767,343
Raw,12,1768,343
Raw,14,1768,343
Raw,20,1776,343
Raw,5,1779,343
Raw,38,1780,343
Raw,20,1785,343
Raw,15,1787,343
Raw,18,1790,343
Raw,12,1797,343
Raw,53,1803,343
Raw,20,1818,343
Raw,23,1821,343
Raw,17,1821,343
Raw,25,1822,343
Raw,23,1826,343
Raw,11,1831,343
Raw,3,1831,343
Raw,39,1848,343
Raw,9,1850,343
Raw,32,1853,343
Raw,17,1853,343
Raw,3,1853,343
Raw,21,1859,343
Raw,17,1860,343
Raw,8,1864,343
Raw,15,1866,343
Raw,12,1872,343
Raw,6,1875,343
Raw,36,1884,343
Raw,17,1890,343
Raw,29,1891,343
Raw,38,1897,343
Raw,49,1903,343
Raw,22,1904,343
Raw,20,1908,343
Raw,15,1909,343
Raw,30,1910,343
Raw,22,1916,343
Raw,19,1917,343
Raw,13,1922,343
Raw,7,1925,343
Raw,16,1926,343
Raw,43,1928,343
Raw,22,1930,343
Raw,40,1930,343
Raw,20,1933,343
Raw,14,1934,343
Raw,15,1942,343
Raw,26,1950,343
Raw,46,1955,343
Raw,14,1956,343
Raw,34,1959,343
Raw,8,1959,343
Raw,12,1961,343
Raw,14,1961,343
Raw,24,1968,343
Raw,19,1968,343
Raw,32,1970,343
Raw,19,1987,343
Raw,15,1987,343
Raw,12,1990,343
Raw,20,2018,343
Raw,7,2022,343
Raw,23,2034,343
Raw,13,2039,343
Raw,16,2039,343
Raw,16,2040,343
Raw,18,2040,343
Raw,18,2044,343
Raw,53,2048,343
Raw,33,2049,343
Raw,27,2054,343
Raw,10,2055,343
Raw,3,2055,343
Raw,11,2068,343
Raw,17,2069,343
Raw,18,2076,343
Raw,8,2076,343
Raw,17,2079,343
Raw,8,2079,343
Raw,13,2082,343
Raw,24,2082,343
Raw,13,2094,343
Raw,20,2100,343
Raw,11,2100,343
Raw,9,2103,343
Raw,12,2103,343
Raw,12,2112,343
Raw,17,2112,343
Raw,18,2113,343
Raw,43,2113,343
Raw,16,2114,343
Raw,20,2119,343
Raw,19,2119,343
Raw,11,2119,343
Raw,23,2120,343
Raw,18,2133,343
Raw,25,2135,343
Raw,5,2142,343
Raw,30,2143,343
Raw,16,2146,343
Raw,26,2149,343
Raw,13,2151,343
Raw,23,2157,343
Raw,52,2157,343
Raw,7,2159,343
Raw,39,2165,343
Raw,17,2174,343
Raw,41,2179,343
Raw,52,2184,343
Raw,16,2186,343
Raw,23,2186,343
Raw,19,2190,343
Raw,32,2191,343
Raw,27,2192,343
Raw,10,2194,343
Raw,47,2204,343
Raw,9,2218,343
Raw,5,2223,343
Raw,13,2229,343
Raw,16,2238,343
Raw,48,2239,343
Raw,25,2245,343
Raw,34,2252,343
Raw,16,2252,343
Raw,13,2254,343
Raw,16,2256,343
Raw,3,2256,343
Raw,33,2259,343
Raw,13,2263,343
Raw,22,2268,343
Raw,18,2271,343
Raw,18,2275,343
Raw,13,2275,343
Raw,16,2280,343
Raw,25,2281,343
Raw,28,2284,343
Raw,19,2284,343
Raw,45,2288,343
Raw,22,2292,343
Raw,13,2292,343
Raw,18,2310,343
Raw,20,2313,343
Raw,43,2316,343
Raw,12,2323,343
Raw,26,2326,343
Raw,16,2334,343
Raw,15,2338,343
Raw,13,2361,343
Raw,24,2363,343
Raw,50,2365,343
Raw,14,2366,343
Raw,14,2369,343
Raw,17,2369,343
Raw,8,2382,343
Raw,40,2384,343
Raw,24,2389,343
Raw,20,2390,343
Raw,31,2391,343
Raw,11,2394,343
Raw,11,2394,343
Raw,21,2394,343
Raw,34,2397,343
Raw,32,2401,343
Raw,27,2402,343
Raw,12,2403,343
Raw,13,2408,343
Raw,17,2415,343
Raw,49,2419,343
Raw,10,2422,343
Raw,13,2422,343
Raw,9,2432,343
Raw,30,2438,343
Raw,12,2440,343
Raw,12,2444,343
Raw,45,2445,343
Raw,18,2448,343
Raw,11,2448,343
Raw,40,2452,343
Raw,32,2463,343
Raw,44,2468,343
Raw,37,2478,343
Raw,29,2484,343
Raw,18,2485,343
Raw,16,2496,343
Raw,18,2500,343
Raw,17,2500,343
Raw,16,2509,343
Raw,24,2515,343
Raw,22,2516,343
Raw,35,2517,343
Raw,35,2519,343
Raw,10,2524,343
Raw,27,2527,343
Raw,18,2527,343
Raw,6,2533,343
Raw,42,2542,343
Raw,20,2552,343
Raw,21,2556,343
Raw,22,2557,343
Raw,30,2562,343
Raw,13,2562,343
Raw,45,2564,343
Raw,13,2568,343
Raw,19,2568,343
Raw,24,2573,343
Raw,21,2579,343
Raw,15,2579,343
Raw,13,2585,343
Raw,12,2585,343
Raw,8,2589,343
Raw,7,2602,343
Raw,18,2606,343
Raw,53,2613,343
Raw,17,2614,343
Raw,20,2633,343
Raw,10,2649,343
Raw,51,2650,343
Raw,15,2651,343
Raw,18,2655,343
Raw,16,2656,343
Raw,17,2671,343
Raw,44,2680,343
Raw,28,2681,343
Raw,43,2689,343
Raw,16,2690,343
Raw,15,2695,343
Raw,30,2706,343
Raw,21,2706,343
Raw,17,2708,343
Raw,45,2714,343
Raw,19,2715,343
Raw,37,2721,343
Raw,49,2723,343
Raw,18,2751,343
Raw,42,2758,343
Raw,18,2768,343
Raw,12,2775,343
Raw,16,2779,343
Raw,14,2783,343
Raw,25,2793,343
Raw,31,2798,343
Raw,13,2804,343
Raw,9,2804,343
Raw,22,2807,343
Raw,9,2810,343
Raw,15,2812,343
Raw,19,2812,343
Raw,9,2819,343
Raw,21,2824,343
Raw,34,2829,343
Raw,13,2847,343
Raw,27,2858,343
Raw,26,2860,343
Raw,21,2866,343
Raw,20,2872,343
Raw,43,2875,343
Raw,21,2882,343
Raw,41,2885,343
Raw,19,2900,343
Raw,15,2900,343
Raw,10,2902,343
Raw,10,2906,343
Raw,17,2906,343
Raw,16,2906,343
Raw,35,2909,343
Raw,18,2909,343
Raw,17,2910,343
Raw,9,2911,343
Raw,10,2915,343
Raw,22,2916,343
Raw,46,2917,343
Raw,15,2918,343
Raw,18,2924,343
Raw,16,2925,343
Raw,12,2925,343
Raw,9,2932,343
Raw,14,2935,343
Raw,16,2936,343
Raw,35,2943,343
Raw,13,2946,343
Raw,13,2949,343
Raw,5,2949,343
Raw,27,2953,343
Raw,13,2958,343
Raw,14,2959,343
Raw,6,2961,343
Raw,28,2963,343
Raw,9,2963,343
Raw,22,2964,343
Raw,16,2965,343
Raw,31,2970,343
Raw,30,2976,343
Raw,27,2976,343
Raw,31,2977,343
Raw,44,2978,343
Raw,22,2987,343
Raw,25,2988,343
Raw,32,2989,343
Raw,48,2990,343
Raw,11,2991,343
Raw,16,3012,343
Raw,12,3013,343
Raw,30,3015,343
Raw,16,3019,343
Raw,48,3024,343
Raw,36,3028,343
Raw,14,3028,343
Raw,24,3029,343
Raw,7,3029,343
Raw,23,3031,343
Raw,39,3034,343
Raw,27,3035,343
Raw,15,3049,343
Raw,8,3049,343
Raw,21,3052,343
Raw,21,3054,343
Raw,11,3054,343
Raw,16,3058,343
Raw,19,3072,343
Raw,24,3074,343
Raw,16,3094,343
Raw,9,3096,343
Raw,17,3099,343
Raw,37,3101,343
Raw,15,3103,343
Raw,14,3111,343
Raw,16,3111,343
Raw,11,3113,343
Raw,20,3115,343
Raw,24,3115,343
Raw,19,3118,343
Raw,18,3129,343
Raw,12,3136,343
Raw,10,3142,343
Raw,17,3142,343
Raw,21,3164,343
Raw,21,3167,343
Raw,13,3182,343
Raw,18,3186,343
Raw,19,3186,343
Raw,9,3188,343
Raw,7,3190,343
Raw,17,3194,343
Raw,9,3195,343
Raw,18,3199,343
Raw,15,3200,343
Raw,6,3202,343
Raw,6,3203,343
Raw,15,3211,343
Raw,19,3211,343
Raw,36,3212,343
Raw,25,3219,343
Raw,20,3223,343
Raw,17,3225,343
Raw,6,3225,343
Raw,33,3231,343
Raw,9,3236,343
Raw,8,3239,343
Raw,32,3239,343
Raw,23,3240,343
Raw,18,3242,343
Raw,11,3250,343
Raw,44,3260,343
Raw,19,3260,343
Raw,24,3268,343
Raw,17,3275,343
Raw,20,3276,343
Raw,18,3276,343
Raw,28,3280,343
Raw,7,3286,343
Raw,19,3286,343
Raw,16,3288,343
Raw,28,3308,343
Raw,25,3308,343
Raw,18,3310,343
Raw,18,3311,343
Raw,15,3314,343
Raw,16,3329,343
Raw,11,3355,343
Raw,37,3355,343
Raw,8,3359,343
Raw,12,3369,343
Raw,47,3370,343
Raw,51,3379,343
Raw,19,3385,343
Raw,26,3392,343
Raw,18,3392,343
Raw,38,3395,343
Raw,10,3396,343
Raw,28,3400,343
Raw,17,3404,343
Raw,18,3405,343
Raw,32,3406,343
Raw,14,3408,343
Raw,11,3408,343
Raw,38,3409,343
Raw,42,3411,343
Raw,21,3416,343
Raw,32,3418,343
Raw,22,3427,343
Raw,17,3430,343
Raw,19,3432,343
Raw,18,3436,343
Raw,10,3438,343
Raw,30,3441,343
Raw,25,3449,343
Raw,31,3454,343
Raw,18,3458,343
Raw,15,3458,343
Raw,14,3458,343
Raw,12,3460,343
Raw,40,3460,343
Raw,16,3463,343
Raw,12,3465,343
Raw,34,3465,343
Raw,50,3471,343
Raw,38,3472,343
Raw,4,3472,343
Raw,39,3475,343
Raw,17,3476,343
Raw,7,3476,343
Raw,17,3476,343
Raw,27,3478,343
Raw,8,3478,343
Raw,14,3482,343
Raw,14,3499,343
Raw,11,3502,343
Raw,14,3507,343
Raw,16,3507,343
Raw,20,3512,343
Raw,12,3512,343
Raw,13,3512,343
Raw,20,3513,343
Raw,15,3515,343
Raw,17,3519,343
Raw,20,3524,343
Raw,9,3530,343
Raw,31,3535,343
Raw,26,3537,343
Raw,41,3547,343
Raw,8,3554,343
Raw,22,3556,343
Raw,17,3556,343
Raw,9,3566,343
Raw,12,3579,343
Raw,39,3581,343
Raw,9,3591,343
Raw,7,3594,343
Raw,26,3595,343
Raw,10,3601,343
Raw,22,3617,343
Raw,23,3634,343
Raw,4,3634,343
Raw,18,3656,343
Raw,18,3656,343
Raw,22,3661,343
Raw,45,3668,343
Raw,17,3668,343
Raw,41,3674,343
Raw,42,3677,343
Raw,9,3688,343
Raw,17,3689,343
Raw,3,3689,343
Raw,19,3697,343
Raw,14,3703,343
Raw,16,3704,343
Raw,41,3705,343
Raw,5,3709,343
Raw,16,3709,343
Raw,3,3709,343
Raw,4,3712,343
Raw,19,3713,343
Raw,19,3713,343
Raw,17,3715,343
Raw,9,3719,343
Raw,16,3721,343
Raw,20,3722,343
Raw,12,3722,343
Raw,13,3724,343
Raw,24,3725,343
Raw,11,3725,343
Raw,30,3727,343
Raw,15,3727,343
Raw,5,3728,343
Raw,16,3732,343
Raw,3,3732,343
Raw,13,3734,343
Raw,10,3737,343
Raw,17,3739,343
Raw,49,3740,343
Raw,5,3743,343
Raw,14,3743,343
Raw,20,3746,343
Raw,22,3748,343
Raw,7,3752,343
Raw,15,3752,343
Raw,22,3758,343
Raw,17,3772,343
Raw,20,3778,343
Raw,31,3780,343
Raw,9,3785,343
Raw,39,3785,343
Raw,22,3804,343
Raw,18,3820,343
Raw,30,3821,343
Raw,21,3834,343
Raw,11,3837,343
Raw,52,3837,343
Raw,12,3838,343
Raw,39,3840,343
Raw,8,3850,343
Raw,10,3854,343
Raw,30,3855,343
Raw,35,3855,343
Raw,24,3862,343
Raw,10,3864,343
Raw,17,3867,343
Raw,13,3869,343
Raw,20,3869,343
Raw,35,3875,343
Raw,37,3877,343
Raw,9,3877,343
Raw,22,3879,343
Raw,14,3884,343
Raw,24,3889,343
Raw,6,3889,343
Raw,32,3891,343
Raw,15,3897,343
Raw,14,3897,343
Raw,20,3901,343
Raw,24,3901,343
Raw,14,3902,343
Raw,17,3914,343
Raw,16,3914,343
Raw,9,3914,343
Raw,12,3921,343
Raw,9,3921,343
Raw,16,3924,343
Raw,35,3929,343
Raw,34,3935,343
Raw,23,3942,343
Raw,18,3946,343
Raw,40,3948,343
Raw,4,3954,343
Raw,17,3954,343
Raw,33,3955,343
Raw,43,3956,343
Raw,28,3972,343
Raw,17,3973,343
Raw,12,3973,343
Raw,53,3978,343
Raw,7,3978,343
Raw,16,3980,343
Raw,19,3981,343
Raw,49,3982,343
Raw,9,3987,343
Raw,16,3990,343
Raw,9,3990,343
Raw,19,3993,343
Raw,17,3993,343
Raw,16,3994,343
Raw,20,3996,343
Raw,11,3996,343
Raw,21,3998,343
Raw,26,3999,343
Raw,7,4003,343
Raw,17,4006,343
Raw,5,4006,343
Raw,23,4009,343
Raw,17,4009,343
Raw,25,4012,343
Raw,12,4013,343
Raw,13,4026,343
Raw,8,4026,343
Raw,9,4027,343
Raw,11,4029,343
Raw,20,4045,343
Raw,25,4045,343
Raw,52,4046,343
Raw,15,4047,343
Raw,14,4049,343
Raw,43,4054,343
Raw,14,4060,343
Raw,23,4063,343
Raw,45,4065,343
Raw,22,4071,343
Raw,11,4071,343
Raw,24,4073,343
Raw,20,4099,343
Raw,13,4103,343
Raw,45,4107,343
Raw,21,4116,343
Raw,22,4119,343
Raw,36,4121,343
Raw,15,4122,343
Raw,45,4122,343
Raw,38,4134,343
Raw,23,4134,343
Raw,21,4140,343
Raw,19,4142,343
Raw,16,4142,343
Raw,12,4143,343
Raw,16,4146,343
Raw,14,4147,343
Raw,8,4151,343
Raw,13,4151,343
Raw,28,4152,343
Raw,13,4160,343
Raw,17,4163,343
Raw,31,4166,343
Raw,24,4182,343
Raw,12,4182,343
Raw,13,4192,343
Raw,13,4205,343
Raw,32,4214,343
Raw,25,4217,343
Raw,3,4242,343
Raw,27,4244,343
Raw,14,4248,343
Raw,28,4258,343
Raw,15,4261,343
Raw,12,4271,343
Raw,31,4272,343
Raw,9,4274,343
Raw,21,4285,343
Raw,19,4288,343
Raw,18,4292,343
Raw,18,4292,343
Raw,41,4293,343
Raw,33,4297,343
Raw,34,4306,343
Raw,46,4309,343
Raw,34,4315,343
Raw,25,4319,343
Raw,23,4328,343
Raw,15,4328,343
Raw,20,4336,343
Raw,25,4342,343
Raw,21,4342,343
Raw,19,4343,343
Raw,18,4343,343
Raw,20,4347,343
Raw,15,4351,343
Raw,17,4352,343
Raw,15,4353,343
Raw,14,4353,343
Raw,18,4353,343
Raw,5,4356,343
Raw,50,4356,343
Raw,18,4361,343
Raw,23,4367,343
Raw,8,4368,343
Raw,11,4376,343
Raw,24,4379,343
Raw,7,4379,343
Raw,12,4388,343
Raw,15,4394,343
Raw,20,4407,343
Raw,16,4407,343
Raw,17,4417,343
Raw,27,4417,343
Raw,20,4423,343
Raw,33,4430,343
Raw,8,4438,343
Raw,39,4442,343
Raw,20,4444,343
Raw,21,4449,343
Raw,11,4451,343
Raw,18,4451,343
Raw,21,4452,343
Raw,32,4452,343
Raw,11,4455,343
Raw,3,4455,343
Raw,25,4459,343
Raw,16,4460,343
Raw,9,4460,343
Raw,33,4467,343
Raw,46,4496,343
Raw,15,4496,343
Raw,16,4498,343
Raw,8,4498,343
Raw,27,4510,343
Raw,28,4512,343
Raw,9,4512,343
Raw,10,4516,343
Raw,38,4528,343
Raw,17,4530,343
Raw,14,4535,343
Raw,20,4540,343
Raw,9,4545,343
Raw,10,4545,343
Raw,29,4548,343
Raw,16,4553,343
Raw,13,4553,343
Raw,10,4562,343
Raw,11,4562,343
Raw,11,4583,343
Raw,11,4588,343
Raw,21,4589,343
Raw,23,4590,343
Raw,19,4590,343
Raw,12,4595,343
Raw,18,4596,343
Raw,44,4596,343
Raw,9,4598,343
Raw,4,4598,343
Raw,38,4605,343
Raw,24,4606,343
Raw,16,4611,343
Raw,37,4613,343
Raw,11,4618,343
Raw,18,4618,343
Raw,18,4623,343
Raw,15,4623,343
Raw,17,4626,343
Raw,9,4627,343
Raw,9,4629,343
Raw,17,4630,343
Raw,14,4630,343
Raw,15,4637,343
Raw,35,4637,343
Raw,10,4653,343
Raw,15,4653,343
Raw,14,4653,343
Raw,18,4659,343
Raw,18,4678,343
Raw,12,4679,343
Raw,40,4679,343
Raw,21,4687,343
Raw,14,4687,343
Raw,15,4688,343
Raw,35,4696,343
Raw,19,4696,343
Raw,16,4727,343
Raw,16,4732,343
Raw,21,4732,343
Raw,45,4736,343
Raw,12,4740,343
Raw,36,4741,343
Raw,19,4750,343
Raw,24,4757,343
Raw,39,4757,343
Raw,14,4759,343
Raw,17,4763,343
Raw,3,4763,343
Raw,10,4768,343
Raw,16,4779,343
Raw,15,4784,343
Raw,11,4790,343
Raw,47,4797,343
Raw,9,4804,343
Raw,15,4805,343
Raw,14,4806,343
Raw,51,4808,343
Raw,49,4810,343
Raw,9,4813,343
Raw,27,4819,343
Raw,15,4820,343
Raw,19,4832,343
Raw,17,4837,343
Raw,22,4842,343
Raw,13,4844,343
Raw,41,4844,343
Raw,12,4846,343
Raw,17,4850,343
Raw,6,4850,343
Raw,39,4852,343
Raw,15,4854,343
Raw,13,4855,343
Raw,9,4855,343
Raw,13,4855,343
Raw,11,4858,343
Raw,13,4862,343
Raw,18,4869,343
Raw,35,4872,343
Raw,17,4875,343
Raw,46,4875,343
Raw,16,4883,343
Raw,10,4885,343
Raw,15,4886,343
Raw,23,4891,343
Raw,10,4899,343
Raw,28,4901,343
Raw,27,4915,343
Raw,22,4915,343
Raw,8,4918,343
Raw,50,4919,343
Raw,12,4926,343
Raw,3,4933,343
Raw,27,4945,343
Raw,12,4952,343
Raw,13,4957,343
Raw,12,4964,343
Raw,15,4964,343
Raw,21,4965,343
Raw,17,4967,343
Raw,24,4967,343
Raw,4,4967,343
Raw,24,4970,343
Raw,20,4970,343
Raw,27,4972,343
Raw,11,4975,343
Raw,33,4975,343
Raw,29,4983,343
Raw,23,4984,343
Raw,16,4986,343
Raw,24,4995,343
Raw,16,4999,343
Raw,16,5006,343
Raw,6,5015,343
Raw,38,5029,343
Raw,17,5029,343
Raw,26,5036,343
Raw,3,5037,343
Raw,14,5040,343
Raw,18,5040,343
Raw,38,5043,343
Raw,18,5044,343
Raw,21,5045,343
Raw,36,5048,343
Raw,20,5050,343
Raw,24,5060,343
Raw,37,5069,343
Raw,23,5070,343
Raw,21,5076,343
Raw,11,5077,343
Raw,23,5077,343
Raw,11,5077,343
Raw,18,5082,343
Raw,20,5095,343
Raw,27,5097,343
Raw,10,5097,343
Raw,29,5099,343
Raw,19,5111,343
Raw,14,5123,343
Raw,20,5135,343
Raw,12,5135,343
Raw,16,5137,343
Raw,21,5145,343
Raw,4,5145,343
Raw,18,5148,343
Raw,30,5148,343
Raw,18,5151,343
Raw,13,5154,343
Raw,31,5158,343
Raw,40,5158,343
Raw,32,5174,343
Raw,18,5176,343
Raw,8,5178,343
Raw,19,5179,343
Raw,21,5183,343
Raw,5,5183,343
Raw,6,5187,343
Raw,24,5188,343
Raw,9,5188,343
Raw,19,5195,343
Raw,39,5196,343
Raw,21,5197,343
Raw,20,5199,343
Raw,14,5209,343
Raw,17,5219,343
Raw,46,5220,343
Raw,4,5224,343
Raw,47,5233,343
Raw,37,5239,343
Raw,7,5240,343
Raw,17,5240,343
Raw,20,5242,343
Raw,10,5242,343
Raw,16,5251,343
Raw,52,5267,343
Raw,14,5269,343
Raw,17,5270,343
Raw,34,5272,343
Raw,39,5276,343
Raw,42,5277,343
Raw,15,5280,343
Raw,53,5283,343
Raw,19,5288,343
Raw,17,5293,343
Raw,11,5300,343
Raw,10,5303,343
Raw,26,5307,343
Raw,20,5316,343
Raw,10,5324,343
Raw,13,5325,343
Raw,10,5337,343
Raw,25,5344,343
Raw,13,5344,343
Raw,51,5350,343
Raw,18,5357,343
Raw,8,5357,343
Raw,51,5362,343
Raw,14,5363,343
Raw,4,5364,343
Raw,27,5369,343
Raw,18,5373,343
Raw,21,5383,343
Raw,15,5394,343
Raw,10,5394,343
Raw,28,5396,343
Raw,20,5397,343
Raw,20,5397,343
Raw,20,5407,343
Raw,31,5418,343
Raw,13,5418,343
Raw,30,5421,343
Raw,51,5424,343
Raw,6,5429,343
Raw,21,5430,343
Raw,13,5430,343
Raw,18,5434,343
Raw,21,5435,343
Raw,35,5438,343
Raw,16,5439,343
Raw,19,5443,343
Raw,27,5445,343
Raw,7,5458,343
Raw,42,5459,343
Raw,17,5461,343
Raw,49,5483,343
Raw,14,5487,343
Raw,14,5492,343
Raw,9,5498,343
Raw,10,5499,343
Raw,21,5500,343
Raw,12,5500,343
Raw,20,5504,343
Raw,17,5506,343
Raw,35,5507,343
Raw,23,5514,343
Raw,11,5515,343
Raw,32,5522,343
Raw,18,5525,343
Raw,7,5525,343
Raw,43,5526,343
Raw,15,5532,343
Raw,20,5532,343
Raw,24,5538,343
Raw,20,5542,343
Raw,40,5543,343
Raw,13,5545,343
Raw,32,5546,343
Raw,17,5565,343
Raw,14,5579,343
Raw,16,5581,343
Raw,16,5581,343
Raw,20,5587,343
Raw,50,5591,343
Raw,32,5592,343
Raw,23,5595,343
Raw,27,5601,343
Raw,9,5603,343
Raw,39,5610,343
Raw,27,5610,343
Raw,15,5614,343
Raw,18,5614,343
Raw,19,5621,343
Raw,11,5621,343
Raw,16,5621,343
Raw,28,5625,343
Raw,14,5631,343
Raw,19,5633,343
Raw,5,5634,343
Raw,15,5635,343
Raw,8,5637,343
Raw,40,5655,343
Raw,18,5660,343
Raw,12,5660,343
Raw,10,5663,343
Raw,36,5665,343
Raw,32,5672,343
Raw,17,5673,343
Raw,20,5686,343
Raw,15,5702,343
Raw,29,5702,343
Raw,37,5703,343
Raw,21,5704,343
Raw,12,5709,343
Raw,19,5712,343
Raw,46,5712,343
Raw,16,5718,343
Raw,20,5726,343
Raw,7,5726,343
Raw,18,5729,343
Raw,17,5734,343
Raw,10,5741,343
Raw,16,5746,343
Raw,38,5748,343
Raw,34,5755,343
Raw,18,5757,343
Raw,20,5757,343
Raw,8,5758,343
Raw,20,5775,343
Raw,17,5777,343
Raw,19,5779,343
Raw,9,5779,343
Raw,14,5787,343
Raw,31,5789,343
Raw,14,5790,343
Raw,15,5800,343
Raw,17,5800,343
Raw,14,5807,343
Raw,50,5811,343
Raw,15,5813,343
Raw,14,5814,343
Raw,16,5822,343
Raw,29,5822,343
Raw,36,5824,343
Raw,20,5824,343
Raw,4,5824,343
Raw,15,5870,343
Raw,9,5871,343
Raw,6,5873,343
Raw,10,5876,343
Raw,41,5885,343
Raw,24,5894,343
Raw,16,5897,343
Raw,19,5899,343
Raw,17,5904,343
Raw,24,5912,343
Raw,6,5918,343
Raw,11,5934,343
Raw,26,5942,343
Raw,12,5942,343
Raw,17,5947,343
Raw,4,5947,343
Raw,11,5953,343
Raw,18,5957,343
Raw,18,5962,343
Raw,24,5967,343
Raw,15,5967,343
Raw,7,5971,343
Raw,7,5975,343
Raw,9,5975,343
Raw,17,5979,343
Raw,32,5984,343
Raw,34,5989,343
Raw,49,5992,343
Raw,16,5995,343
Raw,18,5999,343
Raw,16,5999,343
Raw,45,6009,343
Raw,13,6009,343
Raw,34,6017,343
Raw,12,6018,343
Raw,11,6019,343
Raw,18,6019,343
Raw,5,6021,343
Raw,17,6021,343
Raw,32,6022,343
Raw,18,6027,343
Raw,25,6030,343
Raw,7,6030,343
Raw,13,6031,343
Raw,11,6036,343
Raw,21,6037,343
Raw,21,6037,343
Raw,20,6038,343
Raw,9,6038,343
Raw,28,6039,343
Raw,28,6053,343
Raw,22,6065,343
Raw,16,6067,343
Raw,18,6067,343
Raw,11,6069,343
Raw,12,6078,343
Raw,13,6080,343
Raw,13,6080,343
Raw,17,6081,343
Raw,22,6086,343
Raw,7,6102,343
Raw,38,6102,343
Raw,9,6106,343
Raw,24,6113,343
Raw,9,6113,343
Raw,18,6113,343
Raw,10,6118,343
Raw,37,6121,343
Raw,14,6124,343
Raw,36,6126,343
Raw,13,6126,343
Raw,48,6134,343
Raw,30,6141,343
Raw,18,6142,343
Raw,21,6144,343
Raw,18,6147,343
Raw,40,6147,343
Raw,19,6150,343
Raw,18,6155,343
Raw,20,6176,343
Raw,15,6176,343
Raw,47,6178,343
Raw,19,6179,343
Raw,27,6179,343
Raw,9,6180,343
Raw,14,6180,343
Raw,11,6184,343
Raw,12,6185,343
Raw,15,6185,343
Raw,19,6213,343
Raw,13,6224,343
Raw,40,6224,343
Raw,12,6227,343
Raw,39,6230,343
Raw,24,6237,343
Raw,33,6237,343
Raw,16,6248,343
Raw,51,6255,343
Raw,11,6265,343
Raw,14,6268,343
Raw,20,6273,343
Raw,21,6280,343
Raw,22,6280,343
Raw,20,6283,343
Raw,40,6283,343
Raw,16,6288,343
Raw,21,6289,343
Raw,20,6292,343
Raw,23,6292,343
Raw,20,6300,343
Raw,11,6300,343
Raw,9,6305,343
Raw,8,6305,343
Raw,14,6307,343
Raw,17,6310,343
Raw,3,6310,343
Raw,19,6312,343
Raw,18,6317,343
Raw,8,6317,343
Raw,20,6318,343
Raw,24,6328,343
Raw,15,6328,343
Raw,27,6335,343
Raw,17,6338,343
Raw,12,6338,343
Raw,8,6342,343
Raw,17,6342,343
Raw,18,6343,343
Raw,24,6346,343
Raw,9,6355,343
Raw,33,6355,343
Raw,10,6360,343
Raw,15,6362,343
Raw,17,6362,343
Raw,21,6363,343
Raw,9,6363,343
Raw,38,6364,343
Raw,10,6369,343
Raw,12,6370,343
Raw,14,6371,343
Raw,15,6372,343
Raw,4,6372,343
Raw,14,6380,343
Raw,5,6392,343
Raw,16,6405,343
Raw,5,6411,343
Raw,14,6420,343
Raw,18,6430,343
Raw,16,6432,343
Raw,25,6433,343
Raw,19,6448,343
Raw,19,6451,343
Raw,21,6453,343
Raw,20,6456,343
Raw,17,6457,343
Raw,22,6461,343
Raw,5,6464,343
Raw,31,6464,343
Raw,18,6464,343
Raw,18,6470,343
Raw,10,6470,343
Raw,21,6490,343
Raw,11,6490,343
Raw,13,6496,343
Raw,14,6500,343
Raw,21,6502,343
Raw,14,6502,343
Raw,13,6520,343
Raw,46,6524,343
Raw,29,6526,343
Raw,15,6530,343
Raw,14,6532,343
Raw,16,6535,343
Raw,8,6535,343
Raw,42,6536,343
Raw,34,6539,343
Raw,17,6539,343
Raw,23,6540,343
Raw,15,6540,343
Raw,14,6542,343
Raw,16,6545,343
Raw,42,6549,343
Raw,14,6554,343
Raw,29,6555,343
Raw,15,6555,343
Raw,23,6557,343
Raw,20,6567,343
Raw,47,6570,343
Raw,27,6586,343
Raw,19,6588,343
Raw,11,6592,343
Raw,48,6594,343
Raw,17,6595,343
Raw,29,6597,343
Raw,19,6604,343
Raw,12,6606,343
Raw,15,6609,343
Raw,8,6614,343
Raw,17,6614,343
Raw,11,6620,343
Raw,33,6623,343
Raw,19,6625,343
Raw,6,6627,343
Raw,7,6628,343
Raw,11,6631,343
Raw,25,6636,343
Raw,11,6641,343
Raw,17,6643,343
Raw,19,6655,343
Raw,35,6662,343
Raw,14,6668,343
Raw,43,6668,343
Raw,13,6668,343
Raw,24,6669,343
Raw,18,6671,343
Raw,7,6671,343
Raw,20,6673,343
Raw,43,6675,343
Raw,28,6677,343
Raw,53,6681,343
Raw,26,6684,343
Raw,9,6684,343
Raw,19,6684,343
Raw,24,6690,343
Raw,8,6690,343
Raw,11,6706,343
Raw,14,6709,343
Raw,16,6723,343
Raw,24,6729,343
Raw,10,6737,343
Raw,39,6753,343
Raw,16,6760,343
Raw,45,6762,343
Raw,13,6767,343
Raw,12,6768,343
Raw,17,6771,343
Raw,12,6771,343
Raw,15,6777,343
Raw,23,6778,343
Raw,13,6780,343
Raw,33,6781,343
Raw,15,6782,343
Raw,21,6783,343
Raw,14,6784,343
Raw,17,6789,343
Raw,17,6789,343
Raw,22,6791,343
Raw,18,6796,343
Raw,12,6796,343
Raw,20,6807,343
Raw,5,6807,343
Raw,22,6809,343
Raw,6,6811,343
Raw,21,6815,343
Raw,8,6818,343
Raw,13,6818,343
Raw,14,6822,343
Raw,16,6822,343
Raw,14,6822,343
Raw,18,6824,343
Raw,18,6824,343
Raw,22,6827,343
Raw,8,6829,343
Raw,4,6829,343
Raw,7,6849,343
Raw,19,6852,343
Raw,12,6853,343
Raw,19,6853,343
Raw,17,6859,343
Raw,8,6859,343
Raw,17,6862,343
Raw,35,6862,343
Raw,3,6868,343
Raw,28,6872,343
Raw,28,6873,343
Raw,29,6876,343
Raw,30,6878,343
Raw,21,6883,343
Raw,13,6892,343
Raw,20,6896,343
Raw,12,6896,343
Raw,11,6900,343
Raw,13,6905,343
Raw,27,6913,343
Raw,12,6917,343
Raw,36,6917,343
Raw,21,6920,343
Raw,17,6924,343
Raw,21,6928,343
Raw,19,6934,343
Raw,20,6935,343
Raw,21,6935,343
Raw,38,6943,343
Raw,16,6943,343
Raw,11,6944,343
Raw,17,6944,343
Raw,13,6947,343
Raw,13,6957,343
Raw,15,6963,343
Raw,12,6964,343
Raw,12,6964,343
Raw,8,6964,343
Raw,14,6965,343
Raw,53,6970,343
Raw,21,6977,343
Raw,18,6978,343
Raw,34,6983,343
Raw,9,6985,343
Raw,14,6985,343
Raw,21,6987,343
Raw,21,6993,343
Raw,15,7002,343
Raw,9,7005,343
Raw,16,7007,343
Raw,18,7009,343
Raw,16,7013,343
Raw,22,7015,343
Raw,21,7018,343
Raw,37,7021,343
Raw,21,7031,343
Raw,23,7034,343
Raw,17,7034,343
Raw,9,7040,343
Raw,16,7040,343
Raw,20,7046,343
Raw,13,7047,343
Raw,14,7047,343
Raw,21,7050,343
Raw,14,7056,343
Raw,31,7059,343
Raw,35,7072,343
Raw,32,7074,343
Raw,28,7077,343
Raw,18,7081,343
Raw,14,7081,343
Raw,16,7087,343
Raw,17,7095,343
Raw,13,7096,343
Raw,7,7107,343
Raw,16,7107,343
Raw,17,7112,343
Raw,29,7112,343
Raw,15,7119,343
Raw,40,7119,343
Raw,20,7123,343
Raw,16,7124,343
Raw,13,7131,343
Raw,17,7136,343
Raw,18,7139,343
Raw,19,7153,343
Raw,17,7157,343
Raw,24,7160,343
Raw,17,7161,343
Raw,17,7162,343
Raw,45,7165,343
Raw,24,7166,343
Raw,15,7167,343
Raw,14,7168,343
Raw,38,7168,343
Raw,13,7170,343
Raw,21,7170,343
Raw,23,7174,343
Raw,9,7174,343
Raw,35,7177,343
Raw,14,7182,343
Raw,32,7187,343
Raw,7,7189,343
Raw,19,7190,343
Raw,15,7200,343
Raw,10,7201,343
Raw,21,7214,343
Raw,17,7214,343
Raw,14,7218,343
Raw,17,7225,343
Raw,11,7225,343
Raw,13,7238,343
Raw,16,7245,343
Raw,11,7256,343
Raw,45,7256,343
Raw,10,7256,343
Raw,32,7268,343
Raw,41,7287,343
Raw,22,7288,343
Raw,4,7291,343
Raw,20,7299,343
Raw,11,7304,343
Raw,17,7304,343
Raw,5,7310,343
Raw,19,7313,343
Raw,40,7315,343
Raw,39,7315,343
Raw,13,7323,343
Raw,20,7334,343
Raw,15,7336,343
Raw,9,7342,343
Raw,12,7349,343
Raw,16,7350,343
Raw,16,7350,343
Raw,45,7357,343
Raw,35,7367,343
Raw,3,7368,343
Raw,8,7370,343
Raw,16,7372,343
Raw,16,7372,343
Raw,11,7380,343
Raw,26,7381,343
Raw,17,7384,343
Raw,10,7390,343
Raw,39,7390,343
Raw,10,7395,343
Raw,21,7396,343
Raw,16,7397,343
Raw,36,7401,343
Raw,27,7413,343
Raw,18,7414,343
Raw,14,7418,343
Raw,5,7423,343
Raw,25,7425,343
Raw,8,7435,343
Raw,20,7436,343
Raw,17,7440,343
Raw,10,7443,343
Raw,21,7444,343
Raw,23,7445,343
Raw,26,7454,343
Raw,16,7454,343
Raw,13,7459,343
Raw,15,7464,343
Raw,16,7468,343
Raw,16,7468,343
Raw,17,7469,343
Raw,20,7474,343
Raw,16,7482,343
Raw,20,7486,343
Raw,26,7487,343
Raw,8,7487,343
Raw,38,7491,343
Raw,12,7493,343
Raw,28,7502,343
Raw,11,7502,343
Raw,17,7507,343
Raw,15,7514,343
Raw,31,7520,343
Raw,18,7521,343
Raw,45,7533,343
Raw,14,7536,343
Raw,21,7537,343
Raw,20,7542,343
Raw,20,7545,343
Raw,12,7545,343
Raw,8,7547,343
Raw,20,7548,343
Raw,17,7554,343
Raw,17,7555,343
Raw,13,7567,343
Raw,18,7592,343
Raw,11,7592,343
Raw,20,7595,343
Raw,18,7595,343
Raw,24,7601,343
Raw,13,7607,343
Raw,11,7607,343
Raw,17,7607,343
Raw,17,7609,343
Raw,27,7616,343
Raw,35,7620,343
Raw,12,7620,343
Raw,20,7635,343
Raw,23,7640,343
Raw,19,7640,343
Raw,29,7645,343
Raw,46,7649,343
Raw,14,7651,343
Raw,17,7651,343
Raw,9,7655,343
Raw,15,7655,343
Raw,18,7659,343
Raw,19,7664,343
Raw,7,7668,343
Raw,10,7696,343
Raw,23,7707,343
Raw,35,7717,343
Raw,28,7722,343
Raw,5,7722,343
Raw,21,7729,343
Raw,19,7729,343
Raw,36,7741,343
Raw,19,7745,343
Raw,14,7746,343
Raw,21,7746,343
Raw,7,7760,343
Raw,14,7761,343
Raw,34,7765,343
Raw,6,7770,343
Raw,22,7772,343
Raw,17,7778,343
Raw,17,7779,343
Raw,43,7782,343
Raw,53,7785,343
Raw,30,7798,343
Raw,38,7803,343
Raw,17,7807,343
Raw,18,7809,343
Raw,26,7809,343
Raw,39,7811,343
Raw,16,7815,343
Raw,8,7815,343
Raw,14,7824,343
Raw,12,7826,343
Raw,23,7826,343
Raw,15,7835,343
Raw,32,7836,343
Raw,43,7838,343
Raw,15,7838,343
Raw,25,7839,343
Raw,22,7841,343
Raw,13,7848,343
Raw,9,7852,343
Raw,37,7857,343
Raw,22,7861,343
Raw,18,7862,343
Raw,35,7863,343
Raw,19,7865,343
Raw,14,7872,343
Raw,33,7887,343
Raw,15,7893,343
Raw,39,7918,343
Raw,4,7918,343
Raw,8,7919,343
Raw,20,7927,343
Raw,19,7929,343
Raw,11,7929,343
Raw,13,7935,343
Raw,16,7935,343
Raw,15,7941,343
Raw,10,7942,343
Raw,16,7945,343
Raw,14,7952,343
Raw,34,7959,343
Raw,14,7963,343
Raw,14,7965,343
Raw,14,7967,343
Raw,28,7972,343
Raw,48,7972,343
Raw,13,7974,343
Raw,50,7976,343
Raw,20,7977,343
Raw,22,7979,343
Raw,16,7983,343
Raw,49,7996,343
Raw,15,7999,343
Raw,25,8001,343
Raw,21,8006,343
Raw,16,8012,343
Raw,36,8013,343
Raw,18,8017,343
Raw,32,8019,343
Raw,23,8020,343
Raw,43,8020,343
Raw,13,8027,343
Raw,4,8032,343
Raw,46,8035,343
Raw,10,8035,343
Raw,16,8060,343
Raw,31,8061,343
Raw,9,8061,343
Raw,14,8063,343
Raw,22,8072,343
Raw,3,8072,343
Raw,16,8075,343
Raw,39,8084,343
Raw,12,8089,343
Raw,8,8114,343
Raw,17,8125,343
Raw,31,8133,343
Raw,22,8141,343
Raw,16,8149,343
Raw,22,8152,343
Raw,52,8155,343
Raw,18,8162,343
Raw,17,8168,343
Raw,16,8168,343
Raw,48,8184,343
Raw,19,8186,343
Raw,35,8188,343
Raw,45,8189,343
Raw,13,8190,343
Raw,4,8190,343
Raw,29,8195,343
Raw,41,8212,343
Raw,10,8220,343
Raw,26,8228,343
Raw,19,8234,343
Raw,17,8235,343
Raw,21,8236,343
Raw,22,8239,343
Raw,16,8239,343
Raw,7,8240,343
Raw,14,8249,343
Raw,31,8253,343
Raw,36,8266,343
Raw,20,8266,343
Raw,21,8271,343
Raw,13,8275,343
Raw,13,8276,343
Raw,36,8277,343
Raw,24,8277,343
Raw,23,8289,343
Raw,23,8290,343
Raw,12,8293,343
Raw,17,8297,343
Raw,27,8304,343
Raw,21,8304,343
Raw,27,8309,343
Raw,13,8313,343
Raw,36,8314,343
Raw,19,8322,343
Raw,14,8327,343
Raw,12,8327,343
Raw,29,8329,343
Raw,12,8340,343
Raw,39,8342,343
Raw,9,8352,343
Raw,16,8363,343
Raw,19,8363,343
Raw,28,8365,343
Raw,14,8367,343
Raw,16,8382,343
Raw,13,8386,343
Raw,35,8386,343
Raw,14,8388,343
Raw,27,8391,343
Raw,21,8395,343
Raw,21,8404,343
Raw,17,8405,343
Raw,8,8415,343
Raw,17,8415,343
Raw,11,8421,343
Raw,30,8423,343
Raw,28,8423,343
Raw,20,8429,343
Raw,17,8434,343
Raw,23,8436,343
Raw,27,8443,343
Raw,18,8445,343
Raw,19,8446,343
Raw,19,8458,343
Raw,13,8460,343
Raw,24,8474,343
Raw,14,8479,343
Raw,20,8479,343
Raw,28,8479,343
Raw,13,8480,343
Raw,30,8481,343
Raw,12,8483,343
Raw,25,8491,343
Raw,20,8493,343
Raw,20,8494,343
Raw,20,8494,343
Raw,12,8504,343
Raw,29,8506,343
Raw,22,8507,343
Raw,10,8516,343
Raw,50,8519,343
Raw,22,8520,343
Raw,21,8522,343
Raw,38,8526,343
Raw,9,8527,343
Raw,6,8532,343
Raw,11,8535,343
Raw,11,8540,343
Raw,18,8540,343
Raw,16,8541,343
Raw,11,8541,343
Raw,15,8557,343
Raw,16,8558,343
Raw,11,8558,343
Raw,13,8558,343
Raw,24,8565,343
Raw,15,8572,343
Raw,13,8579,343
Raw,17,8584,343
Raw,32,8585,343
Raw,30,8588,343
Raw,9,8588,343
Raw,13,8588,343
Raw,19,8602,343
Raw,16,8614,343
Raw,16,8614,343
Raw,14,8645,343
Raw,9,8645,343
Raw,24,8651,343
Raw,17,8665,343
Raw,39,8670,343
Raw,22,8671,343
Raw,15,8675,343
Raw,12,8696,343
Raw,9,8706,343
Raw,10,8709,343
Raw,36,8710,343
Raw,20,8725,343
Raw,16,8729,343
Raw,20,8730,343
Raw,15,8730,343
Raw,17,8731,343
Raw,9,8731,343
Raw,41,8733,343
Raw,32,8737,343
Raw,11,8737,343
Raw,10,8740,343
Raw,17,8742,343
Raw,20,8749,343
Raw,16,8749,343
Raw,16,8752,343
Raw,12,8752,343
Raw,11,8760,343
Raw,7,8760,343
Raw,18,8771,343
Raw,17,8771,343
Raw,18,8775,343
Raw,11,8775,343
Raw,16,8779,343
Raw,51,8788,343
Raw,29,8789,343
Raw,18,8790,343
Raw,20,8793,343
Raw,12,8793,343
Raw,9,8802,343
Raw,9,8802,343
Raw,10,8803,343
Raw,32,8806,343
Raw,25,8825,343
Raw,21,8833,343
Raw,50,8836,343
Raw,11,8837,343
Raw,17,8841,343
Raw,13,8841,343
Raw,24,8845,343
Raw,25,8846,343
Raw,45,8847,343
Raw,22,8849,343
Raw,10,8864,343
Raw,11,8876,343
Raw,29,8876,343
Raw,33,8877,343
Raw,27,8881,343
Raw,22,8881,343
Raw,33,8882,343
Raw,4,8882,343
Raw,4,8890,343
Raw,40,8894,343
Raw,19,8897,343
Raw,12,8898,343
Raw,8,8901,343
Raw,11,8911,343
Raw,13,8911,343
Raw,19,8938,343
Raw,4,8940,343
Raw,13,8945,343
Raw,15,8945,343
Raw,8,8949,343
Raw,35,8955,343
Raw,23,8956,343
Raw,13,8972,343
Raw,19,8973,343
Raw,17,8973,343
Raw,4,8977,343
Raw,14,8980,343
Raw,17,8986,343
Raw,13,8986,343
Raw,13,8987,343
Raw,5,8993,343
Raw,9,8993,343
Raw,6,8996,343
Raw,11,8996,343
Raw,30,9010,343
Raw,51,9016,343
Raw,20,9019,343
Raw,17,9019,343
Raw,37,9021,343
Raw,23,9028,343
Raw,7,9028,343
Raw,44,9046,343
Raw,7,9048,343
Raw,7,9050,343
Raw,22,9059,343
Raw,19,9076,343
Raw,16,9076,343
Raw,9,9076,343
Raw,4,9076,343
Raw,22,9077,343
Raw,42,9080,343
Raw,35,9084,343
Raw,21,9085,343
Raw,17,9088,343
Raw,20,9096,343
Raw,8,9096,343
Raw,35,9103,343
Raw,16,9108,343
Raw,11,9108,343
Raw,36,9129,343
Raw,36,9129,343
Raw,21,9150,343
Raw,29,9155,343
Raw,10,9164,343
Raw,11,9170,343
Raw,18,9170,343
Raw,19,9180,343
Raw,22,9180,343
Raw,20,9181,343
Raw,36,9182,343
Raw,25,9183,343
Raw,18,9183,343
Raw,44,9200,343
Raw,21,9201,343
Raw,3,9201,343
Raw,7,9201,343
Raw,27,9203,343
Raw,18,9204,343
Raw,22,9207,343
Raw,5,9208,343
Raw,21,9210,343
Raw,12,9215,343
Raw,35,9215,343
Raw,41,9223,343
Raw,6,9223,343
Raw,32,9226,343
Raw,23,9230,343
Raw,23,9231,343
Raw,49,9234,343
Raw,34,9242,343
Raw,8,9244,343
Raw,13,9244,343
Raw,10,9250,343
Raw,17,9253,343
Raw,15,9253,343
Raw,17,9270,343
Raw,47,9283,343
Raw,39,9291,343
Raw,16,9295,343
Raw,41,9298,343
Raw,13,9299,343
Raw,42,9313,343
Raw,16,9313,343
Raw,23,9315,343
Raw,22,9321,343
Raw,15,9322,343
Raw,18,9332,343
Raw,14,9332,343
Raw,16,9336,343
Raw,17,9337,343
Raw,21,9343,343
Raw,7,9343,343
Raw,28,9344,343
Raw,10,9345,343
Raw,14,9349,343
Raw,15,9353,343
Raw,9,9357,343
Raw,15,9357,343
Raw,19,9358,343
Raw,21,9364,343
Raw,16,9366,343
Raw,22,9373,343
Raw,37,9377,343
Raw,19,9377,343
Raw,41,9378,343
Raw,27,9378,343
Raw,27,9380,343
Raw,20,9384,343
Raw,20,9386,343
Raw,18,9393,343
Raw,40,9393,343
Raw,15,9396,343
Raw,38,9400,343
Raw,14,9406,343
Raw,20,9408,343
Raw,15,9408,343
Raw,51,9410,343
Raw,19,9414,343
Raw,20,9426,343
Raw,17,9433,343
Raw,13,9434,343
Raw,23,9436,343
Raw,44,9439,343
Raw,12,9443,343
Raw,19,9445,343
Raw,16,9451,343
Raw,17,9454,343
Raw,13,9461,343
Raw,14,9464,343
Raw,9,9464,343
Raw,21,9470,343
Raw,5,9470,343
Raw,11,9470,343
Raw,36,9471,343
Raw,22,9471,343
Raw,24,9473,343
Raw,17,9479,343
Raw,21,9484,343
Raw,13,9484,343
Raw,32,9492,343
Raw,27,9492,343
Raw,13,9493,343
Raw,7,9510,343
Raw,17,9510,343
Raw,17,9511,343
Raw,36,9513,343
Raw,26,9519,343
Raw,45,9528,343
Raw,3,9533,343
Raw,39,9538,343
Raw,22,9542,343
Raw,20,9548,343
Raw,17,9555,343
Raw,12,9555,343
Raw,34,9556,343
Raw,31,9559,343
Raw,38,9563,343
Raw,23,9577,343
Raw,6,9577,343
Raw,19,9580,343
Raw,23,9580,343
Raw,16,9580,343
Raw,13,9592,343
Raw,35,9592,343
Raw,45,9594,343
Raw,41,9597,343
Raw,21,9603,343
Raw,12,9607,343
Raw,31,9610,343
Raw,23,9611,343
Raw,20,9623,343
Raw,19,9626,343
Raw,18,9630,343
Raw,31,9637,343
Raw,17,9639,343
Raw,18,9644,343
Raw,39,9645,343
Raw,20,9646,343
Raw,16,9651,343
Raw,16,9655,343
Raw,8,9655,343
Raw,11,9660,343
Raw,21,9661,343
Raw,15,9661,343
Raw,48,9667,343
Raw,22,9674,343
Raw,3,9674,343
Raw,7,9686,343
Raw,15,9686,343
Raw,11,9689,343
Raw,17,9694,343
Raw,27,9708,343
Raw,14,9708,343
Raw,27,9711,343
Raw,14,9719,343
Raw,27,9725,343
Raw,39,9729,343
Raw,29,9732,343
Raw,12,9732,343
Raw,47,9741,343
Raw,22,9741,343
Raw,22,9744,343
Raw,19,9751,343
Raw,16,9766,343
Raw,11,9767,343
Raw,7,9767,343
Raw,12,9771,343
Raw,40,9772,343
Raw,42,9774,343
Raw,17,9778,343
Raw,13,9778,343
Raw,30,9782,343
Raw,8,9785,343
Raw,51,9791,343
Raw,23,9792,343
Raw,11,9794,343
Raw,15,9794,343
Raw,15,9798,343
Raw,30,9802,343
Raw,43,9806,343
Raw,28,9808,343
Raw,11,9815,343
Raw,15,9816,343
Raw,36,9818,343
Raw,28,9822,343
Raw,30,9829,343
Raw,52,9830,343
Raw,15,9831,343
Raw,46,9831,343
Raw,6,9837,343
Raw,9,9837,343
Raw,7,9839,343
Raw,6,9859,343
Raw,38,9869,343
Raw,22,9874,343
Raw,27,9874,343
Raw,17,9877,343
Raw,22,9883,343
Raw,9,9883,343
Raw,10,9884,343
Raw,15,9884,343
Raw,23,9885,343
Raw,15,9893,343
Raw,27,9894,343
Raw,20,9902,343
Raw,21,9903,343
Raw,12,9903,343
Raw,26,9904,343
Raw,20,9905,343
Raw,10,9906,343
Raw,13,9925,343
Raw,14,9925,343
Raw,11,9930,343
Raw,8,9936,343
Raw,21,9936,343
Raw,39,9937,343
Raw,15,9938,343
Raw,21,9940,343
Raw,21,9942,343
Raw,10,9942,343
Raw,30,9948,343
Raw,20,9957,343
Raw,11,9957,343
Raw,23,9965,343
Raw,17,9969,343
Raw,36,9974,343
Raw,13,9980,343
Raw,22,9986,343
Raw,24,9993,343
Raw,47,10004,343
Raw,20,10008,343
Raw,29,10018,343
Raw,27,10030,343
Raw,16,10030,343
Raw,8,10030,343
Raw,30,10037,343
Raw,16,10044,343
Raw,8,10049,343
Raw,20,10065,343
Raw,11,10065,343
Raw,18,10070,343
Raw,49,10074,343
Raw,22,10075,343
Raw,10,10078,343
Raw,17,10088,343
Raw,15,10091,343
Raw,10,10094,343
Raw,20,10102,343
Raw,22,10104,343
Raw,7,10105,343
Raw,36,10107,343
Raw,19,10111,343
Raw,21,10117,343
Raw,18,10123,343
Raw,17,10123,343
Raw,16,10128,343
Raw,18,10131,343
Raw,4,10135,343
Raw,8,10140,343
Raw,41,10140,343
Raw,16,10141,343
Raw,30,10142,343
Raw,40,10142,343
Raw,52,10144,343
Raw,25,10163,343
Raw,11,10163,343
Raw,47,10164,343
Raw,44,10169,343
Raw,25,10171,343
Raw,3,10171,343
Raw,21,10174,343
Raw,19,10179,343
Raw,16,10183,343
Raw,9,10185,343
Raw,8,10188,343
Raw,35,10194,343
Raw,17,10194,343
Raw,21,10204,343
Raw,52,10208,343
Raw,43,10215,343
Raw,24,10222,343
Raw,22,10223,343
Raw,8,10233,343
Raw,30,10234,343
Raw,10,10238,343
Raw,47,10239,343
Raw,10,10240,343
Raw,8,10240,343
Raw,42,10247,343
Raw,21,10247,343
Raw,49,10248,343
Raw,28,10262,343
Raw,25,10265,343
Raw,13,10267,343
Raw,10,10267,343
Raw,16,10267,343
Raw,18,10268,343
Raw,8,10268,343
Raw,18,10271,343
Raw,16,10277,343
Raw,6,10277,343
Raw,14,10281,343
Raw,13,10284,343
Raw,14,10284,343
Raw,13,10286,343
Raw,23,10288,343
Raw,38,10293,343
Raw,32,10294,343
Raw,16,10297,343
Raw,16,10307,343
Raw,18,10327,343
Raw,9,10329,343
Raw,12,10335,343
Raw,15,10337,343
Raw,50,10338,343
Raw,16,10343,343
Raw,32,10344,343
Raw,10,10348,343
Raw,10,10348,343
Raw,19,10352,343
Raw,45,10352,343
Raw,49,10354,343
Raw,25,10355,343
Raw,31,10356,343
Raw,19,10356,343
Raw,21,10360,343
Raw,21,10374,343
Raw,3,10374,343
Raw,21,10384,343
Raw,34,10385,343
Raw,10,10385,343
Raw,14,10388,343
Raw,38,10391,343
Raw,9,10394,343
Raw,36,10395,343
Raw,42,10396,343
Raw,34,10397,343
Raw,25,10399,343
Raw,12,10399,343
Raw,21,10404,343
Raw,22,10409,343
Raw,28,10409,343
Raw,49,10414,343
Raw,11,10415,343
Raw,13,10425,343
Raw,16,10426,343
Raw,17,10432,343
Raw,42,10433,343
Raw,14,10444,343
Raw,6,10446,343
Raw,31,10450,343
Raw,12,10453,343
Raw,46,10454,343
Raw,5,10460,343
Raw,18,10464,343
Raw,29,10464,343
Raw,12,10464,343
Raw,10,10467,343
Raw,24,10467,343
Raw,21,10467,343
Raw,16,10471,343
Raw,23,10480,343
Raw,18,10485,343
Raw,9,10486,343
Raw,14,10490,343
Raw,17,10500,343
Raw,16,10500,343
Raw,38,10501,343
Raw,33,10501,343
Raw,45,10502,343
Raw,30,10510,343
Raw,15,10519,343
Raw,30,10519,343
Raw,9,10525,343
Raw,20,10534,343
Raw,38,10535,343
Raw,29,10538,343
Raw,29,10542,343
Raw,15,10548,343
Raw,14,10548,343
Raw,26,10555,343
Raw,25,10560,343
Raw,18,10560,343
Raw,16,10564,343
Raw,24,10577,343
Raw,39,10577,343
Raw,15,10589,343
Raw,15,10624,343
Raw,47,10630,343
Raw,22,10632,343
Raw,15,10632,343
Raw,28,10636,343
Raw,16,10644,343
Raw,38,10647,343
Raw,12,10651,343
Raw,31,10651,343
Raw,19,10654,343
Raw,16,10660,343
Raw,13,10667,343
Raw,6,10667,343
Raw,25,10672,343
Raw,17,10679,343
Raw,16,10683,343
Raw,39,10689,343
Raw,34,10689,343
Raw,15,10692,343
Raw,42,10695,343
Raw,11,10698,343
Raw,15,10700,343
Raw,46,10712,343
Raw,44,10716,343
Raw,13,10716,343
Raw,14,10720,343
Raw,11,10722,343
Raw,38,10725,343
Raw,46,10740,343
Raw,18,10742,343
Raw,17,10745,343
Raw,16,10750,343
Raw,15,10751,343
Raw,19,10753,343
Raw,14,10755,343
Raw,6,10756,343
Raw,44,10760,343
Raw,25,10764,343
Raw,23,10767,343
Raw,22,10767,343
Raw,38,10771,343
Raw,18,10772,343
Raw,17,10772,343
Raw,35,10779,343
Raw,28,10782,343
Raw,32,10793,343
Raw,38,10797,343
Raw,20,10800,343
Raw,3,10804,343
Raw,8,10807,343
Raw,18,10819,343
Raw,33,10824,343
Raw,12,10827,343
Raw,36,10833,343
Raw,32,10860,343
Raw,16,10860,343
Raw,13,10863,343
Raw,12,10867,343
Raw,18,10868,343
Raw,10,10889,343
Raw,21,10896,343
Raw,14,10896,343
Raw,11,10898,343
Raw,18,10900,343
Raw,27,10900,343
Raw,28,10902,343
Raw,17,10905,343
Raw,44,10906,343
Raw,14,10908,343
Raw,14,10909,343
Raw,41,10909,343
Raw,21,10917,343
Raw,13,10918,343
Raw,18,10918,343
Raw,7,10919,343
Raw,16,10922,343
Raw,14,10922,343
Raw,6,10925,343
Raw,33,10930,343
Raw,19,10930,343
Raw,22,10933,343
Raw,33,10957,343
Raw,18,10959,343
Raw,18,10977,343
Raw,17,10979,343
Raw,14,10981,343
Raw,20,10986,343
Raw,34,10987,343
Raw,30,10988,343
Raw,22,10996,343
Raw,16,10997,343
Raw,18,11000,343
Raw,12,11001,343
Raw,15,11003,343
Raw,12,11003,343
Raw,21,11005,343
Raw,10,11009,343
Raw,14,11009,343
Raw,16,11010,343
Raw,17,11012,343
Raw,42,11012,343
Raw,15,11014,343
Raw,12,11015,343
Raw,24,11017,343
Raw,19,11038,343
Raw,16,11041,343
Raw,22,11042,343
Raw,9,11042,343
Raw,20,11043,343
Raw,20,11046,343
Raw,41,11062,343
Raw,26,11071,343
Raw,5,11072,343
Raw,37,11074,343
Raw,16,11074,343
Raw,27,11077,343
Raw,17,11080,343
Raw,14,11080,343
Raw,3,11084,343
Raw,18,11084,343
Raw,16,11084,343
Raw,32,11089,343
Raw,15,11106,343
Raw,14,11106,343
Raw,18,11108,343
Raw,20,11112,343
Raw,11,11115,343
Raw,13,11115,343
Raw,32,11118,343
Raw,16,11120,343
Raw,16,11123,343
Raw,14,11127,343
Raw,20,11127,343
Raw,16,11127,343
Raw,13,11131,343
Raw,14,11132,343
Raw,5,11132,343
Raw,17,11142,343
Raw,44,11144,343
Raw,43,11151,343
Raw,22,11161,343
Raw,30,11166,343
Raw,16,11171,343
Raw,19,11172,343
Raw,6,11177,343
Raw,33,11182,343
Raw,14,11185,343
Raw,29,11185,343
Raw,52,11186,343
Raw,41,11195,343
Raw,16,11205,343
Raw,16,11206,343
Raw,40,11209,343
Raw,31,11213,343
Raw,5,11213,343
Raw,15,11218,343
Raw,29,11223,343
Raw,17,11226,343
Raw,6,11227,343
Raw,8,11227,343
Raw,16,11236,343
Raw,17,11236,343
Raw,17,11245,343
Raw,30,11255,343
Raw,16,11259,343
Raw,41,11259,343
Raw,22,11271,343
Raw,25,11273,343
Raw,20,11279,343
Raw,31,11279,343
Raw,51,11280,343
Raw,28,11281,343
Raw,22,11284,343
Raw,10,11284,343
Raw,20,11286,343
Raw,15,11291,343
Raw,17,11291,343
Raw,20,11295,343
Raw,4,11297,343
Raw,13,11297,343
Raw,47,11304,343
Raw,7,11309,343
Raw,16,11309,343
Raw,19,11312,343
Raw,6,11314,343
Raw,17,11322,343
Raw,27,11325,343
Raw,14,11325,343
Raw,31,11326,343
Raw,10,11332,343
Raw,8,11335,343
Raw,17,11335,343
Raw,14,11340,343
Raw,16,11341,343
Raw,18,11345,343
Raw,16,11349,343
Raw,27,11352,343
Raw,38,11352,343
Raw,8,11353,343
Raw,39,11365,343
Raw,37,11369,343
Raw,38,11375,343
Raw,11,11376,343
Raw,13,11378,343
Raw,9,11379,343
Raw,17,11391,343
Raw,18,11400,343
Raw,27,11404,343
Raw,7,11409,343
Raw,36,11417,343
Raw,23,11419,343
Raw,5,11419,343
Raw,19,11429,343
Raw,16,11429,343
Raw,17,11431,343
Raw,12,11434,343
Raw,20,11436,343
Raw,18,11436,343
Raw,22,11447,343
Raw,48,11466,343
Raw,40,11483,343
Raw,8,11491,343
Raw,3,11493,343
Raw,17,11503,343
Raw,27,11504,343
Raw,17,11514,343
Raw,10,11518,343
Raw,11,11519,343
Raw,9,11519,343
Raw,4,11520,343
Raw,12,11528,343
Raw,17,11529,343
Raw,19,11529,343
Raw,36,11530,343
Raw,21,11545,343
Raw,18,11548,343
Raw,13,11548,343
Raw,15,11559,343
Raw,17,11559,343
Raw,7,11564,343
Raw,20,11566,343
Raw,19,11566,343
Raw,5,11570,343
Raw,9,11572,343
Raw,21,11573,343
Raw,28,11574,343
Raw,37,11577,343
Raw,8,11585,343
Raw,11,11589,343
Raw,17,11592,343
Raw,19,11595,343
Raw,10,11604,343
Raw,8,11604,343
Raw,15,11618,343
Raw,39,11623,343
Raw,20,11626,343
Raw,14,11637,343
Raw,15,11637,343
Raw,27,11638,343
Raw,24,11639,343
Raw,21,11639,343
Raw,9,11644,343
Raw,19,11647,343
Raw,14,11647,343
Raw,18,11648,343
Raw,15,11650,343
Raw,26,11651,343
Raw,12,11652,343
Raw,14,11665,343
Raw,11,11666,343
Raw,11,11674,343
Raw,13,11677,343
Raw,9,11677,343
Raw,17,11688,343
Raw,12,11709,343
Raw,19,11713,343
Raw,7,11718,343
Raw,19,11718,343
Raw,7,11719,343
Raw,35,11719,343
Raw,41,11721,343
Raw,51,11722,343
Raw,22,11723,343
Raw,12,11729,343
Raw,33,11733,343
Raw,37,11737,343
Raw,6,11739,343
Raw,37,11745,343
Raw,12,11747,343
Raw,17,11749,343
Raw,3,11751,343
Raw,7,11752,343
Raw,53,11756,343
Raw,43,11765,343
Raw,22,11765,343
Raw,26,11766,343
Raw,9,11775,343
Raw,12,11777,343
Raw,25,11793,343
Raw,19,11799,343
Raw,22,11802,343
Raw,16,11811,343
Raw,18,11813,343
Raw,26,11817,343
Raw,11,11824,343
Raw,32,11824,343
Raw,19,11827,343
Raw,16,11835,343
Raw,35,11841,343
Raw,41,11843,343
Raw,36,11845,343
Raw,12,11849,343
Raw,39,11868,343
Raw,12,11868,343
Raw,7,11870,343
Raw,43,11880,343
Raw,25,11881,343
Raw,10,11881,343
Raw,7,11885,343
Raw,19,11887,343
Raw,17,11899,343
Raw,30,11913,343
Raw,18,11917,343
Raw,15,11918,343
Raw,35,11934,343
Raw,49,11935,343
Raw,34,11938,343
Raw,17,11940,343
Raw,40,11944,343
Raw,19,11956,343
Raw,10,11956,343
Raw,20,11961,343
Raw,28,11965,343
Raw,19,11966,343
Raw,13,11979,343
Raw,39,11984,343
Raw,46,11986,343
Raw,18,11988,343
Raw,26,11989,343
Raw,13,11989,343
Raw,20,11990,343
Raw,28,11996,343
Raw,27,12000,343
Raw,32,12008,343
Raw,8,12008,343
Raw,50,12011,343
Raw,32,12020,343
Raw,12,12025,343
Raw,19,12034,343
Raw,16,12041,343
Raw,21,12043,343
Raw,21,12043,343
Raw,35,12047,343
Raw,14,12066,343
Raw,23,12067,343
Raw,14,12068,343
Raw,26,12072,343
Raw,18,12077,343
Raw,20,12079,343
Raw,38,12081,343
Raw,15,12087,343
Raw,20,12087,343
Raw,35,12088,343
Raw,21,12091,343
Raw,13,12091,343
Raw,10,12092,343
Raw,8,12094,343
Raw,13,12094,343
Raw,6,12095,343
Raw,14,12102,343
Raw,16,12104,343
Raw,18,12114,343
Raw,6,12120,343
Raw,18,12120,343
Raw,18,12123,343
Raw,12,12126,343
Raw,49,12131,343
Raw,35,12132,343
Raw,32,12136,343
Raw,24,12139,343
Raw,24,12139,343
Raw,18,12152,343
Raw,12,12152,343
Raw,19,12155,343
Raw,42,12156,343
Raw,26,12163,343
Raw,22,12163,343
Raw,17,12163,343
Raw,21,12170,343
Raw,14,12172,343
Raw,17,12177,343
Raw,14,12184,343
Raw,15,12191,343
Raw,18,12191,343
Raw,5,12198,343
Raw,37,12200,343
Raw,14,12201,343
Raw,14,12201,343
Raw,21,12215,343
Raw,17,12230,343
Raw,8,12235,343
Raw,35,12241,343
Raw,24,12248,343
Raw,19,12248,343
Raw,7,12249,343
Raw,37,12260,343
Raw,24,12263,343
Raw,40,12277,343
Raw,15,12291,343
Raw,22,12304,343
Raw,26,12309,343
Raw,22,12321,343
Raw,20,12321,343
Raw,43,12325,343
Raw,34,12329,343
Raw,21,12329,343
Raw,39,12334,343
Raw,12,12343,343
Raw,17,12345,343
Raw,21,12357,343
Raw,46,12358,343
Raw,11,12361,343
Raw,8,12366,343
Raw,29,12372,343
Raw,33,12374,343
Raw,11,12374,343
Raw,14,12379,343
Raw,38,12380,343
Raw,12,12387,343
Raw,27,12396,343
Raw,19,12398,343
Raw,14,12400,343
Raw,9,12400,343
Raw,37,12408,343
Raw,19,12419,343
Raw,12,12421,343
Raw,16,12425,343
Raw,6,12429,343
Raw,12,12429,343
Raw,14,12431,343
Raw,51,12435,343
Raw,12,12443,343
Raw,15,12449,343
Raw,21,12451,343
Raw,11,12463,343
Raw,10,12463,343
Raw,14,12465,343
Raw,20,12466,343
Raw,53,12470,343
Raw,38,12471,343
Raw,25,12480,343
Raw,17,12491,343
Raw,39,12496,343
Raw,13,12498,343
Raw,14,12513,343
Raw,19,12516,343
Raw,25,12520,343
Raw,15,12531,343
Raw,15,12537,343
Raw,17,12537,343
Raw,22,12539,343
Raw,22,12539,343
Raw,13,12540,343
Raw,16,12540,343
Raw,12,12546,343
Raw,16,12547,343
Raw,14,12551,343
Raw,25,12559,343
Raw,8,12559,343
Raw,15,12571,343
Raw,4,12579,343
Raw,11,12582,343
Raw,18,12583,343
Raw,12,12583,343
Raw,13,12589,343
Raw,22,12590,343
Raw,20,12591,343
Raw,21,12597,343
Raw,13,12601,343
Raw,34,12606,343
Raw,7,12607,343
Raw,23,12615,343
Raw,23,12617,343
Raw,47,12627,343
Raw,7,12630,343
Raw,25,12631,343
Raw,53,12641,343
Raw,53,12642,343
Raw,29,12647,343
Raw,21,12649,343
Raw,3,12649,343
Raw,34,12650,343
Raw,18,12651,343
Raw,8,12661,343
Raw,6,12665,343
Raw,29,12668,343
Raw,13,12669,343
Raw,8,12673,343
Raw,48,12679,343
Raw,29,12694,343
Raw,24,12699,343
Raw,15,12699,343
Raw,15,12712,343
Raw,9,12718,343
Raw,43,12722,343
Raw,14,12728,343
Raw,11,12728,343
Raw,8,12734,343
Raw,22,12738,343
Raw,7,12738,343
Raw,13,12745,343
Raw,23,12750,343
Raw,12,12750,343
Raw,19,12751,343
Raw,19,12752,343
Raw,16,12752,343
Raw,19,12756,343
Raw,43,12759,343
Raw,10,12769,343
Raw,24,12780,343
Raw,14,12780,343
Raw,7,12781,343
Raw,19,12788,343
Raw,28,12797,343
Raw,18,12800,343
Raw,27,12802,343
Raw,15,12803,343
Raw,49,12813,343
Raw,53,12817,343
Raw,17,12827,343
Raw,41,12827,343
Raw,38,12852,343
Raw,15,12856,343
Raw,43,12865,343
Raw,16,12868,343
Raw,28,12868,343
Raw,20,12869,343
Raw,4,12869,343
Raw,8,12869,343
Raw,20,12880,343
Raw,12,12883,343
Raw,18,12886,343
Raw,16,12902,343
Raw,13,12908,343
Raw,23,12912,343
Raw,39,12927,343
Raw,20,12927,343
Raw,18,12929,343
Raw,21,12936,343
Raw,17,12936,343
Raw,19,12943,343
Raw,45,12946,343
Raw,17,12948,343
Raw,17,12964,343
Raw,17,12964,343
Raw,16,12973,343
Raw,13,12975,343
Raw,17,12979,343
Raw,12,12979,343
Raw,7,12980,343
Raw,35,12981,343
Raw,46,12984,343
Raw,38,12985,343
Raw,24,12996,343
Raw,11,12996,343
Raw,19,13002,343
Raw,39,13009,343
Raw,21,13009,343
Raw,29,13013,343
Raw,15,13016,343
Raw,10,13020,343
Raw,13,13020,343
Raw,17,13022,343
Raw,19,13033,343
Raw,16,13048,343
Raw,24,13053,343
Raw,10,13053,343
Raw,26,13055,343
Raw,5,13055,343
Raw,9,13058,343
Raw,19,13061,343
Raw,23,13063,343
Raw,27,13064,343
Raw,10,13064,343
Raw,18,13074,343
Raw,16,13076,343
Raw,16,13077,343
Raw,6,13077,343
Raw,15,13084,343
Raw,19,13089,343
Raw,18,13089,343
Raw,28,13090,343
Raw,39,13095,343
Raw,23,13105,343
Raw,37,13106,343
Raw,52,13115,343
Raw,22,13120,343
Raw,30,13123,343
Raw,8,13124,343
Raw,15,13126,343
Raw,24,13127,343
Raw,43,13128,343
Raw,14,13129,343
Raw,16,13141,343
Raw,41,13146,343
Raw,13,13146,343
Raw,19,13156,343
Raw,24,13156,343
Raw,25,13171,343
Raw,12,13173,343
Raw,39,13181,343
Raw,22,13183,343
Raw,34,13188,343
Raw,18,13199,343
Raw,21,13220,343
Raw,34,13221,343
Raw,15,13221,343
Raw,15,13224,343
Raw,22,13233,343
Raw,11,13233,343
Raw,29,13235,343
Raw,22,13235,343
Raw,21,13245,343
Raw,17,13246,343
Raw,30,13247,343
Raw,21,13251,343
Raw,41,13254,343
Raw,17,13257,343
Raw,14,13258,343
Raw,26,13262,343
Raw,8,13265,343
Raw,38,13274,343
Raw,50,13280,343
Raw,16,13282,343
Raw,7,13283,343
Raw,8,13290,343
Raw,8,13290,343
Raw,31,13294,343
Raw,38,13321,343
Raw,11,13323,343
Raw,25,13336,343
Raw,28,13339,343
Raw,33,13345,343
Raw,7,13345,343
Raw,28,13346,343
Raw,45,13347,343
Raw,14,13350,343
Raw,36,13353,343
Raw,27,13361,343
Raw,15,13365,343
Raw,18,13367,343
Raw,7,13367,343
Raw,23,13369,343
Raw,13,13369,343
Raw,14,13376,343
Raw,14,13376,343
Raw,44,13377,343
Raw,51,13380,343
Raw,17,13381,343
Raw,12,13398,343
Raw,31,13401,343
Raw,22,13401,343
Raw,14,13414,343
Raw,14,13415,343
Raw,48,13417,343
Raw,10,13417,343
Raw,18,13419,343
Raw,19,13421,343
Raw,35,13423,343
Raw,34,13429,343
Raw,35,13430,343
Raw,11,13436,343
Raw,18,13436,343
Raw,14,13437,343
Raw,18,13443,343
Raw,14,13461,343
Raw,12,13461,343
Raw,36,13462,343
Raw,15,13463,343
Raw,26,13466,343
Raw,12,13468,343
Raw,7,13473,343
Raw,17,13473,343
Raw,10,13481,343
Raw,24,13490,343
Raw,13,13490,343
Raw,17,13491,343
Raw,5,13496,343
Raw,14,13496,343
Raw,17,13508,343
Raw,15,13508,343
Raw,16,13513,343
Raw,36,13535,343
Raw,8,13545,343
Raw,18,13545,343
Raw,20,13552,343
Raw,8,13556,343
Raw,23,13558,343
Raw,20,13562,343
Raw,5,13562,343
Raw,8,13562,343
Raw,15,13564,343
Raw,14,13589,343
Raw,36,13591,343
Raw,18,13602,343
Raw,15,13604,343
Raw,14,13608,343
Raw,16,13608,343
Raw,21,13617,343
Raw,53,13618,343
Raw,15,13627,343
Raw,37,13629,343
Raw,20,13631,343
Raw,7,13632,343
Raw,46,13639,343
Raw,18,13642,343
Raw,37,13643,343
Raw,19,13655,343
Raw,17,13656,343
Raw,18,13656,343
Raw,11,13663,343
Raw,46,13666,343
Raw,4,13668,343
Raw,19,13668,343
Raw,17,13669,343
Raw,12,13669,343
Raw,36,13673,343
Raw,14,13691,343
Raw,19,13695,343
Raw,43,13695,343
Raw,14,13701,343
Raw,15,13702,343
Raw,21,13703,343
Raw,21,13704,343
Raw,3,13704,343
Raw,21,13708,343
Raw,8,13708,343
Raw,18,13710,343
Raw,18,13711,343
Raw,18,13711,343
Raw,14,13721,343
Raw,14,13721,343
Raw,21,13722,343
Raw,10,13722,343
Raw,23,13724,343
Raw,17,13726,343
Raw,14,13731,343
Raw,11,13734,343
Raw,17,13735,343
Raw,7,13735,343
Raw,30,13737,343
Raw,20,13740,343
Raw,5,13752,343
Raw,20,13752,343
Raw,20,13759,343
Raw,14,13759,343
Raw,12,13761,343
Raw,15,13761,343
Raw,5,13761,343
Raw,14,13766,343
Raw,17,13771,343
Raw,11,13771,343
Raw,31,13783,343
Raw,8,13783,343
Raw,16,13788,343
Raw,12,13800,343
Raw,22,13804,343
Raw,11,13806,343
Raw,19,13806,343
Raw,36,13822,343
Raw,15,13824,343
Raw,19,13825,343
Raw,16,13830,343
Raw,33,13835,343
Raw,13,13836,343
Raw,18,13836,343
Raw,18,13837,343
Raw,10,13841,343
Raw,52,13842,343
Raw,26,13851,343
Raw,10,13858,343
Raw,7,13859,343
Raw,19,13860,343
Raw,39,13867,343
Raw,21,13872,343
Raw,52,13873,343
Raw,28,13875,343
Raw,32,13885,343
Raw,22,13886,343
Raw,19,13888,343
Raw,11,13891,343
Raw,10,13893,343
Raw,13,13901,343
Raw,6,13901,343
Raw,13,13908,343
Raw,29,13908,343
Raw,15,13911,343
Raw,12,13924,343
Raw,9,13937,343
Raw,5,13939,343
Raw,23,13939,343
Raw,19,13939,343
Raw,17,13942,343
Raw,9,13955,343
Raw,8,13962,343
Raw,20,13964,343
Raw,13,13969,343
Raw,17,13977,343
Raw,16,13979,343
Raw,15,13981,343
Raw,6,13981,343
Raw,37,13986,343
Raw,12,13986,343
Raw,24,13995,343
Raw,9,13995,343
Raw,11,13998,343
Raw,6,13998,343
Raw,32,14002,343
Raw,20,14005,343
Raw,41,14021,343
Raw,13,14021,343
Raw,18,14026,343
Raw,14,14031,343
Raw,24,14036,343
Raw,13,14036,343
Raw,30,14040,343
Raw,15,14042,343
Raw,25,14048,343
Raw,6,14048,343
Raw,21,14055,343
Raw,31,14057,343
Raw,14,14058,343
Raw,49,14060,343
Raw,7,14064,343
Raw,22,14072,343
Raw,8,14072,343
Raw,18,14073,343
Raw,15,14075,343
Raw,17,14086,343
Raw,20,14092,343
Raw,13,14096,343
Raw,25,14106,343
Raw,12,14117,343
Raw,5,14117,343
Raw,36,14131,343
Raw,15,14131,343
Raw,18,14132,343
Raw,13,14132,343
Raw,3,14134,343
Raw,9,14135,343
Raw,16,14140,343
Raw,24,14142,343
Raw,18,14145,343
Raw,30,14145,343
Raw,5,14149,343
Raw,14,14151,343
Raw,32,14151,343
Raw,11,14155,343
Raw,31,14172,343
Raw,12,14177,343
Raw,18,14177,343
Raw,19,14191,343
Raw,28,14192,343
Raw,10,14198,343
Raw,13,14201,343
Raw,15,14204,343
Raw,6,14208,343
Raw,38,14214,343
Raw,37,14214,343
Raw,31,14219,343
Raw,31,14220,343
Raw,9,14231,343
Raw,33,14237,343
Raw,12,14238,343
Raw,16,14239,343
Raw,42,14244,343
Raw,6,14244,343
Raw,27,14247,343
Raw,10,14247,343
Raw,15,14248,343
Raw,36,14251,343
Raw,18,14252,343
Raw,18,14254,343
Raw,18,14257,343
Raw,8,14257,343
Raw,4,14266,343
Raw,23,14267,343
Raw,13,14271,343
Raw,18,14272,343
Raw,14,14281,343
Raw,7,14290,343
Raw,14,14290,343
Raw,24,14297,343
Raw,10,14297,343
Raw,11,14298,343
Raw,13,14301,343
Raw,19,14302,343
Raw,14,14316,343
Raw,39,14317,343
Raw,5,14318,343
Raw,18,14322,343
Raw,14,14322,343
Raw,15,14334,343
Raw,12,14335,343
Raw,12,14337,343
Raw,37,14337,343
Raw,43,14343,343
Raw,21,14345,343
Raw,41,14347,343
Raw,16,14356,343
Raw,16,14356,343
Raw,6,14364,343
Raw,12,14369,343
Raw,10,14371,343
Raw,25,14391,343
Raw,43,14392,343
Raw,8,14398,343
Raw,15,14411,343
Raw,22,14412,343
Raw,8,14412,343
Raw,10,14412,343
Raw,36,14415,343
Raw,35,14416,343
Raw,5,14431,343
Raw,10,14432,343
Raw,10,14435,343
Raw,6,14435,343
Raw,41,14448,343
Raw,21,14452,343
Raw,12,14459,343
Raw,16,14459,343
Raw,24,14462,343
Raw,51,14475,343
Raw,7,14479,343
Raw,18,14479,343
Raw,16,14481,343
Raw,14,14481,343
Raw,20,14482,343
Raw,16,14504,343
Raw,7,14504,343
Raw,8,14511,343
Raw,18,14511,343
Raw,11,14517,343
Raw,30,14519,343
Raw,17,14522,343
Raw,6,14540,343
Raw,24,14541,343
Raw,17,14555,343
Raw,13,14555,343
Raw,22,14556,343
Raw,20,14556,343
Raw,21,14557,343
Raw,16,14560,343
Raw,17,14573,343
Raw,22,14574,343
Raw,29,14575,343
Raw,38,14579,343
Raw,16,14579,343
Raw,6,14581,343
Raw,3,14588,343
Raw,9,14589,343
Raw,10,14594,343
Raw,19,14595,343
Raw,24,14598,343
Raw,24,14607,343
Raw,13,14609,343
Raw,12,14610,343
Raw,20,14615,343
Raw,17,14616,343
Raw,16,14633,343
Raw,17,14633,343
Raw,11,14636,343
Raw,32,14636,343
Raw,14,14642,343
Raw,24,14642,343
Raw,31,14644,343
Raw,13,14646,343
Raw,11,14646,343
Raw,3,14646,343
Raw,17,14661,343
Raw,13,14661,343
Raw,35,14662,343
Raw,20,14674,343
Raw,8,14686,343
Raw,7,14692,343
Raw,26,14695,343
Raw,23,14697,343
Raw,19,14699,343
Raw,13,14699,343
Raw,13,14700,343
Raw,42,14705,343
Raw,27,14706,343
Raw,40,14713,343
Raw,17,14713,343
Raw,30,14719,343
Raw,24,14723,343
Raw,18,14727,343
Raw,24,14730,343
Raw,17,14730,343
Raw,49,14731,343
Raw,46,14734,343
Raw,6,14735,343
Raw,16,14735,343
Raw,9,14752,343
Raw,18,14758,343
Raw,33,14763,343
Raw,6,14763,343
Raw,26,14768,343
Raw,14,14768,343
Raw,24,14770,343
Raw,32,14775,343
Raw,4,14775,343
Raw,8,14779,343
Raw,21,14781,343
Raw,32,14782,343
Raw,15,14782,343
Raw,36,14787,343
Raw,21,14808,343
Raw,12,14808,343
Raw,19,14812,343
Raw,36,14814,343
Raw,37,14814,343
Raw,43,14818,343
Raw,44,14824,343
Raw,16,14828,343
Raw,27,14829,343
Raw,22,14832,343
Raw,12,14837,343
Raw,8,14845,343
Raw,35,14848,343
Raw,15,14859,343
Raw,31,14861,343
Raw,18,14869,343
Raw,27,14872,343
Raw,20,14888,343
Raw,16,14888,343
Raw,10,14898,343
Raw,18,14898,343
Raw,14,14905,343
Raw,9,14913,343
