Cut?,Counts,eventNumber,runNumber
Raw,34925.022,2,343
Raw,49916.386,5,343
Raw,6900.1307,10,343
Raw,31463.351,10,343
Raw,16636.821,11,343
Raw,99159.659,19,343
Raw,1.00371549e+05,19,343
Raw,30972.757,23,343
Raw,9203.9685,23,343
Raw,43042.905,25,343
Raw,43694.896,25,343
Raw,36602.67,31,343
Raw,70145.148,40,343
Raw,65574.977,54,343
Raw,28274.25,59,343
Raw,17599.931,62,343
Raw,41564.4,63,343
Raw,31442.987,63,343
Raw,20096.839,67,343
Raw,77350.77,75,343
Raw,6473.0286,75,343
Raw,46592.642,82,343
Raw,36122.968,88,343
Raw,14499.811,93,343
Raw,66001.848,101,343
Raw,42633.597,101,343
Raw,58353.454,109,343
Raw,35309.777,116,343
Raw,16848.55,116,343
Raw,20957.409,118,343
Raw,28863.815,118,343
Raw,9575.8183,118,343
Raw,42306.173,121,343
Raw,59926.519,121,343
Raw,58726.326,124,343
Raw,28678.706,125,343
Raw,38327.315,135,343
Raw,49356.502,140,343
Raw,1.06348329e+05,141,343
Raw,47346.069,142,343
Raw,28912.713,149,343
Raw,16134.089,161,343
Raw,94574.152,164,343
Raw,53835.036,168,343
Raw,19644.31,171,343
Raw,32097.597,172,343
Raw,76963.425,172,343
Raw,58137.094,174,343
Raw,25521.901,174,343
Raw,88653.962,175,343
Raw,54591.319,179,343
Raw,34182.438,179,343
Raw,34345.504,187,343
Raw,40033.732,190,343
Raw,54963.377,200,343
Raw,35370.963,206,343
Raw,33589.887,211,343
Raw,18370.22,211,343
Raw,64000.652,213,343
Raw,61023.407,220,343
Raw,55605.256,220,343
Raw,1.07320764e+05,224,343
Raw,87891.12,229,343
Raw,20698.07,233,343
Raw,36076.129,233,343
Raw,39560.839,239,343
Raw,59551.458,240,343
Raw,67702.478,241,343
Raw,50279.55,243,343
Raw,62982.417,256,343
Raw,25116.317,267,343
Raw,27653.403,267,343
Raw,35917.996,269,343
Raw,30468.085,270,343
Raw,25762.564,277,343
Raw,34500.283,279,343
Raw,22246.189,281,343
Raw,15742.046,281,343
Raw,40241.89,282,343
Raw,95974.991,290,343
Raw,53167.494,291,343
Raw,85052.821,291,343
Raw,93957.343,298,343
Raw,66099.619,301,343
Raw,14904.302,303,343
Raw,33046.749,309,343
Raw,66139.051,310,343
Raw,73142.206,321,343
Raw,58704.885,322,343
Raw,1.17334669e+05,331,343
Raw,82723.521,332,343
Raw,61831.837,333,343
Raw,11474.319,336,343
Raw,55405.711,336,343
Raw,52136.236,336,343
Raw,1.14339898e+05,341,343
Raw,22599.37,344,343
Raw,50955.981,344,343
Raw,15523.657,346,343
Raw,26145.135,352,343
Raw,14891.457,352,343
Raw,36727.467,356,343
Raw,69678.597,361,343
Raw,1.0653959e+05,362,343
Raw,55569.029,364,343
Raw,51761.691,364,343
Raw,67487.637,369,343
Raw,12975.654,369,343
Raw,47684.892,370,343
Raw,21423.216,370,343
Raw,33253.344,375,343
Raw,41108.788,378,343
Raw,83374.879,378,343
Raw,13200.905,379,343
Raw,62695.904,379,343
Raw,34519.771,379,343
Raw,57331.764,386,343
Raw,54953.124,394,343
Raw,89774.081,396,343
Raw,51442.119,399,343
Raw,26628.098,400,343
Raw,14750.206,414,343
Raw,13136.83,414,343
Raw,32912.515,414,343
Raw,69738.615,415,343
Raw,41517.16,418,343
Raw,39905.001,418,343
Raw,66310.351,422,343
Raw,30622.918,425,343
Raw,34407.969,425,343
Raw,24665.224,425,343
Raw,40161.04,439,343
Raw,25659.829,440,343
Raw,60583.799,446,343
Raw,1.06661848e+05,447,343
Raw,94727.465,465,343
Raw,40972.84,469,343
Raw,1.04756545e+05,472,343
Raw,40789.067,484,343
Raw,44850.217,484,343
Raw,45692.862,485,343
Raw,43807.954,486,343
Raw,1.17957743e+05,487,343
Raw,50383.439,489,343
Raw,55751.929,490,343
Raw,26659.433,490,343
Raw,13329.612,491,343
Raw,16847.101,491,343
Raw,75324.485,494,343
Raw,78408.72,499,343
Raw,71079.971,499,343
Raw,53968.291,502,343
Raw,1.17558185e+05,502,343
Raw,22614.38,507,343
Raw,51127.7,513,343
Raw,68320.19,513,343
Raw,85072.527,518,343
Raw,34153.059,524,343
Raw,1.07813526e+05,529,343
Raw,88883.139,538,343
Raw,53413.973,539,343
Raw,26660.431,543,343
Raw,67020.174,556,343
Raw,19254.802,558,343
Raw,28848.584,563,343
Raw,23352.017,569,343
Raw,37845.003,578,343
Raw,65541.139,587,343
Raw,31620.541,587,343
Raw,17705.16,588,343
Raw,44837.822,588,343
Raw,53629.403,589,343
Raw,36494.769,591,343
Raw,44920.981,591,343
Raw,44058.312,598,343
Raw,30912.873,601,343
Raw,24727.701,601,343
Raw,19918.122,619,343
Raw,72106.28,620,343
Raw,76561.164,621,343
Raw,83262.882,643,343
Raw,74898.478,653,343
Raw,29133.441,655,343
Raw,25740.438,655,343
Raw,47180.202,656,343
Raw,61757.677,656,343
Raw,37221.653,657,343
Raw,77151.827,664,343
Raw,28875.425,665,343
Raw,13180.391,667,343
Raw,90063.296,667,343
Raw,54454.919,669,343
Raw,51956.482,681,343
Raw,20065.439,681,343
Raw,31513.609,682,343
Raw,51472.237,687,343
Raw,96887.211,688,343
Raw,18535.874,689,343
Raw,89372.025,693,343
Raw,17970.193,694,343
Raw,10987.668,711,343
Raw,68369.125,713,343
Raw,75826.453,715,343
Raw,54390.493,727,343
Raw,91580.576,734,343
Raw,58667.624,737,343
Raw,53045.931,739,343
Raw,44562.146,739,343
Raw,65081.276,744,343
Raw,13100.073,744,343
Raw,62846.595,755,343
Raw,59449.754,755,343
Raw,32101.908,758,343
Raw,28939.443,767,343
Raw,44140.878,775,343
Raw,47256.876,775,343
Raw,40233.134,775,343
Raw,49502.629,778,343
Raw,29774.203,778,343
Raw,1.17628128e+05,790,343
Raw,57799.878,791,343
Raw,1.01256226e+05,795,343
Raw,8162.0897,801,343
Raw,73805.245,804,343
Raw,23201.941,808,343
Raw,30189.044,808,343
Raw,96372.085,812,343
Raw,43108.161,822,343
Raw,53008.617,823,343
Raw,40827.852,827,343
Raw,87640.412,827,343
Raw,41395.93,842,343
Raw,67641.258,842,343
Raw,55725.66,843,343
Raw,24725.602,849,343
Raw,52527.216,850,343
Raw,23165.668,854,343
Raw,36852.333,863,343
Raw,24262.241,863,343
Raw,37764.423,866,343
Raw,27693.458,866,343
Raw,47823.293,869,343
Raw,32791.393,869,343
Raw,77037.827,873,343
Raw,36593.108,878,343
Raw,21756.058,881,343
Raw,15205.881,881,343
Raw,4251.0581,885,343
Raw,1.17420258e+05,891,343
Raw,28199.872,896,343
Raw,19980.835,897,343
Raw,54260.223,912,343
Raw,30229.666,921,343
Raw,27931.135,926,343
Raw,41921.363,939,343
Raw,69730.974,950,343
Raw,60056.293,965,343
Raw,17649.751,968,343
Raw,29770.556,973,343
Raw,94210.462,980,343
Raw,7691.0204,985,343
Raw,48373.225,985,343
Raw,89280.476,986,343
Raw,37511.123,988,343
Raw,43658.031,988,343
Raw,42757.231,994,343
Raw,39707.57,997,343
Raw,24964.289,1000,343
Raw,83407.224,1009,343
Raw,76734.511,1015,343
Raw,33335.251,1018,343
Raw,97166.093,1022,343
Raw,80372.557,1025,343
Raw,1.01441699e+05,1029,343
Raw,51269.609,1031,343
Raw,32695.385,1033,343
Raw,15827.201,1034,343
Raw,27811.891,1035,343
Raw,26160.709,1035,343
Raw,70309.997,1040,343
Raw,79998.043,1049,343
Raw,40233.85,1061,343
Raw,23585.117,1061,343
Raw,23295.936,1062,343
Raw,38273.291,1062,343
Raw,25341.272,1065,343
Raw,68723.766,1067,343
Raw,20701.879,1067,343
Raw,28551.253,1068,343
Raw,47299.274,1074,343
Raw,63093.631,1080,343
Raw,20805.129,1094,343
Raw,22734.154,1097,343
Raw,29331.237,1098,343
Raw,77890.216,1098,343
Raw,54817.898,1100,343
Raw,45579.294,1104,343
Raw,74317.652,1118,343
Raw,79219.039,1127,343
Raw,67473.63,1129,343
Raw,17227.993,1129,343
Raw,64906.914,1137,343
Raw,37011.201,1142,343
Raw,14686.664,1144,343
Raw,29744.451,1150,343
Raw,44693.715,1150,343
Raw,1.0690729e+05,1160,343
Raw,38759.011,1163,343
Raw,62405.6,1168,343
Raw,11953.578,1173,343
Raw,53147.629,1178,343
Raw,40974.94,1179,343
Raw,46699.344,1180,343
Raw,39018.196,1193,343
Raw,6854.5491,1193,343
Raw,56069.844,1195,343
Raw,33586.18,1198,343
Raw,33427.363,1208,343
Raw,60897.663,1212,343
Raw,44083.372,1212,343
Raw,55660.15,1222,343
Raw,25995.631,1226,343
Raw,36688.778,1227,343
Raw,36565.224,1230,343
Raw,72458.743,1232,343
Raw,57273.085,1232,343
Raw,55666.333,1233,343
Raw,34283.314,1239,343
Raw,30998.472,1239,343
Raw,42900.39,1243,343
Raw,39915.324,1256,343
Raw,34031.254,1257,343
Raw,28111.85,1257,343
Raw,91614.638,1260,343
Raw,34310.618,1266,343
Raw,34646.052,1271,343
Raw,42788.651,1286,343
Raw,89651.43,1287,343
Raw,41760.008,1296,343
Raw,7330.7639,1298,343
Raw,26059.181,1300,343
Raw,47227.855,1301,343
Raw,33853.003,1303,343
Raw,19933.852,1305,343
Raw,35577.697,1307,343
Raw,28375.027,1308,343
Raw,61134.57,1309,343
Raw,34116.065,1309,343
Raw,59292.594,1314,343
Raw,19104.262,1324,343
Raw,29014.272,1325,343
Raw,51267.966,1325,343
Raw,16801.42,1332,343
Raw,84526.439,1332,343
Raw,71136.482,1341,343
Raw,58244.563,1346,343
Raw,36371.641,1357,343
Raw,24184.157,1371,343
Raw,85163.419,1373,343
Raw,16517.021,1375,343
Raw,46094.859,1378,343
Raw,58230.951,1386,343
Raw,36241.145,1387,343
Raw,25498.357,1399,343
Raw,53892.162,1399,343
Raw,41306.344,1399,343
Raw,73301.039,1400,343
Raw,1.1102926e+05,1405,343
Raw,11439.283,1405,343
Raw,84303.546,1406,343
Raw,62001.914,1408,343
Raw,14180.324,1414,343
Raw,21979.051,1414,343
Raw,31611.954,1416,343
Raw,35638.194,1418,343
Raw,63097.142,1431,343
Raw,81543.426,1436,343
Raw,52578.802,1438,343
Raw,44107.449,1442,343
Raw,30392.141,1448,343
Raw,17883.755,1448,343
Raw,78025.317,1454,343
Raw,47899.649,1457,343
Raw,16637.084,1457,343
Raw,53820.277,1464,343
Raw,75093.657,1465,343
Raw,17647.282,1467,343
Raw,57212.442,1477,343
Raw,83106.606,1478,343
Raw,73702.85,1482,343
Raw,68045.196,1486,343
Raw,38524.506,1489,343
Raw,42744.642,1489,343
Raw,27591.822,1492,343
Raw,34626.815,1494,343
Raw,59312.207,1497,343
Raw,32210.924,1497,343
Raw,71421.997,1500,343
Raw,59546.293,1502,343
Raw,76944.834,1505,343
Raw,24099.567,1521,343
Raw,55286.106,1529,343
Raw,55820.212,1531,343
Raw,52751.706,1536,343
Raw,41975.377,1540,343
Raw,43086.76,1540,343
Raw,91709.084,1555,343
Raw,64315.292,1556,343
Raw,47847.727,1557,343
Raw,45920.889,1559,343
Raw,70915.679,1566,343
Raw,47924.353,1568,343
Raw,24970.286,1571,343
Raw,59946.249,1572,343
Raw,84953.077,1572,343
Raw,29142.575,1576,343
Raw,5088.5035,1577,343
Raw,50101.295,1579,343
Raw,50779.997,1582,343
Raw,36515.341,1589,343
Raw,39071.077,1590,343
Raw,22877.651,1591,343
Raw,96027.501,1593,343
Raw,33736.329,1599,343
Raw,59804.181,1602,343
Raw,52007.172,1605,343
Raw,1.05052361e+05,1607,343
Raw,28999.226,1607,343
Raw,8497.6623,1609,343
Raw,71399.61,1610,343
Raw,95688.39,1612,343
Raw,21457.488,1623,343
Raw,12771.074,1626,343
Raw,39369.418,1628,343
Raw,20818.404,1628,343
Raw,31443.161,1634,343
Raw,16966.974,1634,343
Raw,51393.579,1634,343
Raw,39949.095,1636,343
Raw,40049.476,1637,343
Raw,70945.105,1639,343
Raw,35628.832,1641,343
Raw,13936.104,1650,343
Raw,37507.206,1651,343
Raw,29166.857,1651,343
Raw,11451.136,1661,343
Raw,37623.17,1667,343
Raw,30115.395,1670,343
Raw,28601.496,1673,343
Raw,62158.937,1673,343
Raw,45148.712,1675,343
Raw,23325.53,1675,343
Raw,27056.82,1691,343
Raw,30666.151,1693,343
Raw,1.01286698e+05,1694,343
Raw,37579.775,1704,343
Raw,40461.608,1706,343
Raw,47800.489,1707,343
Raw,94689.22,1708,343
Raw,36463.543,1714,343
Raw,82912.693,1717,343
Raw,38149.418,1719,343
Raw,1.11895184e+05,1719,343
Raw,12689.509,1732,343
Raw,83342.675,1733,343
Raw,60923.596,1745,343
Raw,82852.441,1750,343
Raw,27881.731,1760,343
Raw,32963.847,1761,343
Raw,38158.851,1767,343
Raw,21210.742,1767,343
Raw,34639.512,1768,343
Raw,38543.196,1768,343
Raw,41482.506,1776,343
Raw,9689.9442,1779,343
Raw,79923.093,1780,343
Raw,45889.039,1785,343
Raw,40411.893,1787,343
Raw,43592.322,1790,343
Raw,27173.808,1797,343
Raw,1.14401616e+05,1803,343
Raw,54324.91,1818,343
Raw,46341.83,1821,343
Raw,46109.769,1821,343
Raw,61571.156,1822,343
Raw,61530.951,1826,343
Raw,27778.193,1831,343
Raw,5066.2426,1831,343
Raw,78922.877,1848,343
Raw,20427.372,1850,343
Raw,70981.978,1853,343
Raw,44858.068,1853,343
Raw,5578.2934,1853,343
Raw,54314.275,1859,343
Raw,40563.025,1860,343
Raw,16446.33,1864,343
Raw,29136.42,1866,343
Raw,30574.26,1872,343
Raw,11041.93,1875,343
Raw,82134.849,1884,343
Raw,45206.739,1890,343
Raw,69080.322,1891,343
Raw,79132.39,1897,343
Raw,46615.541,1904,343
Raw,43168.694,1908,343
Raw,34761.88,1909,343
Raw,61924.941,1910,343
Raw,46283.612,1916,343
Raw,45057.503,1917,343
Raw,31720.71,1922,343
Raw,11755.938,1925,343
Raw,43730.215,1926,343
Raw,95334.274,1928,343
Raw,62165.93,1930,343
Raw,93210.786,1930,343
Raw,49643.712,1933,343
Raw,34617.041,1934,343
Raw,28898.353,1942,343
Raw,61206.623,1950,343
Raw,1.12697075e+05,1955,343
Raw,26588.553,1956,343
Raw,78637.604,1959,343
Raw,15475.99,1959,343
Raw,24998.103,1961,343
Raw,28082.297,1961,343
Raw,40772.705,1968,343
Raw,44391.757,1968,343
Raw,62254.123,1970,343
Raw,38073.041,1987,343
Raw,30573.558,1987,343
Raw,29572.611,1990,343
Raw,46552.004,2018,343
Raw,15981.28,2022,343
Raw,52786.262,2034,343
Raw,34865.603,2039,343
Raw,47793.291,2039,343
Raw,42275.275,2040,343
Raw,37766.097,2040,343
Raw,42947.907,2044,343
Raw,77834.871,2049,343
Raw,70024.091,2054,343
Raw,22877.501,2055,343
Raw,5995.1469,2055,343
Raw,23345.616,2068,343
Raw,39253.816,2069,343
Raw,53372.023,2076,343
Raw,21117.369,2076,343
Raw,35376.037,2079,343
Raw,19114.662,2079,343
Raw,28081.621,2082,343
Raw,69749.148,2082,343
Raw,26183.071,2094,343
Raw,49397.343,2100,343
Raw,25491.707,2100,343
Raw,19521.482,2103,343
Raw,30667.027,2103,343
Raw,28798.033,2112,343
Raw,39335.501,2112,343
Raw,50795.911,2113,343
Raw,99422.059,2113,343
Raw,37072.837,2114,343
Raw,46330.297,2119,343
Raw,42615.88,2119,343
Raw,22066.026,2119,343
Raw,58061.826,2120,343
Raw,40997.226,2133,343
Raw,59501.699,2135,343
Raw,10220.426,2142,343
Raw,59340.795,2143,343
Raw,37234.286,2146,343
Raw,72478.982,2149,343
Raw,29128.069,2151,343
Raw,71293.662,2157,343
Raw,1.13170559e+05,2157,343
Raw,11760.089,2159,343
Raw,84411.104,2165,343
Raw,38476.625,2174,343
Raw,84794.133,2179,343
Raw,50199.823,2186,343
Raw,49806.154,2186,343
Raw,35409.09,2190,343
Raw,76323.76,2191,343
Raw,57554.468,2192,343
Raw,21751.658,2194,343
Raw,26204.365,2218,343
Raw,11720.682,2223,343
Raw,33619.85,2229,343
Raw,36030.892,2238,343
Raw,56203.681,2245,343
Raw,93139.961,2252,343
Raw,28266.363,2252,343
Raw,34800.99,2254,343
Raw,35105.605,2256,343
Raw,7750.9809,2256,343
Raw,88806.94,2259,343
Raw,21796.949,2263,343
Raw,44362.491,2268,343
Raw,36275.946,2271,343
Raw,41968.179,2275,343
Raw,20618.993,2275,343
Raw,35765.807,2280,343
Raw,66383.311,2281,343
Raw,75787.905,2284,343
Raw,47640.515,2284,343
Raw,1.13594743e+05,2288,343
Raw,49092.004,2292,343
Raw,26598.749,2292,343
Raw,36681.862,2310,343
Raw,51725.317,2313,343
Raw,90136.016,2316,343
Raw,26819.538,2323,343
Raw,60256.575,2326,343
Raw,40056.079,2334,343
Raw,38025.398,2338,343
Raw,34031.283,2361,343
Raw,63648.839,2363,343
Raw,1.0318626e+05,2365,343
Raw,38010.513,2366,343
Raw,23001.372,2369,343
Raw,43836.791,2369,343
Raw,19681.253,2382,343
Raw,1.03198246e+05,2384,343
Raw,51641.396,2389,343
Raw,52646.281,2390,343
Raw,70053.297,2391,343
Raw,18557.772,2394,343
Raw,24285.132,2394,343
Raw,45781.762,2394,343
Raw,77762.788,2397,343
Raw,79806.615,2401,343
Raw,69714.227,2402,343
Raw,26294.519,2403,343
Raw,38028.365,2408,343
Raw,44576.545,2415,343
Raw,1.02807003e+05,2419,343
Raw,23490.122,2422,343
Raw,32465.324,2422,343
Raw,21260.404,2432,343
Raw,74853.295,2438,343
Raw,23817.132,2440,343
Raw,25216.865,2444,343
Raw,97791.666,2445,343
Raw,40602.854,2448,343
Raw,26133.436,2448,343
Raw,1.03028888e+05,2452,343
Raw,69740.134,2463,343
Raw,1.08255472e+05,2468,343
Raw,94838.023,2478,343
Raw,71385.836,2484,343
Raw,36273.23,2485,343
Raw,37573.654,2496,343
Raw,42040.605,2500,343
Raw,40554.191,2500,343
Raw,33805.188,2509,343
Raw,57393.612,2515,343
Raw,43849.125,2516,343
Raw,83433.3,2517,343
Raw,1.03753164e+05,2519,343
Raw,27959.303,2524,343
Raw,64190.287,2527,343
Raw,40029.144,2527,343
Raw,13314.62,2533,343
Raw,1.04248557e+05,2542,343
Raw,38864.374,2552,343
Raw,46059.584,2556,343
Raw,61942.166,2557,343
Raw,67268.408,2562,343
Raw,24966.189,2562,343
Raw,1.10133743e+05,2564,343
Raw,26106.871,2568,343
Raw,42295.18,2568,343
Raw,53490.552,2573,343
Raw,42600.037,2579,343
Raw,30381.469,2579,343
Raw,29383.021,2585,343
Raw,20800.398,2585,343
Raw,13972.15,2589,343
Raw,18251.471,2602,343
Raw,36637.909,2606,343
Raw,32641.81,2614,343
Raw,52744.229,2633,343
Raw,22021.941,2649,343
Raw,1.09056012e+05,2650,343
Raw,31787.985,2651,343
Raw,46691.182,2655,343
Raw,34144.557,2656,343
Raw,39784,2671,343
Raw,97322.813,2680,343
Raw,62914.33,2681,343
Raw,95425.822,2689,343
Raw,40876.157,2690,343
Raw,39249.122,2695,343
Raw,63592.14,2706,343
Raw,47121.396,2706,343
Raw,33138.396,2708,343
Raw,1.03335886e+05,2714,343
Raw,52838.846,2715,343
Raw,79668.821,2721,343
Raw,42747.889,2751,343
Raw,1.03891999e+05,2758,343
Raw,56082.076,2768,343
Raw,35075.517,2775,343
Raw,30161.736,2779,343
Raw,26617.663,2783,343
Raw,55296.007,2793,343
Raw,70349.92,2798,343
Raw,30065.084,2804,343
Raw,17379.063,2804,343
Raw,64661.664,2807,343
Raw,16540.664,2810,343
Raw,36403.124,2812,343
Raw,35420.642,2812,343
Raw,19655.226,2819,343
Raw,45154.658,2824,343
Raw,69975.196,2829,343
Raw,34980.702,2847,343
Raw,59213.94,2858,343
Raw,71844.548,2860,343
Raw,42798.617,2866,343
Raw,45135.397,2872,343
Raw,93821.557,2875,343
Raw,62465.587,2882,343
Raw,93689.106,2885,343
Raw,47098.725,2900,343
Raw,29124.745,2900,343
Raw,27789.899,2902,343
Raw,27794.78,2906,343
Raw,39076.121,2906,343
Raw,34193.116,2906,343
Raw,96410.936,2909,343
Raw,54240.18,2909,343
Raw,43684.971,2910,343
Raw,26121.559,2911,343
Raw,25956,2915,343
Raw,54127.358,2916,343
Raw,1.13489801e+05,2917,343
Raw,40059.939,2918,343
Raw,33077.575,2924,343
Raw,36523.666,2925,343
Raw,23688.818,2925,343
Raw,22191.174,2932,343
Raw,38797.585,2935,343
Raw,40809.103,2936,343
Raw,75413.034,2943,343
Raw,37711.56,2946,343
Raw,28819.229,2949,343
Raw,15819.12,2949,343
Raw,73689.114,2953,343
Raw,34729.354,2958,343
Raw,32205.409,2959,343
Raw,12509.196,2961,343
Raw,57517.672,2963,343
Raw,22428.11,2963,343
Raw,48396.76,2964,343
Raw,38414.695,2965,343
Raw,67147.774,2970,343
Raw,66339.577,2976,343
Raw,60589.667,2976,343
Raw,72803.872,2977,343
Raw,1.14163574e+05,2978,343
Raw,69359.287,2987,343
Raw,64539.821,2988,343
Raw,75955.482,2989,343
Raw,1.07835431e+05,2990,343
Raw,20407.755,2991,343
Raw,43357.503,3012,343
Raw,25577.728,3013,343
Raw,70842.81,3015,343
Raw,46690.126,3019,343
Raw,1.03840946e+05,3024,343
Raw,82389.299,3028,343
Raw,33211.008,3028,343
Raw,68282.119,3029,343
Raw,15048.374,3029,343
Raw,54499.689,3031,343
Raw,86017.777,3034,343
Raw,62544.704,3035,343
Raw,37645.64,3049,343
Raw,17171.72,3049,343
Raw,42579.923,3052,343
Raw,41742.895,3054,343
Raw,23031.354,3054,343
Raw,47000.879,3058,343
Raw,55671.28,3072,343
Raw,66121.207,3074,343
Raw,31440.45,3094,343
Raw,17531.433,3096,343
Raw,32833.366,3099,343
Raw,90525.093,3101,343
Raw,31508.905,3103,343
Raw,28865.795,3111,343
Raw,38711.228,3111,343
Raw,31948.623,3113,343
Raw,38885.123,3115,343
Raw,53630.53,3115,343
Raw,44263.991,3118,343
Raw,40906.945,3129,343
Raw,32863.726,3136,343
Raw,22058.9,3142,343
Raw,43580.307,3142,343
Raw,63564.481,3164,343
Raw,53627.18,3167,343
Raw,30277.788,3182,343
Raw,43504.237,3186,343
Raw,41599.66,3186,343
Raw,25459.127,3188,343
Raw,21838.029,3190,343
Raw,40061.646,3194,343
Raw,19688.63,3195,343
Raw,46623.342,3199,343
Raw,31444.948,3200,343
Raw,15594.135,3202,343
Raw,18432.787,3203,343
Raw,43422.823,3211,343
Raw,54218.744,3211,343
Raw,76183.841,3212,343
Raw,54419.055,3219,343
Raw,60841.658,3223,343
Raw,41529.751,3225,343
Raw,13061.002,3225,343
Raw,74553.857,3231,343
Raw,20751.135,3236,343
Raw,25837.19,3239,343
Raw,67053.806,3239,343
Raw,44997.854,3240,343
Raw,45003.135,3242,343
Raw,25957.022,3250,343
Raw,1.08269834e+05,3260,343
Raw,48000.671,3260,343
Raw,47207.501,3268,343
Raw,34929.088,3275,343
Raw,36497.934,3276,343
Raw,40635.247,3276,343
Raw,56685.187,3280,343
Raw,19664.686,3286,343
Raw,41619.984,3286,343
Raw,43716.521,3288,343
Raw,72642.591,3308,343
Raw,60707.134,3308,343
Raw,40050.568,3310,343
Raw,42471.391,3311,343
Raw,41086.406,3314,343
Raw,34407.075,3329,343
Raw,19750.565,3355,343
Raw,99419.276,3355,343
Raw,15888.458,3359,343
Raw,25031.129,3369,343
Raw,55082.071,3385,343
Raw,63965.979,3392,343
Raw,39391.629,3392,343
Raw,84617.123,3395,343
Raw,26404.517,3396,343
Raw,62798.744,3400,343
Raw,42456.225,3404,343
Raw,38359.078,3405,343
Raw,80041.499,3406,343
Raw,32507.673,3408,343
Raw,22846.149,3408,343
Raw,1.00682921e+05,3409,343
Raw,1.02949413e+05,3411,343
Raw,57739.303,3416,343
Raw,85849.496,3418,343
Raw,45060.446,3427,343
Raw,38969.587,3430,343
Raw,40573.78,3432,343
Raw,36748.792,3436,343
Raw,21586.375,3438,343
Raw,76028.817,3441,343
Raw,59838.425,3449,343
Raw,65788.954,3454,343
Raw,42604.715,3458,343
Raw,38302.201,3458,343
Raw,33240.131,3458,343
Raw,34897.78,3460,343
Raw,98084.282,3460,343
Raw,33980.03,3463,343
Raw,29007.177,3465,343
Raw,70856.761,3465,343
Raw,1.10784108e+05,3471,343
Raw,89755.203,3472,343
Raw,7233.9832,3472,343
Raw,84439.512,3475,343
Raw,39390.179,3476,343
Raw,16395.91,3476,343
Raw,46169.551,3476,343
Raw,67652.025,3478,343
Raw,14712.4,3478,343
Raw,43071.527,3482,343
Raw,27582.445,3499,343
Raw,28380.309,3502,343
Raw,27465.141,3507,343
Raw,33957.611,3507,343
Raw,45866.515,3512,343
Raw,34346.932,3512,343
Raw,33044.954,3512,343
Raw,47455.214,3513,343
Raw,33770.05,3515,343
Raw,64163.035,3519,343
Raw,59085.763,3524,343
Raw,20612.571,3530,343
Raw,81260.527,3535,343
Raw,58435.107,3537,343
Raw,84635.523,3547,343
Raw,16602.537,3554,343
Raw,58865.618,3556,343
Raw,40924.066,3556,343
Raw,20347.823,3566,343
Raw,37324.222,3579,343
Raw,96094.232,3581,343
Raw,22223.562,3591,343
Raw,13516.117,3594,343
Raw,55822.021,3595,343
Raw,23459.982,3601,343
Raw,62025.495,3617,343
Raw,55555.248,3634,343
Raw,9081.7503,3634,343
Raw,45382.223,3656,343
Raw,43867.578,3656,343
Raw,54547.953,3661,343
Raw,1.05154912e+05,3668,343
Raw,47394.996,3668,343
Raw,1.05221823e+05,3674,343
Raw,98818.298,3677,343
Raw,29853.748,3688,343
Raw,55428.888,3689,343
Raw,6959.9,3689,343
Raw,42250.582,3697,343
Raw,37238.766,3703,343
Raw,43616.842,3704,343
Raw,90827.901,3705,343
Raw,14218.685,3709,343
Raw,32388.817,3709,343
Raw,5766.9538,3709,343
Raw,10628.216,3712,343
Raw,43452.123,3713,343
Raw,46730.241,3713,343
Raw,35939.316,3715,343
Raw,20493.033,3719,343
Raw,37161.754,3721,343
Raw,45821.78,3722,343
Raw,23909.142,3722,343
Raw,30774.659,3724,343
Raw,55510.994,3725,343
Raw,19314.211,3725,343
Raw,74534.331,3727,343
Raw,42169.231,3727,343
Raw,12431.218,3728,343
Raw,46603.078,3732,343
Raw,4712.3853,3732,343
Raw,32942.87,3734,343
Raw,28834.95,3737,343
Raw,33418.155,3739,343
Raw,1.10134101e+05,3740,343
Raw,8699.7713,3743,343
Raw,36883.491,3743,343
Raw,53680.853,3746,343
Raw,52478.967,3748,343
Raw,12559.028,3752,343
Raw,37491.843,3752,343
Raw,58686.619,3758,343
Raw,41349.166,3772,343
Raw,52271.547,3778,343
Raw,66590.676,3780,343
Raw,19845.951,3785,343
Raw,99842.558,3785,343
Raw,68222.843,3804,343
Raw,39151.206,3820,343
Raw,62773.593,3821,343
Raw,51496.3,3834,343
Raw,26713.403,3837,343
Raw,36978.467,3838,343
Raw,1.09992739e+05,3840,343
Raw,19039.511,3850,343
Raw,25955.382,3854,343
Raw,80119.544,3855,343
Raw,1.13847875e+05,3855,343
Raw,64108.382,3862,343
Raw,22713.202,3864,343
Raw,32904.896,3867,343
Raw,31395.025,3869,343
Raw,53544.723,3869,343
Raw,98715.476,3875,343
Raw,79141.047,3877,343
Raw,16782.75,3877,343
Raw,41072.277,3879,343
Raw,37103.214,3884,343
Raw,56348.336,3889,343
Raw,19538.464,3889,343
Raw,69113.053,3891,343
Raw,34838.501,3897,343
Raw,29313.274,3897,343
Raw,47225.173,3901,343
Raw,57212.84,3901,343
Raw,37802.688,3902,343
Raw,34421.11,3914,343
Raw,38604.281,3914,343
Raw,27221.872,3914,343
Raw,28099.706,3921,343
Raw,14160.232,3921,343
Raw,44987.595,3924,343
Raw,84543.995,3929,343
Raw,75842.601,3935,343
Raw,54148.697,3942,343
Raw,38773.991,3946,343
Raw,81045.349,3948,343
Raw,8176.0328,3954,343
Raw,44453.405,3954,343
Raw,85441.791,3955,343
Raw,1.03443139e+05,3956,343
Raw,64642.619,3972,343
Raw,41425.745,3973,343
Raw,25727.508,3973,343
Raw,13309.329,3978,343
Raw,32572.097,3980,343
Raw,35757.565,3981,343
Raw,19771.206,3987,343
Raw,47986.843,3990,343
Raw,27015.762,3990,343
Raw,43603.44,3993,343
Raw,33956.01,3993,343
Raw,41007.902,3994,343
Raw,52620.792,3996,343
Raw,26371.546,3996,343
Raw,46707.2,3998,343
Raw,57001.089,3999,343
Raw,16110.712,4003,343
Raw,37522.318,4006,343
Raw,8947.811,4006,343
Raw,52969.088,4009,343
Raw,38214.686,4009,343
Raw,61982.346,4012,343
Raw,22851.803,4013,343
Raw,32105.87,4026,343
Raw,19147.823,4026,343
Raw,18007.331,4027,343
Raw,26603.059,4029,343
Raw,39224.951,4045,343
Raw,57477.388,4045,343
Raw,28514.451,4047,343
Raw,35847.26,4049,343
Raw,1.11007392e+05,4054,343
Raw,33765.218,4060,343
Raw,48088.111,4063,343
Raw,1.18273447e+05,4065,343
Raw,46370.824,4071,343
Raw,21488.567,4071,343
Raw,60735.241,4073,343
Raw,57644.216,4099,343
Raw,29154.819,4103,343
Raw,1.1475411e+05,4107,343
Raw,51003.541,4116,343
Raw,57749.706,4119,343
Raw,72080.077,4121,343
Raw,33244.808,4122,343
Raw,96380.381,4122,343
Raw,91427.543,4134,343
Raw,56944.351,4134,343
Raw,51871.927,4140,343
Raw,40635.277,4142,343
Raw,51510.488,4142,343
Raw,26764.927,4143,343
Raw,34449.691,4146,343
Raw,31809.668,4147,343
Raw,20560.224,4151,343
Raw,27725.602,4151,343
Raw,65855.602,4152,343
Raw,27124.023,4160,343
Raw,45915.68,4163,343
Raw,74532.879,4166,343
Raw,47675.645,4182,343
Raw,27295.449,4182,343
Raw,30370.714,4192,343
Raw,31456.344,4205,343
Raw,86044.695,4214,343
Raw,63039.058,4217,343
Raw,8297.1384,4242,343
Raw,75306.49,4244,343
Raw,28848.465,4248,343
Raw,63192.967,4258,343
Raw,27751.49,4261,343
Raw,27722.623,4271,343
Raw,77739.335,4272,343
Raw,20118.139,4274,343
Raw,42159.612,4285,343
Raw,40270.976,4288,343
Raw,41868.891,4292,343
Raw,44213.789,4292,343
Raw,95374.724,4293,343
Raw,75195.58,4297,343
Raw,72604.885,4306,343
Raw,1.03087376e+05,4309,343
Raw,79436.917,4315,343
Raw,63749.43,4319,343
Raw,64397.697,4328,343
Raw,29608.137,4328,343
Raw,55744.616,4336,343
Raw,68716.3,4342,343
Raw,58292.584,4342,343
Raw,46790.023,4343,343
Raw,40599.552,4343,343
Raw,55813.76,4347,343
Raw,40580.265,4351,343
Raw,40627.845,4352,343
Raw,35614.861,4353,343
Raw,38484.546,4353,343
Raw,38456.997,4353,343
Raw,10206.939,4356,343
Raw,51940.492,4361,343
Raw,56577.472,4367,343
Raw,17020.036,4368,343
Raw,34253.987,4376,343
Raw,58037.483,4379,343
Raw,17865.048,4379,343
Raw,22171.322,4388,343
Raw,35556.794,4394,343
Raw,48071.585,4407,343
Raw,32236.258,4407,343
Raw,43834.734,4417,343
Raw,64014.687,4417,343
Raw,54682.612,4423,343
Raw,85529.219,4430,343
Raw,16213.313,4438,343
Raw,1.0227456e+05,4442,343
Raw,41305.66,4444,343
Raw,50895.128,4449,343
Raw,29262.61,4451,343
Raw,39212.943,4451,343
Raw,65983.189,4452,343
Raw,74009.622,4452,343
Raw,38823.025,4455,343
Raw,11549.896,4455,343
Raw,58662.73,4459,343
Raw,37721.961,4460,343
Raw,15879.496,4460,343
Raw,72236.814,4467,343
Raw,1.1088825e+05,4496,343
Raw,29385.544,4496,343
Raw,32593.21,4498,343
Raw,19393.087,4498,343
Raw,76265.187,4510,343
Raw,74499.902,4512,343
Raw,26359.013,4512,343
Raw,19704.064,4516,343
Raw,80830.796,4528,343
Raw,36544.261,4530,343
Raw,34596.945,4535,343
Raw,42866.376,4540,343
Raw,27238.952,4545,343
Raw,20110.817,4545,343
Raw,66393.712,4548,343
Raw,35401.694,4553,343
Raw,33184.669,4553,343
Raw,22669.688,4562,343
Raw,30272.109,4562,343
Raw,24013.871,4583,343
Raw,26488.079,4588,343
Raw,56058.903,4589,343
Raw,55881.674,4590,343
Raw,46069.731,4590,343
Raw,31747.43,4595,343
Raw,40596.739,4596,343
Raw,1.14011165e+05,4596,343
Raw,24662.783,4598,343
Raw,10117.304,4598,343
Raw,93049.362,4605,343
Raw,65031.187,4606,343
Raw,38369.112,4611,343
Raw,83643.165,4613,343
Raw,25656.523,4618,343
Raw,35989.362,4618,343
Raw,37232.937,4623,343
Raw,32975.144,4623,343
Raw,41887.753,4626,343
Raw,21361.905,4627,343
Raw,22218.445,4629,343
Raw,42131.203,4630,343
Raw,34253.24,4630,343
Raw,26924.228,4637,343
Raw,71608.817,4637,343
Raw,19331.414,4653,343
Raw,41400.142,4653,343
Raw,34009.15,4653,343
Raw,43972.157,4659,343
Raw,45662.443,4678,343
Raw,25409.107,4679,343
Raw,87162.034,4679,343
Raw,55499.743,4687,343
Raw,37672.816,4687,343
Raw,45104.174,4688,343
Raw,73993.224,4696,343
Raw,54322.882,4696,343
Raw,32262.176,4727,343
Raw,43977.465,4732,343
Raw,47722.123,4732,343
Raw,1.01310371e+05,4736,343
Raw,29334.376,4740,343
Raw,70001.148,4741,343
Raw,41558.151,4750,343
Raw,66797.793,4757,343
Raw,91089.429,4757,343
Raw,27647.302,4759,343
Raw,53328.591,4763,343
Raw,6019.8397,4763,343
Raw,26727.689,4768,343
Raw,38227.198,4779,343
Raw,36403.021,4784,343
Raw,33945.213,4790,343
Raw,1.07549038e+05,4797,343
Raw,21872.235,4804,343
Raw,33634.384,4805,343
Raw,26401.39,4806,343
Raw,1.16794643e+05,4808,343
Raw,23303.327,4813,343
Raw,61288.472,4819,343
Raw,30041.523,4820,343
Raw,45794.25,4832,343
Raw,41478.617,4837,343
Raw,1.17352209e+05,4842,343
Raw,56977.611,4842,343
Raw,33341.057,4844,343
Raw,85948.411,4844,343
Raw,41705.438,4846,343
Raw,39993.886,4850,343
Raw,22311.504,4850,343
Raw,1.06862729e+05,4852,343
Raw,29129.76,4854,343
Raw,23644.78,4855,343
Raw,21221.062,4855,343
Raw,26916.919,4855,343
Raw,24768.142,4858,343
Raw,27260.536,4862,343
Raw,40003.357,4869,343
Raw,74069.859,4872,343
Raw,42535.136,4875,343
Raw,1.028275e+05,4875,343
Raw,45228.315,4883,343
Raw,29488.85,4885,343
Raw,31345.239,4886,343
Raw,49412.429,4891,343
Raw,20516.06,4899,343
Raw,58928.873,4901,343
Raw,58081.636,4915,343
Raw,49786.99,4915,343
Raw,19920.47,4918,343
Raw,1.0366348e+05,4919,343
Raw,26354.154,4926,343
Raw,6363.1975,4933,343
Raw,63733.658,4945,343
Raw,21504.63,4952,343
Raw,30270.228,4957,343
Raw,32021.418,4964,343
Raw,33705.302,4964,343
Raw,37779.586,4965,343
Raw,37168.75,4967,343
Raw,58274.076,4967,343
Raw,12057.592,4967,343
Raw,69472.579,4970,343
Raw,52834.14,4970,343
Raw,66699.878,4972,343
Raw,31114.732,4975,343
Raw,76287.863,4975,343
Raw,69861.711,4983,343
Raw,46619.422,4984,343
Raw,40390.97,4986,343
Raw,72740.841,4995,343
Raw,37261.707,4999,343
Raw,36446.555,5006,343
Raw,11337.049,5015,343
Raw,86744.684,5029,343
Raw,50090.313,5029,343
Raw,68334.879,5036,343
Raw,5882.4114,5037,343
Raw,30237.359,5040,343
Raw,40060.618,5040,343
Raw,91292.704,5043,343
Raw,42565.324,5044,343
Raw,58151.92,5045,343
Raw,88072.218,5048,343
Raw,46082.93,5050,343
Raw,52208.574,5060,343
Raw,90363.928,5069,343
Raw,66463.148,5070,343
Raw,49907.818,5076,343
Raw,22992.356,5077,343
Raw,44122.616,5077,343
Raw,21322.443,5077,343
Raw,41395.23,5082,343
Raw,37068.5,5095,343
Raw,74982.906,5097,343
Raw,30456.391,5097,343
Raw,65765.146,5099,343
Raw,46728.739,5111,343
Raw,32255.585,5123,343
Raw,39666.262,5135,343
Raw,23597.441,5135,343
Raw,37590.875,5137,343
Raw,50429.217,5145,343
Raw,8103.8212,5145,343
Raw,43117.064,5148,343
Raw,58056.242,5148,343
Raw,54549.428,5151,343
Raw,31369.541,5154,343
Raw,65817.791,5158,343
Raw,1.01452647e+05,5158,343
Raw,65280.657,5174,343
Raw,46454.122,5176,343
Raw,18858.753,5178,343
Raw,43119.608,5179,343
Raw,54045.969,5183,343
Raw,10002.514,5183,343
Raw,10603.381,5187,343
Raw,56788.335,5188,343
Raw,21777.869,5188,343
Raw,44274.103,5195,343
Raw,94900.356,5196,343
Raw,44104.661,5197,343
Raw,42296.413,5199,343
Raw,29773.227,5209,343
Raw,39045.598,5219,343
Raw,1.06204812e+05,5220,343
Raw,7894.6796,5224,343
Raw,1.09802172e+05,5233,343
Raw,1.08303745e+05,5239,343
Raw,23777.181,5240,343
Raw,38006.575,5240,343
Raw,49873.503,5242,343
Raw,21172.076,5242,343
Raw,41543.187,5251,343
Raw,36335.525,5269,343
Raw,42712.493,5270,343
Raw,93042.865,5272,343
Raw,99274.482,5276,343
Raw,86053.249,5277,343
Raw,28522.321,5280,343
Raw,1.18196942e+05,5283,343
Raw,48447.074,5288,343
Raw,39944.412,5293,343
Raw,32561.898,5300,343
Raw,23461.02,5303,343
Raw,53251.522,5307,343
Raw,58866.001,5316,343
Raw,24052.126,5324,343
Raw,30820.847,5325,343
Raw,26504.196,5337,343
Raw,63286.045,5344,343
Raw,28360.046,5344,343
Raw,53812.586,5357,343
Raw,20471.84,5357,343
Raw,1.15925046e+05,5362,343
Raw,32044.483,5363,343
Raw,18522.335,5364,343
Raw,69448.173,5369,343
Raw,37003.586,5373,343
Raw,52256.252,5383,343
Raw,49850.296,5394,343
Raw,24758.156,5394,343
Raw,73729.756,5396,343
Raw,52071.504,5397,343
Raw,41573.729,5397,343
Raw,45040.343,5407,343
Raw,67401.228,5418,343
Raw,27538.894,5418,343
Raw,70456.376,5421,343
Raw,11359.237,5429,343
Raw,53212.451,5430,343
Raw,32463.726,5430,343
Raw,38803.396,5434,343
Raw,56648.562,5435,343
Raw,80605.286,5438,343
Raw,36664.785,5439,343
Raw,54998.337,5443,343
Raw,67253.338,5445,343
Raw,16416.72,5458,343
Raw,99912.579,5459,343
Raw,47411.836,5461,343
Raw,32841.462,5487,343
Raw,31877.266,5492,343
Raw,19701.164,5498,343
Raw,23570.814,5499,343
Raw,52150.26,5500,343
Raw,26972.915,5500,343
Raw,46941.17,5504,343
Raw,32750.922,5506,343
Raw,74171.703,5507,343
Raw,57755.984,5514,343
Raw,25881.449,5515,343
Raw,71505.987,5522,343
Raw,33268.62,5525,343
Raw,18436.69,5525,343
Raw,1.04220336e+05,5526,343
Raw,35756.995,5532,343
Raw,39399.974,5532,343
Raw,64349.144,5538,343
Raw,49087.856,5542,343
Raw,84169.034,5543,343
Raw,29717.185,5545,343
Raw,76563.995,5546,343
Raw,48998.444,5565,343
Raw,41484.294,5579,343
Raw,39569.804,5581,343
Raw,29955.773,5581,343
Raw,51456.34,5587,343
Raw,68918.651,5592,343
Raw,48653.72,5595,343
Raw,58219.331,5601,343
Raw,15565.268,5603,343
Raw,93698.57,5610,343
Raw,60692.079,5610,343
Raw,43548.741,5614,343
Raw,40123.558,5614,343
Raw,44245.053,5621,343
Raw,25738.116,5621,343
Raw,44000.246,5621,343
Raw,86181.973,5625,343
Raw,30735.216,5631,343
Raw,38323.747,5633,343
Raw,8685.136,5634,343
Raw,39445.569,5635,343
Raw,20977.847,5637,343
Raw,1.07391647e+05,5655,343
Raw,33928.789,5660,343
Raw,24486.579,5660,343
Raw,25205.752,5663,343
Raw,73304.082,5665,343
Raw,73519.592,5672,343
Raw,45554.944,5673,343
Raw,43873.622,5686,343
Raw,38247.45,5702,343
Raw,70561.151,5702,343
Raw,87582.566,5703,343
Raw,53227.617,5704,343
Raw,25743.684,5709,343
Raw,37782.067,5712,343
Raw,1.03607263e+05,5712,343
Raw,34811.959,5718,343
Raw,42092.674,5726,343
Raw,20098.046,5726,343
Raw,35388.786,5729,343
Raw,37371.032,5734,343
Raw,26003.279,5741,343
Raw,40996.187,5746,343
Raw,93668.537,5748,343
Raw,84095.327,5755,343
Raw,38077.554,5757,343
Raw,47654.824,5757,343
Raw,16780.22,5758,343
Raw,48099.974,5775,343
Raw,40424.258,5777,343
Raw,44125.346,5779,343
Raw,18909.99,5779,343
Raw,36079.813,5787,343
Raw,66607.975,5789,343
Raw,28185.034,5790,343
Raw,40536.298,5800,343
Raw,44393.184,5800,343
Raw,40792.565,5807,343
Raw,35017.311,5813,343
Raw,38533.369,5814,343
Raw,39388.855,5822,343
Raw,62024.725,5822,343
Raw,81960.366,5824,343
Raw,55492.791,5824,343
Raw,6782.9747,5824,343
Raw,33109.031,5870,343
Raw,16374.438,5871,343
Raw,18186.726,5873,343
Raw,28414.934,5876,343
Raw,97260.178,5885,343
Raw,52148.233,5894,343
Raw,47149.775,5897,343
Raw,37830.187,5899,343
Raw,45533.782,5904,343
Raw,55330.636,5912,343
Raw,12358.695,5918,343
Raw,24761.284,5934,343
Raw,63972.836,5942,343
Raw,25077.049,5942,343
Raw,48189.829,5947,343
Raw,7007.1555,5947,343
Raw,21399.594,5953,343
Raw,32212.874,5957,343
Raw,38232.309,5962,343
Raw,59119.16,5967,343
Raw,38133.285,5967,343
Raw,20056.488,5971,343
Raw,16132.571,5975,343
Raw,18552.845,5975,343
Raw,40727.836,5979,343
Raw,70458.232,5984,343
Raw,83937.174,5989,343
Raw,1.12156833e+05,5992,343
Raw,29232.061,5995,343
Raw,35234.297,5999,343
Raw,55626.489,5999,343
Raw,27146.668,6009,343
Raw,95905.821,6017,343
Raw,22244.699,6018,343
Raw,23455.595,6019,343
Raw,44714.201,6019,343
Raw,10939.925,6021,343
Raw,34820.143,6021,343
Raw,85515.775,6022,343
Raw,40613.422,6027,343
Raw,57159.959,6030,343
Raw,14133.066,6030,343
Raw,34322.047,6031,343
Raw,29092.976,6036,343
Raw,58267.549,6037,343
Raw,44334.566,6037,343
Raw,52988.386,6038,343
Raw,16726.315,6038,343
Raw,66123.643,6039,343
Raw,68782.806,6053,343
Raw,53987.285,6065,343
Raw,43890.186,6067,343
Raw,30744.677,6067,343
Raw,28902.261,6069,343
Raw,29179.027,6078,343
Raw,30770.053,6080,343
Raw,26557.231,6080,343
Raw,54172.145,6081,343
Raw,50034.771,6086,343
Raw,10183.728,6102,343
Raw,1.09250941e+05,6102,343
Raw,22495.037,6106,343
Raw,52782.315,6113,343
Raw,21404.812,6113,343
Raw,40890.203,6113,343
Raw,24421.794,6118,343
Raw,86919.959,6121,343
Raw,37058.642,6124,343
Raw,86041.273,6126,343
Raw,25300.503,6126,343
Raw,73268.395,6141,343
Raw,40060.731,6142,343
Raw,47464.147,6144,343
Raw,41777.942,6147,343
Raw,1.16323433e+05,6147,343
Raw,42305.401,6150,343
Raw,48227.75,6155,343
Raw,41785.88,6176,343
Raw,30011.375,6176,343
Raw,1.17350738e+05,6178,343
Raw,42960.409,6179,343
Raw,80354.759,6179,343
Raw,18164.193,6180,343
Raw,38085.914,6180,343
Raw,29056.779,6184,343
Raw,29999.055,6185,343
Raw,37401.954,6185,343
Raw,40765.01,6213,343
Raw,35806.921,6224,343
Raw,1.10732006e+05,6224,343
Raw,34684.876,6227,343
Raw,64296.18,6237,343
Raw,81945.356,6237,343
Raw,43394.553,6248,343
Raw,31548.392,6265,343
Raw,30738.464,6268,343
Raw,54385.242,6273,343
Raw,52519.651,6280,343
Raw,53870.853,6280,343
Raw,40847.176,6283,343
Raw,90751.51,6283,343
Raw,36913.625,6288,343
Raw,50814.707,6289,343
Raw,50015.915,6292,343
Raw,48377.044,6292,343
Raw,39046.974,6300,343
Raw,27452.212,6300,343
Raw,18767.077,6305,343
Raw,19244.323,6305,343
Raw,37129.004,6307,343
Raw,41279.208,6310,343
Raw,6853.3899,6310,343
Raw,50340.374,6312,343
Raw,33437.732,6317,343
Raw,17128.891,6317,343
Raw,43547.902,6318,343
Raw,53298.099,6328,343
Raw,28946.618,6328,343
Raw,58510.244,6335,343
Raw,40065.503,6338,343
Raw,32624.045,6338,343
Raw,20794.342,6342,343
Raw,36764.991,6342,343
Raw,39405.799,6343,343
Raw,53372.169,6346,343
Raw,20568.68,6355,343
Raw,85150.027,6355,343
Raw,23329.765,6360,343
Raw,38803.838,6362,343
Raw,34435.226,6362,343
Raw,56053.39,6363,343
Raw,27513.332,6363,343
Raw,95832.231,6364,343
Raw,21093.615,6369,343
Raw,19877.837,6370,343
Raw,34801.655,6371,343
Raw,34995.984,6372,343
Raw,8072.9733,6372,343
Raw,26916.709,6380,343
Raw,8932.7876,6392,343
Raw,51400.812,6405,343
Raw,10760.645,6411,343
Raw,27328.692,6420,343
Raw,52032.781,6430,343
Raw,46227.832,6432,343
Raw,53594.156,6433,343
Raw,42971.674,6448,343
Raw,50802.143,6451,343
Raw,63743.446,6453,343
Raw,37895.101,6456,343
Raw,38172.861,6457,343
Raw,46549.583,6461,343
Raw,12078.92,6464,343
Raw,70975.194,6464,343
Raw,42552.339,6464,343
Raw,62375.101,6470,343
Raw,27480.538,6470,343
Raw,50678.277,6490,343
Raw,23616.336,6490,343
Raw,27261.269,6496,343
Raw,38478.611,6500,343
Raw,53496.233,6502,343
Raw,42150.302,6502,343
Raw,30894.39,6520,343
Raw,63347.252,6526,343
Raw,35704.62,6530,343
Raw,31986.195,6532,343
Raw,45139.233,6535,343
Raw,20324.768,6535,343
Raw,1.0021453e+05,6536,343
Raw,75324.904,6539,343
Raw,38969.09,6539,343
Raw,48308.068,6540,343
Raw,38404.591,6540,343
Raw,32394.961,6542,343
Raw,37296.181,6545,343
Raw,1.05390924e+05,6549,343
Raw,31450.809,6554,343
Raw,78866.122,6555,343
Raw,36609.619,6555,343
Raw,52378.953,6557,343
Raw,36254.726,6567,343
Raw,1.17422621e+05,6570,343
Raw,72140.203,6586,343
Raw,36358.446,6588,343
Raw,30823.317,6592,343
Raw,1.01311455e+05,6594,343
Raw,39570.343,6595,343
Raw,64501.799,6597,343
Raw,38005.167,6604,343
Raw,25726.671,6606,343
Raw,32116.512,6609,343
Raw,21615.994,6614,343
Raw,36440.631,6614,343
Raw,24125.841,6620,343
Raw,86539.356,6623,343
Raw,42179.366,6625,343
Raw,13536.43,6627,343
Raw,17098.438,6628,343
Raw,34177.001,6631,343
Raw,56567.834,6636,343
Raw,27061.912,6641,343
Raw,34543.265,6643,343
Raw,39076.096,6655,343
Raw,92825.638,6662,343
Raw,34509.488,6668,343
Raw,1.07342244e+05,6668,343
Raw,28455.13,6668,343
Raw,45064.651,6669,343
Raw,45226.86,6671,343
Raw,12985.904,6671,343
Raw,52631.429,6673,343
Raw,1.11691568e+05,6675,343
Raw,64754.197,6677,343
Raw,59787.649,6684,343
Raw,25197.813,6684,343
Raw,48426.528,6684,343
Raw,50332.933,6690,343
Raw,21243.505,6690,343
Raw,24551.484,6706,343
Raw,32782.126,6709,343
Raw,35888.181,6723,343
Raw,57565.367,6729,343
Raw,18814.892,6737,343
Raw,95325.987,6753,343
Raw,38743.049,6760,343
Raw,89629.419,6762,343
Raw,29379.924,6767,343
Raw,31293.83,6768,343
Raw,48161.846,6771,343
Raw,26541.381,6771,343
Raw,43867.239,6777,343
Raw,54625.557,6778,343
Raw,19998.317,6780,343
Raw,74402.859,6781,343
Raw,31028.016,6782,343
Raw,55485.902,6783,343
Raw,40864.261,6784,343
Raw,44103.671,6789,343
Raw,34618.13,6789,343
Raw,59731.921,6791,343
Raw,43052.228,6796,343
Raw,23066.582,6796,343
Raw,49243.421,6807,343
Raw,14867.919,6807,343
Raw,45932.051,6809,343
Raw,11069.908,6811,343
Raw,46865.526,6815,343
Raw,28042.778,6818,343
Raw,29004.229,6818,343
Raw,35498.217,6822,343
Raw,35890.455,6822,343
Raw,34869.922,6822,343
Raw,52204.954,6824,343
Raw,47352.05,6824,343
Raw,47795.392,6827,343
Raw,22544.746,6829,343
Raw,6008.2675,6829,343
Raw,16928.591,6849,343
Raw,40790.221,6852,343
Raw,35992.265,6853,343
Raw,42889.595,6853,343
Raw,44627.736,6859,343
Raw,20006.512,6859,343
Raw,36419.728,6862,343
Raw,83104.623,6862,343
Raw,8388.3852,6868,343
Raw,68181.043,6872,343
Raw,69513.736,6873,343
Raw,64834.978,6876,343
Raw,66018.871,6878,343
Raw,50523.866,6883,343
Raw,24630.621,6892,343
Raw,53019.956,6896,343
Raw,26533.272,6896,343
Raw,25179.135,6900,343
Raw,38743.795,6905,343
Raw,57098.633,6913,343
Raw,29748.309,6917,343
Raw,96255.829,6917,343
Raw,55567.679,6920,343
Raw,40070.252,6924,343
Raw,52284.744,6928,343
Raw,41513.379,6934,343
Raw,43055.082,6935,343
Raw,52263.214,6935,343
Raw,94689.599,6943,343
Raw,43008.97,6943,343
Raw,24614.344,6944,343
Raw,47929.501,6944,343
Raw,35725.365,6947,343
Raw,33985.596,6957,343
Raw,32574.043,6963,343
Raw,26914.027,6964,343
Raw,24517.983,6964,343
Raw,20347.962,6964,343
Raw,43254.351,6965,343
Raw,49756.42,6977,343
Raw,46779.305,6978,343
Raw,82723.137,6983,343
Raw,14526.208,6985,343
Raw,39307.769,6985,343
Raw,42316.947,6987,343
Raw,57326.877,6993,343
Raw,34735.351,7002,343
Raw,14646.773,7005,343
Raw,41981.777,7007,343
Raw,50791.672,7009,343
Raw,35806.058,7013,343
Raw,46774.341,7015,343
Raw,45087.009,7018,343
Raw,88355.891,7021,343
Raw,52660.796,7031,343
Raw,52101.181,7034,343
Raw,45391.632,7034,343
Raw,17868.448,7040,343
Raw,31767.566,7040,343
Raw,38795.209,7046,343
Raw,35427.099,7047,343
Raw,27230.924,7047,343
Raw,51644.901,7050,343
Raw,35663.692,7056,343
Raw,71112.455,7059,343
Raw,85068.621,7072,343
Raw,69222.76,7074,343
Raw,69361.8,7077,343
Raw,49154.934,7081,343
Raw,32465.615,7081,343
Raw,31843.431,7087,343
Raw,47369.241,7095,343
Raw,34909.557,7096,343
Raw,11897.932,7107,343
Raw,38930.362,7107,343
Raw,43771.866,7112,343
Raw,75514.782,7112,343
Raw,29790.822,7119,343
Raw,1.0026769e+05,7119,343
Raw,46091.614,7123,343
Raw,37104.454,7124,343
Raw,26691.821,7131,343
Raw,41011.444,7136,343
Raw,44882.509,7139,343
Raw,39752.328,7153,343
Raw,38663.619,7157,343
Raw,47564.986,7160,343
Raw,38475.172,7161,343
Raw,33539.932,7162,343
Raw,1.10575517e+05,7165,343
Raw,48639.972,7166,343
Raw,35565.656,7167,343
Raw,31747.98,7168,343
Raw,1.06307406e+05,7168,343
Raw,36662.9,7170,343
Raw,42140.742,7170,343
Raw,58165.147,7174,343
Raw,19811.291,7174,343
Raw,81911.131,7177,343
Raw,45359.643,7182,343
Raw,69850.838,7187,343
Raw,15659.9,7189,343
Raw,49237.066,7190,343
Raw,37241.421,7200,343
Raw,17983.189,7201,343
Raw,52332.269,7214,343
Raw,38999.218,7214,343
Raw,34434.036,7218,343
Raw,34156.402,7225,343
Raw,20712.593,7225,343
Raw,32554.939,7238,343
Raw,36302.505,7245,343
Raw,24506.841,7256,343
Raw,18352.228,7256,343
Raw,78316.698,7268,343
Raw,1.12914918e+05,7287,343
Raw,67708.768,7288,343
Raw,11974.967,7291,343
Raw,41466.565,7299,343
Raw,24288.471,7304,343
Raw,46631.763,7304,343
Raw,14182.561,7310,343
Raw,47868.815,7313,343
Raw,97942.139,7315,343
Raw,97075.45,7315,343
Raw,36445.46,7323,343
Raw,38028.824,7334,343
Raw,28642.084,7336,343
Raw,17586.096,7342,343
Raw,25422.449,7349,343
Raw,36395.056,7350,343
Raw,40759.644,7350,343
Raw,1.02232078e+05,7357,343
Raw,75457.616,7367,343
Raw,3937.6642,7368,343
Raw,16521.893,7370,343
Raw,32970.84,7372,343
Raw,32398.086,7372,343
Raw,26563.442,7380,343
Raw,67434.389,7381,343
Raw,36004.967,7384,343
Raw,26493.177,7390,343
Raw,85772.2,7390,343
Raw,33744.68,7395,343
Raw,46057.862,7396,343
Raw,34317.879,7397,343
Raw,77239.767,7401,343
Raw,70937.923,7413,343
Raw,44423.632,7414,343
Raw,35821.911,7418,343
Raw,17153.596,7423,343
Raw,56216.914,7425,343
Raw,17076.246,7435,343
Raw,48890.106,7436,343
Raw,34330.256,7440,343
Raw,21009.92,7443,343
Raw,52834.737,7444,343
Raw,51206.209,7445,343
Raw,66989.142,7454,343
Raw,43306.562,7454,343
Raw,30336.346,7459,343
Raw,40794.403,7464,343
Raw,36468.744,7468,343
Raw,37713.425,7468,343
Raw,57617.032,7469,343
Raw,47872.451,7474,343
Raw,37375.62,7482,343
Raw,57563.857,7486,343
Raw,60682.205,7487,343
Raw,19783.962,7487,343
Raw,89270.721,7491,343
Raw,18176.565,7493,343
Raw,75878.691,7502,343
Raw,22120.962,7502,343
Raw,41593.383,7507,343
Raw,35691.414,7514,343
Raw,66164.038,7520,343
Raw,32946.445,7521,343
Raw,1.07793061e+05,7533,343
Raw,36808.316,7536,343
Raw,35727.104,7537,343
Raw,44486.868,7542,343
Raw,46228.809,7545,343
Raw,28724.977,7545,343
Raw,24177.887,7547,343
Raw,61479.633,7548,343
Raw,38938.675,7554,343
Raw,31922.837,7555,343
Raw,31180.52,7567,343
Raw,43922.993,7592,343
Raw,21605.506,7592,343
Raw,50195.618,7595,343
Raw,40128.069,7595,343
Raw,53422.195,7601,343
Raw,33637.235,7607,343
Raw,25969.843,7607,343
Raw,37683.628,7607,343
Raw,47154.497,7609,343
Raw,60961.204,7616,343
Raw,79549.482,7620,343
Raw,33068.521,7620,343
Raw,46599.038,7635,343
Raw,54179.893,7640,343
Raw,43345.005,7640,343
Raw,64756.335,7645,343
Raw,1.12165457e+05,7649,343
Raw,34367.12,7651,343
Raw,51800.544,7651,343
Raw,25831.47,7655,343
Raw,35631.311,7655,343
Raw,54655.297,7659,343
Raw,42394.578,7664,343
Raw,16672.553,7668,343
Raw,21515.979,7696,343
Raw,54452.599,7707,343
Raw,75656.698,7717,343
Raw,57433.43,7722,343
Raw,14179.763,7722,343
Raw,55674.858,7729,343
Raw,41043.275,7729,343
Raw,92576.551,7741,343
Raw,51179.013,7745,343
Raw,28909.359,7746,343
Raw,59324.706,7746,343
Raw,12129.588,7760,343
Raw,27569.86,7761,343
Raw,80682.227,7765,343
Raw,14313.869,7770,343
Raw,45722.752,7772,343
Raw,49573.426,7778,343
Raw,38569.044,7779,343
Raw,92627.016,7782,343
Raw,76587.687,7798,343
Raw,1.06681588e+05,7803,343
Raw,38756.479,7807,343
Raw,47996.655,7809,343
Raw,69562.935,7809,343
Raw,1.06816861e+05,7811,343
Raw,31929.378,7815,343
Raw,21301.195,7815,343
Raw,26204.597,7824,343
Raw,28834.197,7826,343
Raw,50253.01,7826,343
Raw,37801.859,7835,343
Raw,74432.759,7836,343
Raw,93951.171,7838,343
Raw,37047.016,7838,343
Raw,79930.387,7839,343
Raw,47926.909,7841,343
Raw,36546.392,7848,343
Raw,17519.629,7852,343
Raw,84594.497,7857,343
Raw,47897.654,7861,343
Raw,41051.355,7862,343
Raw,90676.689,7863,343
Raw,49272.26,7865,343
Raw,37278.182,7872,343
Raw,72080.338,7887,343
Raw,36252.406,7893,343
Raw,84144.647,7918,343
Raw,8974.9592,7918,343
Raw,18709.919,7919,343
Raw,38143.381,7927,343
Raw,36927.149,7929,343
Raw,35844.696,7929,343
Raw,30412.251,7935,343
Raw,36009.513,7935,343
Raw,34177.692,7941,343
Raw,27200.65,7942,343
Raw,37550.759,7945,343
Raw,29680.911,7952,343
Raw,1.02729458e+05,7959,343
Raw,26911.377,7963,343
Raw,26776.693,7965,343
Raw,33850.339,7967,343
Raw,73348.931,7972,343
Raw,1.06016437e+05,7972,343
Raw,29780.912,7974,343
Raw,44212.852,7977,343
Raw,58998.432,7979,343
Raw,32891.862,7983,343
Raw,1.1780776e+05,7996,343
Raw,43990.311,7999,343
Raw,60757.326,8001,343
Raw,37388.438,8006,343
Raw,36270.017,8012,343
Raw,82549.033,8013,343
Raw,44420.964,8017,343
Raw,82117.334,8019,343
Raw,49938.142,8020,343
Raw,1.04565791e+05,8020,343
Raw,35312.087,8027,343
Raw,12408.363,8032,343
Raw,1.12440912e+05,8035,343
Raw,22110.146,8035,343
Raw,36588.484,8060,343
Raw,71900.097,8061,343
Raw,18078.648,8061,343
Raw,29119.677,8063,343
Raw,45376.172,8072,343
Raw,8816.3075,8072,343
Raw,38881.694,8075,343
Raw,1.05836468e+05,8084,343
Raw,27413.986,8089,343
Raw,14335.49,8114,343
Raw,32070.415,8125,343
Raw,67683.649,8133,343
Raw,38042.624,8141,343
Raw,53757.893,8149,343
Raw,65209.502,8152,343
Raw,38373.826,8162,343
Raw,39686.766,8168,343
Raw,42039.182,8168,343
Raw,51754.807,8186,343
Raw,71213.968,8188,343
Raw,1.06836101e+05,8189,343
Raw,30919.033,8190,343
Raw,9969.9198,8190,343
Raw,60639.554,8195,343
Raw,96647.365,8212,343
Raw,27673.127,8220,343
Raw,51799.796,8228,343
Raw,40240.26,8234,343
Raw,47684.881,8235,343
Raw,46194.078,8236,343
Raw,60489.103,8239,343
Raw,34677.581,8239,343
Raw,10271.413,8240,343
Raw,35268.258,8249,343
Raw,66617.861,8253,343
Raw,78084.569,8266,343
Raw,49334.442,8266,343
Raw,51392.987,8271,343
Raw,42326.125,8275,343
Raw,28350.565,8276,343
Raw,69939.124,8277,343
Raw,54305.365,8277,343
Raw,49208.543,8289,343
Raw,63217.377,8290,343
Raw,29647.567,8293,343
Raw,39008.459,8297,343
Raw,60207.677,8304,343
Raw,47126.14,8304,343
Raw,62007.194,8309,343
Raw,25243.853,8313,343
Raw,85047.135,8314,343
Raw,35683.314,8322,343
Raw,31834.343,8327,343
Raw,23138.369,8327,343
Raw,68361.186,8329,343
Raw,34581.918,8340,343
Raw,95344.764,8342,343
Raw,20917.861,8352,343
Raw,35525.999,8363,343
Raw,46685.629,8363,343
Raw,61334.025,8365,343
Raw,35911.589,8367,343
Raw,37765.637,8382,343
Raw,27742.266,8386,343
Raw,87948.49,8386,343
Raw,35911.444,8388,343
Raw,65415.113,8391,343
Raw,44365.858,8395,343
Raw,42261.356,8404,343
Raw,49671.618,8405,343
Raw,25943.752,8415,343
Raw,33468.749,8415,343
Raw,32157.9,8421,343
Raw,1.0186641e+05,8423,343
Raw,50894.912,8423,343
Raw,51850.059,8429,343
Raw,36213.606,8434,343
Raw,55481.591,8436,343
Raw,58210.358,8443,343
Raw,41353.641,8445,343
Raw,57066.532,8446,343
Raw,43025.505,8458,343
Raw,27733.026,8460,343
Raw,52410.266,8474,343
Raw,43909.389,8479,343
Raw,55778.913,8479,343
Raw,62530.714,8479,343
Raw,32031.66,8480,343
Raw,65708.664,8481,343
Raw,21454.647,8483,343
Raw,66663.573,8491,343
Raw,47265.974,8493,343
Raw,65058.765,8494,343
Raw,55758.308,8494,343
Raw,27359.691,8504,343
Raw,83681.603,8506,343
Raw,54367.499,8507,343
Raw,27734.886,8516,343
Raw,1.12715302e+05,8519,343
Raw,66873.929,8520,343
Raw,46090.357,8522,343
Raw,90682.89,8526,343
Raw,24882.376,8527,343
Raw,19139.438,8532,343
Raw,22247.298,8535,343
Raw,27856.507,8540,343
Raw,45881.05,8540,343
Raw,35436.829,8541,343
Raw,25431.782,8541,343
Raw,46795.259,8557,343
Raw,39246.165,8558,343
Raw,21664.367,8558,343
Raw,28644.827,8558,343
Raw,1.1792588e+05,8561,343
Raw,60987.887,8565,343
Raw,30115.621,8572,343
Raw,37395.475,8579,343
Raw,37291.158,8584,343
Raw,69666.782,8585,343
Raw,70839.423,8588,343
Raw,17628.896,8588,343
Raw,37368.534,8588,343
Raw,45849.339,8602,343
Raw,41527.541,8614,343
Raw,36009.102,8614,343
Raw,27432.031,8645,343
Raw,18743.226,8645,343
Raw,50215.382,8651,343
Raw,43694.951,8665,343
Raw,96385.917,8670,343
Raw,64753.318,8671,343
Raw,36789.84,8675,343
Raw,34416.038,8696,343
Raw,17729.428,8706,343
Raw,19514.326,8709,343
Raw,79015.079,8710,343
Raw,39621.207,8725,343
Raw,32901.313,8729,343
Raw,59626.786,8730,343
Raw,37219.066,8730,343
Raw,40854.654,8731,343
Raw,21071.713,8731,343
Raw,93892.413,8733,343
Raw,65435.806,8737,343
Raw,23594.093,8737,343
Raw,20574.262,8740,343
Raw,37433.589,8742,343
Raw,44086.428,8749,343
Raw,45363.819,8749,343
Raw,40061.834,8752,343
Raw,35417.021,8752,343
Raw,24883.298,8760,343
Raw,12134.224,8760,343
Raw,33920.819,8771,343
Raw,34149.685,8771,343
Raw,57980.001,8775,343
Raw,18464.348,8775,343
Raw,35596.507,8779,343
Raw,68124.702,8789,343
Raw,41744.4,8790,343
Raw,42266.367,8793,343
Raw,30296.664,8793,343
Raw,21115.956,8802,343
Raw,26048.1,8802,343
Raw,33911.442,8803,343
Raw,65608.637,8806,343
Raw,61275.435,8825,343
Raw,54823.828,8833,343
Raw,24501.833,8837,343
Raw,32170.575,8841,343
Raw,29848.347,8841,343
Raw,55345.373,8845,343
Raw,52322.402,8846,343
Raw,1.15359239e+05,8847,343
Raw,52504.583,8849,343
Raw,18712.897,8864,343
Raw,25098.243,8876,343
Raw,81000.83,8876,343
Raw,75402.969,8877,343
Raw,60558.765,8881,343
Raw,49288.838,8881,343
Raw,79297.273,8882,343
Raw,7276.4779,8882,343
Raw,15392.357,8890,343
Raw,1.07797869e+05,8894,343
Raw,46622.324,8897,343
Raw,20946.864,8898,343
Raw,21453.551,8901,343
Raw,25994.261,8911,343
Raw,28809.02,8911,343
Raw,42732.651,8938,343
Raw,6157.06,8940,343
Raw,30223.118,8945,343
Raw,35543.117,8945,343
Raw,20232.237,8949,343
Raw,71631.533,8955,343
Raw,58579.489,8956,343
Raw,27244.171,8972,343
Raw,44331.52,8973,343
Raw,31274.232,8973,343
Raw,9409.4066,8977,343
Raw,31638.3,8980,343
Raw,45964.435,8986,343
Raw,21679.418,8986,343
Raw,24628.763,8987,343
Raw,11899.356,8993,343
Raw,19698.71,8993,343
Raw,18819.849,8996,343
Raw,24280.025,8996,343
Raw,69336.165,9010,343
Raw,57909.567,9019,343
Raw,46640.296,9019,343
Raw,1.01750594e+05,9021,343
Raw,50899.407,9028,343
Raw,17522.228,9028,343
Raw,1.06421171e+05,9046,343
Raw,20222.181,9048,343
Raw,12620.092,9050,343
Raw,43573.665,9059,343
Raw,48839.866,9076,343
Raw,54921.671,9076,343
Raw,18431.22,9076,343
Raw,9184.7337,9076,343
Raw,47365.986,9077,343
Raw,1.00171548e+05,9080,343
Raw,79347.227,9084,343
Raw,56366.298,9085,343
Raw,47874.316,9088,343
Raw,40374.618,9096,343
Raw,18316.216,9096,343
Raw,76195.657,9103,343
Raw,37803.663,9108,343
Raw,21207.982,9108,343
Raw,89814.142,9129,343
Raw,96080.649,9129,343
Raw,49815.557,9150,343
Raw,67752.977,9155,343
Raw,23413.415,9164,343
Raw,21307.629,9170,343
Raw,41001.085,9170,343
Raw,36581.725,9180,343
Raw,58515.73,9180,343
Raw,53322.039,9181,343
Raw,78874.255,9182,343
Raw,47576.818,9183,343
Raw,39095.317,9183,343
Raw,1.07826331e+05,9200,343
Raw,57233.668,9201,343
Raw,4431.4643,9201,343
Raw,15577.188,9201,343
Raw,71816.174,9203,343
Raw,63200.895,9204,343
Raw,53405.565,9207,343
Raw,9463.6057,9208,343
Raw,51319.518,9210,343
Raw,26269.195,9215,343
Raw,1.01956571e+05,9215,343
Raw,99980.205,9223,343
Raw,12098.598,9223,343
Raw,86837.793,9226,343
Raw,63275.03,9230,343
Raw,64482.631,9231,343
Raw,77125.387,9242,343
Raw,24087.837,9244,343
Raw,27895.213,9244,343
Raw,15855.246,9250,343
Raw,36047.761,9253,343
Raw,30478.584,9253,343
Raw,40413.111,9270,343
Raw,1.10644847e+05,9283,343
Raw,86078.867,9291,343
Raw,29631.988,9295,343
Raw,92210.313,9298,343
Raw,32972.286,9299,343
Raw,1.0220424e+05,9313,343
Raw,44805.152,9313,343
Raw,49031.994,9315,343
Raw,47025.126,9321,343
Raw,32286.554,9322,343
Raw,39737.278,9332,343
Raw,30698.34,9332,343
Raw,38448.391,9336,343
Raw,42264.962,9337,343
Raw,49099.849,9343,343
Raw,15604.285,9343,343
Raw,67026.676,9344,343
Raw,22739.255,9345,343
Raw,39141.25,9349,343
Raw,29483.63,9353,343
Raw,16860.81,9357,343
Raw,28540.69,9357,343
Raw,47565.484,9358,343
Raw,41578.19,9364,343
Raw,42483.787,9366,343
Raw,49120.211,9373,343
Raw,1.01367933e+05,9377,343
Raw,43396.882,9377,343
Raw,1.14474262e+05,9378,343
Raw,60178.212,9378,343
Raw,75939.441,9380,343
Raw,51478.628,9384,343
Raw,48959.333,9386,343
Raw,44042.575,9393,343
Raw,95899.876,9393,343
Raw,38323.427,9396,343
Raw,82923.448,9400,343
Raw,38874.753,9406,343
Raw,50353.705,9408,343
Raw,31433.695,9408,343
Raw,47202.54,9414,343
Raw,48304.909,9426,343
Raw,39995.038,9433,343
Raw,24396.545,9434,343
Raw,60538.222,9436,343
Raw,97933.135,9439,343
Raw,29675.379,9443,343
Raw,52081.586,9445,343
Raw,46185.692,9451,343
Raw,44297.171,9454,343
Raw,24975.673,9461,343
Raw,30199.874,9464,343
Raw,16971.484,9464,343
Raw,77344.547,9470,343
Raw,9427.9886,9470,343
Raw,26569.928,9470,343
Raw,90615.48,9471,343
Raw,41456.075,9471,343
Raw,56198.544,9473,343
Raw,38419.766,9479,343
Raw,46818.443,9484,343
Raw,40517.547,9484,343
Raw,68194.221,9492,343
Raw,64214.424,9492,343
Raw,26198.303,9493,343
Raw,13559.445,9510,343
Raw,45192.584,9510,343
Raw,37450.26,9511,343
Raw,93825.715,9513,343
Raw,57496.468,9519,343
Raw,1.05936644e+05,9528,343
Raw,7277.1283,9533,343
Raw,92850.103,9538,343
Raw,47909.337,9542,343
Raw,37107.501,9548,343
Raw,44673.623,9555,343
Raw,27094.894,9555,343
Raw,95754.302,9556,343
Raw,83999.793,9559,343
Raw,1.02719878e+05,9563,343
Raw,64471.293,9577,343
Raw,9324.4703,9577,343
Raw,44895.61,9580,343
Raw,57510.534,9580,343
Raw,35797.447,9580,343
Raw,32119.497,9592,343
Raw,79509.409,9592,343
Raw,1.14385567e+05,9594,343
Raw,1.0464335e+05,9597,343
Raw,45918.263,9603,343
Raw,28732.949,9607,343
Raw,77223.481,9610,343
Raw,49879.456,9611,343
Raw,44232.208,9623,343
Raw,47887.62,9626,343
Raw,44506.508,9630,343
Raw,77144.503,9637,343
Raw,43478.258,9639,343
Raw,53966.756,9644,343
Raw,96250.432,9645,343
Raw,53525.768,9646,343
Raw,36358.198,9651,343
Raw,37724.577,9655,343
Raw,15524.509,9655,343
Raw,34608.351,9660,343
Raw,51388.598,9661,343
Raw,27455.224,9661,343
Raw,1.15040616e+05,9667,343
Raw,50024.504,9674,343
Raw,8495.1364,9674,343
Raw,14879.308,9686,343
Raw,27862.461,9686,343
Raw,28020.383,9689,343
Raw,40556.321,9694,343
Raw,58863.675,9708,343
Raw,39885.465,9708,343
Raw,59860.027,9711,343
Raw,31854.932,9719,343
Raw,72633.426,9725,343
Raw,82392.541,9729,343
Raw,66599.42,9732,343
Raw,30437.425,9732,343
Raw,53578.67,9741,343
Raw,77904.426,9744,343
Raw,49060.596,9751,343
Raw,35055.019,9766,343
Raw,22413.692,9767,343
Raw,22546.272,9767,343
Raw,29353.466,9771,343
Raw,92914.543,9772,343
Raw,93837.821,9774,343
Raw,34091.514,9778,343
Raw,29895.345,9778,343
Raw,74863.313,9782,343
Raw,22770.71,9785,343
Raw,44422.96,9792,343
Raw,31909.345,9794,343
Raw,30862.553,9794,343
Raw,51985.709,9798,343
Raw,88859.565,9802,343
Raw,1.08282646e+05,9806,343
Raw,63851.382,9808,343
Raw,26703.676,9815,343
Raw,45413.626,9816,343
Raw,78904.719,9818,343
Raw,61730.561,9822,343
Raw,61990.373,9829,343
Raw,1.14990532e+05,9830,343
Raw,31009.899,9831,343
Raw,1.10364961e+05,9831,343
Raw,14498.794,9837,343
Raw,23910.755,9837,343
Raw,14738.05,9839,343
Raw,17285.075,9859,343
Raw,91244.655,9869,343
Raw,56836.074,9874,343
Raw,86109.555,9874,343
Raw,39268.317,9877,343
Raw,55637.048,9883,343
Raw,25356.792,9883,343
Raw,18903.818,9884,343
Raw,38456.057,9884,343
Raw,51563.675,9885,343
Raw,48410.236,9893,343
Raw,60726.205,9894,343
Raw,51002.696,9902,343
Raw,45202.96,9903,343
Raw,25161.27,9903,343
Raw,60731.731,9904,343
Raw,54819.062,9905,343
Raw,23313.689,9906,343
Raw,30766.457,9925,343
Raw,27232.495,9925,343
Raw,23624.227,9930,343
Raw,21948.964,9936,343
Raw,48724.016,9936,343
Raw,1.04554763e+05,9937,343
Raw,34182.256,9938,343
Raw,59712.029,9940,343
Raw,56191.421,9942,343
Raw,27997.419,9942,343
Raw,79430.316,9948,343
Raw,56718.684,9957,343
Raw,24794.442,9957,343
Raw,58227.362,9965,343
Raw,39997.232,9969,343
Raw,86309.802,9974,343
Raw,36847.706,9980,343
Raw,49079.661,9986,343
Raw,50763.178,9993,343
Raw,1.1545788e+05,10004,343
Raw,49601.519,10008,343
Raw,63321.7,10018,343
Raw,53044.242,10030,343
Raw,33711.922,10030,343
Raw,18188.804,10030,343
Raw,70614.178,10037,343
Raw,42041.573,10044,343
Raw,24461.362,10049,343
Raw,54535.172,10065,343
Raw,22012.619,10065,343
Raw,42421.008,10070,343
Raw,48798.75,10075,343
Raw,25273.159,10078,343
Raw,32400.921,10088,343
Raw,35061.189,10091,343
Raw,28831.228,10094,343
Raw,48331.082,10102,343
Raw,55744.546,10104,343
Raw,22549.933,10105,343
Raw,81426.621,10107,343
Raw,49414.584,10111,343
Raw,54532.582,10117,343
Raw,45188.976,10123,343
Raw,52992.608,10123,343
Raw,51026.668,10128,343
Raw,42000.075,10131,343
Raw,7303.8677,10135,343
Raw,22994.542,10140,343
Raw,95056.091,10140,343
Raw,37579.978,10141,343
Raw,75777.323,10142,343
Raw,1.04950127e+05,10142,343
Raw,59755.013,10163,343
Raw,29441.724,10163,343
Raw,1.07675477e+05,10164,343
Raw,97608.426,10169,343
Raw,60609.233,10171,343
Raw,5273.8262,10171,343
Raw,38360.663,10174,343
Raw,49568.464,10179,343
Raw,36220.197,10183,343
Raw,22328.626,10185,343
Raw,18822.094,10188,343
Raw,69877.06,10194,343
Raw,34254.886,10194,343
Raw,47774.449,10204,343
Raw,1.0246546e+05,10215,343
Raw,58933.541,10222,343
Raw,51149.853,10223,343
Raw,22678.498,10233,343
Raw,76553,10234,343
Raw,18102.723,10238,343
Raw,1.06321969e+05,10239,343
Raw,21474.21,10240,343
Raw,19113.187,10240,343
Raw,1.06169881e+05,10247,343
Raw,53560.472,10247,343
Raw,98012.831,10248,343
Raw,62681.273,10262,343
Raw,51990.89,10265,343
Raw,38722.491,10267,343
Raw,22490.309,10267,343
Raw,37365.959,10267,343
Raw,51793.487,10268,343
Raw,19024.715,10268,343
Raw,42296.518,10271,343
Raw,48016.881,10277,343
Raw,11861.454,10277,343
Raw,29980.558,10281,343
Raw,29789.986,10284,343
Raw,35480.854,10284,343
Raw,32371.1,10286,343
Raw,45850.247,10288,343
Raw,94340.133,10293,343
Raw,81785.148,10294,343
Raw,33503.623,10297,343
Raw,33414.546,10307,343
Raw,43175.315,10327,343
Raw,19624.819,10329,343
Raw,25624.02,10335,343
Raw,31374.102,10337,343
Raw,33414.945,10343,343
Raw,64188.94,10344,343
Raw,21373.332,10348,343
Raw,23416.579,10348,343
Raw,37001.598,10352,343
Raw,1.05133036e+05,10352,343
Raw,1.07305001e+05,10354,343
Raw,58334.222,10355,343
Raw,83872.342,10356,343
Raw,41023.168,10356,343
Raw,52688.692,10360,343
Raw,46383.912,10374,343
Raw,7139.7623,10374,343
Raw,55547.792,10384,343
Raw,84423.707,10385,343
Raw,19892.429,10385,343
Raw,24782.825,10388,343
Raw,89826.18,10391,343
Raw,18156.598,10394,343
Raw,78388.811,10395,343
Raw,93194.095,10396,343
Raw,91667.543,10397,343
Raw,58847.093,10399,343
Raw,18100.264,10399,343
Raw,57088.344,10404,343
Raw,51447.966,10409,343
Raw,65645.822,10409,343
Raw,1.09885662e+05,10414,343
Raw,21968.493,10415,343
Raw,29960.474,10425,343
Raw,26326.492,10426,343
Raw,36864.147,10432,343
Raw,87310.807,10433,343
Raw,31773.64,10444,343
Raw,14695.17,10446,343
Raw,74116.48,10450,343
Raw,27707.347,10453,343
Raw,1.0411896e+05,10454,343
Raw,11978.009,10460,343
Raw,38251.81,10464,343
Raw,65541.677,10464,343
