Cut?,Counts,eventNumber,runNumber
Raw,66922.884,0,342
Raw,49428.281,1,342
Raw,58108.016,2,342
Raw,54043.717,3,342
Raw,51310.698,4,342
Raw,78976.692,5,342
Raw,18924.444,5,342
Raw,48731.574,6,342
Raw,70907.863,7,342
Raw,54347.9,8,342
Raw,34976.08,9,342
Raw,71127.439,11,342
Raw,15782.645,11,342
Raw,1.05515254e+05,12,342
Raw,23219.39,12,342
Raw,31340.82,13,342
Raw,90865.83,14,342
Raw,43146.632,16,342
Raw,46784.046,17,342
Raw,35460.468,18,342
Raw,29194.911,18,342
Raw,25865.873,19,342
Raw,22011.231,20,342
Raw,44626.052,21,342
Raw,82571.426,22,342
Raw,83127.984,23,342
Raw,41635.931,24,342
Raw,46354.851,27,342
Raw,49422.689,30,342
Raw,6724.049,30,342
Raw,88122.913,31,342
Raw,33834.555,32,342
Raw,1.11693197e+05,33,342
Raw,6886.6398,34,342
Raw,1.30056361e+05,34,342
Raw,32603.285,35,342
Raw,33430.408,36,342
Raw,41246.206,37,342
Raw,57412.467,39,342
Raw,30719.371,40,342
Raw,32141.93,40,342
Raw,27036.531,42,342
Raw,35667.634,43,342
Raw,41863.903,44,342
Raw,58803.618,45,342
Raw,83708.917,46,342
Raw,57026,47,342
Raw,36988.168,48,342
Raw,43590.562,50,342
Raw,42550.227,51,342
Raw,52665.236,52,342
Raw,8773.1259,52,342
Raw,38130.987,53,342
Raw,12448.566,54,342
Raw,23064.817,54,342
Raw,39999.857,55,342
Raw,44325.214,56,342
Raw,49651.948,57,342
Raw,24192.452,57,342
Raw,43801.85,58,342
Raw,39658.788,60,342
Raw,40124.841,62,342
Raw,45957.593,63,342
Raw,38698.829,64,342
Raw,1.18944343e+05,66,342
Raw,39830.722,67,342
Raw,38024.979,70,342
Raw,46806.13,71,342
Raw,27733.312,74,342
Raw,55687.124,75,342
Raw,23718.391,75,342
Raw,51311.594,76,342
Raw,19718.467,77,342
Raw,26999.557,78,342
Raw,91240.33,78,342
Raw,35103.646,79,342
Raw,12112.526,79,342
Raw,36648.573,80,342
Raw,77112.545,81,342
Raw,30294.411,82,342
Raw,43551.586,83,342
Raw,35816.144,84,342
Raw,32632.531,85,342
Raw,25421.133,85,342
Raw,25144.147,86,342
Raw,41849.548,87,342
Raw,9834.5484,88,342
Raw,50295.651,89,342
Raw,77124.726,91,342
Raw,29309.045,93,342
Raw,33994.092,93,342
Raw,39204.758,94,342
Raw,62168.859,95,342
Raw,37284.301,96,342
Raw,36031.962,98,342
Raw,67673.382,99,342
Raw,29371.832,101,342
Raw,45534.804,101,342
Raw,72280.318,102,342
Raw,65629.483,103,342
Raw,36874.946,104,342
Raw,38537.79,105,342
Raw,45072.672,107,342
Raw,38632.106,108,342
Raw,40112.29,110,342
Raw,41464.987,114,342
Raw,98323.781,114,342
Raw,53652.227,115,342
Raw,40716.876,116,342
Raw,23411.986,116,342
Raw,89881.427,117,342
Raw,44939.396,118,342
Raw,49342.967,119,342
Raw,43835.989,120,342
Raw,7526.5662,121,342
Raw,50758.497,122,342
Raw,1.18693825e+05,124,342
Raw,44824.604,125,342
Raw,81923.493,127,342
Raw,79256.383,128,342
Raw,51141,129,342
Raw,29167.594,130,342
Raw,39234.125,130,342
Raw,31357.991,131,342
Raw,39811.742,132,342
Raw,36716.435,133,342
Raw,36348.587,135,342
Raw,53232.949,136,342
Raw,44756.138,137,342
Raw,29020.533,137,342
Raw,49603.819,138,342
Raw,20169.649,138,342
Raw,63876.346,139,342
Raw,37133.544,142,342
Raw,40417.3,143,342
Raw,60101.44,144,342
Raw,30339.799,145,342
Raw,55102.616,146,342
Raw,52235.634,148,342
Raw,38301.685,148,342
Raw,1.21148557e+05,150,342
Raw,51134.253,154,342
Raw,19732.446,154,342
Raw,45285.393,156,342
Raw,62295.884,158,342
Raw,40290.734,159,342
Raw,54408.449,160,342
Raw,45207.536,161,342
Raw,36812.828,161,342
Raw,20098.745,162,342
Raw,33285.179,162,342
Raw,36164.479,164,342
Raw,56665.561,167,342
Raw,1.17931923e+05,168,342
Raw,53711.214,170,342
Raw,61032.772,171,342
Raw,46370.813,172,342
Raw,61137.611,174,342
Raw,59398.811,176,342
Raw,41992.488,177,342
Raw,44966.996,179,342
Raw,35799.481,180,342
Raw,38862.883,181,342
Raw,56289.701,182,342
Raw,69640.369,183,342
Raw,55329.351,184,342
Raw,38752.796,186,342
Raw,24878.015,187,342
Raw,62253.761,188,342
Raw,72688.016,190,342
Raw,28317.394,190,342
Raw,62482.464,191,342
Raw,56813.25,192,342
Raw,94550.13,193,342
Raw,73385.268,194,342
Raw,26058.305,194,342
Raw,55361.96,195,342
Raw,45597.35,196,342
Raw,12955.784,197,342
Raw,33894.764,200,342
Raw,66970.148,202,342
Raw,51018.108,203,342
Raw,30743.359,204,342
Raw,28609.808,205,342
Raw,47655.731,206,342
Raw,37459.677,207,342
Raw,53481.155,209,342
Raw,54968.381,210,342
Raw,72389.111,211,342
Raw,52234.832,213,342
Raw,36689.729,215,342
Raw,37984.523,216,342
Raw,33267.196,217,342
Raw,12530.317,218,342
Raw,33436.249,218,342
Raw,32490.798,219,342
Raw,61241.051,220,342
Raw,25204.323,221,342
Raw,37490.614,221,342
Raw,75110.009,222,342
Raw,44595.413,223,342
Raw,50201.693,224,342
Raw,62941.82,225,342
Raw,65622.09,226,342
Raw,63719.731,228,342
Raw,46289.267,228,342
Raw,49805.058,229,342
Raw,1.00799477e+05,230,342
Raw,45694.448,231,342
Raw,70812.185,232,342
Raw,39299.9,234,342
Raw,70004.551,236,342
Raw,10244.164,237,342
Raw,48824.915,238,342
Raw,23488.097,239,342
Raw,42672.518,239,342
Raw,13418.027,240,342
Raw,35871.824,240,342
Raw,31466.471,243,342
Raw,63856.142,243,342
Raw,64222.286,244,342
Raw,87868.019,245,342
Raw,1.01450104e+05,246,342
Raw,21711.247,247,342
Raw,33819.133,247,342
Raw,13268.141,249,342
Raw,49199.878,250,342
Raw,47917.7,251,342
Raw,38309.039,252,342
Raw,48837.553,253,342
Raw,46210.717,254,342
Raw,57330.806,255,342
Raw,39765.673,256,342
Raw,95173.269,258,342
Raw,29179.497,259,342
Raw,50523.901,259,342
Raw,6603.1855,259,342
Raw,18683.95,260,342
Raw,43471.107,261,342
Raw,41118.94,262,342
Raw,38794.574,264,342
Raw,45546.781,265,342
Raw,67455.229,266,342
Raw,32151.815,267,342
Raw,61682.238,268,342
Raw,37034.545,269,342
Raw,67100.073,271,342
Raw,34596.629,272,342
Raw,68738.343,273,342
Raw,40705.266,274,342
Raw,25130.84,274,342
Raw,94130.772,275,342
Raw,33414.17,276,342
Raw,19566.242,276,342
Raw,54627.626,276,342
Raw,55773.404,278,342
Raw,43261.959,279,342
Raw,8698.5327,280,342
Raw,69775.38,281,342
Raw,45657.35,282,342
Raw,14026.595,282,342
Raw,55485.03,283,342
Raw,49780.664,284,342
Raw,30226.169,284,342
Raw,39303.203,285,342
Raw,26849.779,286,342
Raw,41718.815,287,342
Raw,53197.729,288,342
Raw,38625.457,289,342
Raw,7119.0187,292,342
Raw,61104.982,293,342
Raw,47358.704,295,342
Raw,31420.945,295,342
Raw,95247.425,296,342
Raw,61745.325,297,342
Raw,81375.057,298,342
Raw,65083.725,299,342
Raw,28003.186,300,342
Raw,39045.605,301,342
Raw,30959.492,302,342
Raw,51604.603,303,342
Raw,35238.683,304,342
Raw,41425.279,305,342
Raw,54522.8,306,342
Raw,64555.613,308,342
Raw,27594.247,308,342
Raw,1.16979581e+05,309,342
Raw,37852.445,310,342
Raw,64239.086,311,342
Raw,59429.981,312,342
Raw,33424.241,314,342
Raw,64739.373,316,342
Raw,57668.621,318,342
Raw,51639.567,319,342
Raw,38095.933,320,342
Raw,32776.406,321,342
Raw,97607.269,322,342
Raw,80525.35,323,342
Raw,72410.363,324,342
Raw,53295.696,325,342
Raw,59604.521,326,342
Raw,30228.678,326,342
Raw,52403.806,327,342
Raw,37598.761,328,342
Raw,62056.49,329,342
Raw,42895.465,330,342
Raw,53133.605,332,342
Raw,62629.061,334,342
Raw,58650.734,335,342
Raw,12023.659,336,342
Raw,36956.24,336,342
Raw,38685.108,337,342
Raw,24925.543,338,342
Raw,45239.786,339,342
Raw,27914.179,339,342
Raw,78692.839,340,342
Raw,64401.386,341,342
Raw,85812.212,342,342
Raw,25166.688,344,342
Raw,69143.019,346,342
Raw,56591.926,347,342
Raw,43159.172,350,342
Raw,19498.015,350,342
Raw,84775.576,352,342
Raw,69719.797,353,342
Raw,40578.628,355,342
Raw,36428.209,356,342
Raw,55541.292,357,342
Raw,43891.307,358,342
Raw,55207.941,359,342
Raw,41241.219,362,342
Raw,72916.259,363,342
Raw,24049.339,364,342
Raw,9123.4517,364,342
Raw,40240.791,365,342
Raw,97725.835,366,342
Raw,1.07641152e+05,366,342
Raw,53014.098,367,342
Raw,40708.353,368,342
Raw,49464.401,369,342
Raw,23030.444,371,342
Raw,25968.046,371,342
Raw,58630.147,372,342
Raw,82242.709,373,342
Raw,40938.413,374,342
Raw,38923.634,375,342
Raw,68310.235,377,342
Raw,16426.433,377,342
Raw,28233.633,378,342
Raw,27923.998,378,342
Raw,85640.356,379,342
Raw,46362.755,380,342
Raw,78563.456,382,342
Raw,82473.827,384,342
Raw,48954.893,385,342
Raw,57676.752,386,342
Raw,20846.265,386,342
Raw,55121.529,387,342
Raw,52371.734,388,342
Raw,31848.697,389,342
Raw,77801.311,390,342
Raw,56139.284,392,342
Raw,40965.254,394,342
Raw,34424.376,396,342
Raw,75733.442,398,342
Raw,40863.607,399,342
Raw,79110.136,399,342
Raw,62981,400,342
Raw,79706.534,401,342
Raw,65760.396,402,342
Raw,32726.807,403,342
Raw,29728.887,403,342
Raw,66542.759,404,342
Raw,14127.266,404,342
Raw,20378.312,405,342
Raw,71266.593,405,342
Raw,33217.399,406,342
Raw,66635.931,407,342
Raw,43900.611,408,342
Raw,27412.335,408,342
Raw,44202.161,409,342
Raw,14733.99,410,342
Raw,41870.452,410,342
Raw,27046.819,411,342
Raw,52537.334,411,342
Raw,1.05564286e+05,412,342
Raw,29919.709,413,342
Raw,74303.41,413,342
Raw,58991.875,414,342
Raw,71019.606,415,342
Raw,26482.01,416,342
Raw,34608.537,417,342
Raw,52280.872,420,342
Raw,18111.047,420,342
Raw,22707.654,421,342
Raw,47721.252,421,342
Raw,31942.671,422,342
Raw,44863.298,423,342
Raw,65019.988,424,342
Raw,37907.202,427,342
Raw,40044.965,430,342
Raw,42009.115,431,342
Raw,28401.755,432,342
Raw,41747.132,433,342
Raw,30844.897,434,342
Raw,38084.942,435,342
Raw,23526.299,436,342
Raw,1.04885423e+05,437,342
Raw,20286.483,438,342
Raw,56389.202,439,342
Raw,12759.749,439,342
Raw,74997.552,441,342
Raw,69398.583,442,342
Raw,51781.689,443,342
Raw,55406.879,444,342
Raw,35907.271,445,342
Raw,41993.136,446,342
Raw,40862.72,447,342
Raw,36400.642,448,342
Raw,42096.591,449,342
Raw,41386.37,450,342
Raw,54027.73,452,342
Raw,41220.451,454,342
Raw,19625.524,454,342
Raw,49682.738,456,342
Raw,24512.701,456,342
Raw,38719.802,457,342
Raw,38954.456,459,342
Raw,82728.107,460,342
Raw,35621.513,461,342
Raw,6238.475,461,342
Raw,29090.114,462,342
Raw,31937.477,462,342
Raw,66930.89,463,342
Raw,67339.567,464,342
Raw,30801.081,466,342
Raw,49151.829,467,342
Raw,71419.579,468,342
Raw,51765.575,469,342
Raw,32931.545,470,342
Raw,54722.735,471,342
Raw,9331.2357,472,342
Raw,32377.159,473,342
Raw,36889.981,474,342
Raw,49160.813,475,342
Raw,74422.138,476,342
Raw,20287.736,477,342
Raw,45618.82,478,342
Raw,38202.29,479,342
Raw,22465.68,480,342
Raw,47677.032,480,342
Raw,21872.768,480,342
Raw,56330.701,481,342
Raw,26609.18,482,342
Raw,48122.984,483,342
Raw,86822.623,484,342
Raw,42633.523,486,342
Raw,61236.102,487,342
Raw,41336.215,488,342
Raw,37092.668,489,342
Raw,39901.367,490,342
Raw,68098.124,492,342
Raw,33970.082,493,342
Raw,39782.286,494,342
Raw,48384.029,496,342
Raw,47826.11,497,342
Raw,37730.051,498,342
Raw,28813.681,498,342
Raw,98384.31,499,342
Raw,49044.49,500,342
Raw,39713.844,501,342
Raw,27672.445,502,342
Raw,23044.726,504,342
Raw,36149.662,504,342
Raw,62993.005,505,342
Raw,47602.056,507,342
Raw,41020.286,509,342
Raw,43133.926,512,342
Raw,54137.392,513,342
Raw,21648.009,513,342
Raw,50743.397,514,342
Raw,44607.07,515,342
Raw,38304.594,516,342
Raw,24157.003,517,342
Raw,44244.868,518,342
Raw,19385.455,519,342
Raw,67125.502,520,342
Raw,30894.944,520,342
Raw,52071.799,522,342
Raw,43177.979,523,342
Raw,57639.189,524,342
Raw,50181.788,525,342
Raw,70949.903,526,342
Raw,43804.774,527,342
Raw,35657.991,529,342
Raw,46938.312,530,342
Raw,35541.152,531,342
Raw,43158.946,532,342
Raw,33161.983,532,342
Raw,37157.389,533,342
Raw,53036.344,534,342
Raw,41072.582,534,342
Raw,48036.399,535,342
Raw,82246.214,538,342
Raw,81037.019,540,342
Raw,52036.003,541,342
Raw,69026.198,542,342
Raw,39508.959,543,342
Raw,22022.777,544,342
Raw,24446.484,544,342
Raw,9661.6635,544,342
Raw,51097.086,545,342
Raw,57527.833,546,342
Raw,44760.955,547,342
Raw,32385.819,550,342
Raw,17327.971,550,342
Raw,51468.73,551,342
Raw,92137.22,552,342
Raw,25206.175,554,342
Raw,81953.993,554,342
Raw,41021.201,555,342
Raw,49130.143,555,342
Raw,39607.224,557,342
Raw,55312.559,559,342
Raw,35088.207,561,342
Raw,37389.354,561,342
Raw,67500.165,563,342
Raw,29075.071,564,342
Raw,53894.051,565,342
Raw,40506.495,566,342
Raw,40785.903,567,342
Raw,36307.376,568,342
Raw,48374.859,569,342
Raw,49182.389,570,342
Raw,21637.997,572,342
Raw,62731.071,572,342
Raw,32973.822,574,342
Raw,16195.953,574,342
Raw,40316.913,576,342
Raw,21878.084,578,342
Raw,36025.532,578,342
Raw,59262.052,580,342
Raw,43323.294,581,342
Raw,67774.183,583,342
Raw,33449.685,584,342
Raw,48868.2,585,342
Raw,57427.247,586,342
Raw,53047.987,587,342
Raw,49104.394,588,342
Raw,94793.732,589,342
Raw,6078.0361,589,342
Raw,51903.254,590,342
Raw,31567.942,591,342
Raw,37129.533,591,342
Raw,45741.116,592,342
Raw,38885.517,592,342
Raw,47691.488,594,342
Raw,61744.596,595,342
Raw,34240.718,596,342
Raw,33973.916,597,342
Raw,24396.783,598,342
Raw,68032.073,599,342
Raw,75864.114,600,342
Raw,15692.348,600,342
Raw,29393.082,602,342
Raw,32425.82,602,342
Raw,35110.369,603,342
Raw,63475.126,604,342
Raw,33926.816,605,342
Raw,60582.129,606,342
Raw,37694.449,607,342
Raw,45253.451,608,342
Raw,34244.223,609,342
Raw,22451.551,611,342
Raw,56073.484,612,342
Raw,48093.256,613,342
Raw,41311.707,614,342
Raw,35540.884,615,342
Raw,22992.498,616,342
Raw,37499.748,617,342
Raw,21620.076,618,342
Raw,77904.024,619,342
Raw,46133.883,621,342
Raw,1.16972352e+05,623,342
Raw,48894.97,624,342
Raw,12619.221,624,342
Raw,37733.117,625,342
Raw,27247.513,626,342
Raw,34560.718,626,342
Raw,67149.831,628,342
Raw,49833.208,629,342
Raw,35388.489,630,342
Raw,69607.606,631,342
Raw,61121.775,632,342
Raw,21825.461,633,342
Raw,67525.512,634,342
Raw,38625.5,635,342
Raw,30445.665,636,342
Raw,38301.833,637,342
Raw,35060.148,637,342
Raw,48861.671,638,342
Raw,38724.8,639,342
Raw,46979.393,640,342
Raw,29866.236,641,342
Raw,54711.902,642,342
Raw,36695.302,643,342
Raw,37272.939,644,342
Raw,42474.807,645,342
Raw,27392.031,645,342
Raw,36097.165,646,342
Raw,46957.698,647,342
Raw,10958.75,648,342
Raw,27079.444,649,342
Raw,36784.032,649,342
Raw,51532.799,650,342
Raw,84345.283,651,342
Raw,14863.782,651,342
Raw,86181.872,652,342
Raw,56090.9,653,342
Raw,45061.109,655,342
Raw,16211.736,655,342
Raw,29327.647,656,342
Raw,37244.189,657,342
Raw,86620.17,658,342
Raw,9866.503,658,342
Raw,13718.015,659,342
Raw,32103.056,659,342
Raw,44785.75,660,342
Raw,44152.882,661,342
Raw,8835.1675,661,342
Raw,85218.779,662,342
Raw,51260.755,663,342
Raw,43053.219,664,342
Raw,59877.961,665,342
Raw,32090.471,665,342
Raw,38597.359,667,342
Raw,41563.517,669,342
Raw,27569.134,670,342
Raw,45729.234,671,342
Raw,33562.563,672,342
Raw,48916.471,673,342
Raw,82580.848,674,342
Raw,39729.167,676,342
Raw,86398.173,677,342
Raw,52810.182,678,342
Raw,58064.245,679,342
Raw,60569.581,680,342
Raw,47782.534,681,342
Raw,41330.599,682,342
Raw,53904.515,683,342
Raw,62357.563,684,342
Raw,36281.105,685,342
Raw,61878.525,686,342
Raw,1.11368623e+05,686,342
Raw,51987.892,687,342
Raw,42590.314,688,342
Raw,39899.226,689,342
Raw,52370.559,690,342
Raw,19986.235,690,342
Raw,51067.941,691,342
Raw,36356.403,693,342
Raw,44057.254,694,342
Raw,37949.217,695,342
Raw,39015.606,696,342
Raw,31659.686,697,342
Raw,54516.619,697,342
Raw,71038.208,698,342
Raw,69381.141,699,342
Raw,44541.457,701,342
Raw,50089.397,703,342
Raw,48424.908,705,342
Raw,32204.944,706,342
Raw,47832.936,707,342
Raw,71277.138,708,342
Raw,99988.139,709,342
Raw,58626.433,710,342
Raw,32163.802,710,342
Raw,23383.897,711,342
Raw,91013.213,712,342
Raw,39035.038,714,342
Raw,36583.866,715,342
Raw,59574.109,716,342
Raw,48173.068,719,342
Raw,80421.951,720,342
Raw,41068.709,721,342
Raw,22837.066,722,342
Raw,50069.562,723,342
Raw,19112.85,724,342
Raw,29801.68,725,342
Raw,16417.077,725,342
Raw,32819.21,726,342
Raw,42459.263,727,342
Raw,24614.3,727,342
Raw,40094.624,728,342
Raw,71589.886,729,342
Raw,71819.991,731,342
Raw,1.00918921e+05,733,342
Raw,14480.443,733,342
Raw,28877.573,734,342
Raw,46613.656,735,342
Raw,28123.116,736,342
Raw,50426.418,737,342
Raw,13552.229,739,342
Raw,50507.259,739,342
Raw,32154.774,741,342
Raw,64102.137,741,342
Raw,31954.871,742,342
Raw,45943.495,743,342
Raw,79533.262,745,342
Raw,1.13069123e+05,746,342
Raw,33551.494,747,342
Raw,13320.854,747,342
Raw,96010.921,748,342
Raw,45292.698,749,342
Raw,23477.314,752,342
Raw,44019.449,753,342
Raw,58571.549,754,342
Raw,41930.87,756,342
Raw,84975.473,759,342
Raw,62324.402,761,342
Raw,39345.874,762,342
Raw,80928.45,763,342
Raw,52952.347,764,342
Raw,53954.369,765,342
Raw,24914.39,765,342
Raw,74790.098,766,342
Raw,15707.359,767,342
Raw,54980.93,767,342
Raw,26996.522,767,342
Raw,38939.589,767,342
Raw,91911.442,769,342
Raw,12391.672,770,342
Raw,47244.629,771,342
Raw,68147.186,772,342
Raw,1.06931953e+05,774,342
Raw,40156.114,775,342
Raw,1.10267596e+05,776,342
Raw,34865.771,776,342
Raw,49317.846,778,342
Raw,30518.555,780,342
Raw,33963.237,782,342
Raw,83254.809,784,342
Raw,80732.398,785,342
Raw,30805.401,786,342
Raw,44389.278,787,342
Raw,41707.866,788,342
Raw,26922.056,789,342
Raw,91854.775,790,342
Raw,54309.081,792,342
Raw,49248.121,793,342
Raw,34491.344,793,342
Raw,57612.947,794,342
Raw,70201.68,795,342
Raw,48080.474,796,342
Raw,49755.176,798,342
Raw,70704.982,799,342
Raw,40487.799,800,342
Raw,36730.073,801,342
Raw,34210.06,801,342
Raw,95716.453,802,342
Raw,64757.031,803,342
Raw,44641.023,804,342
Raw,28211.979,805,342
Raw,34959.873,805,342
Raw,47736.601,806,342
Raw,43907.759,807,342
Raw,1.14465499e+05,808,342
Raw,43311.148,809,342
Raw,30231.099,809,342
Raw,1.1293129e+05,810,342
Raw,51494.562,811,342
Raw,54257.03,812,342
Raw,1.18784931e+05,813,342
Raw,56832.026,814,342
Raw,41735.429,815,342
Raw,29470.991,817,342
Raw,75376.415,819,342
Raw,34641.981,819,342
Raw,28053.897,820,342
Raw,81767.54,820,342
Raw,68465.412,821,342
Raw,34767.252,822,342
Raw,7813.7811,822,342
Raw,17873.54,823,342
Raw,36464.671,823,342
Raw,39107.57,824,342
Raw,23215.975,825,342
Raw,53376.11,825,342
Raw,49411.859,826,342
Raw,24638.313,827,342
Raw,33102.397,827,342
Raw,32749.712,827,342
Raw,43490.588,828,342
Raw,92693.124,831,342
Raw,56748.595,832,342
Raw,1.03250253e+05,833,342
Raw,42049.25,835,342
Raw,25109.264,836,342
Raw,34527.031,836,342
Raw,35432.586,837,342
Raw,29710.314,838,342
Raw,69315.864,838,342
Raw,32603.285,840,342
Raw,22399.493,840,342
Raw,58312.363,842,342
Raw,25869.694,844,342
Raw,20754.896,844,342
Raw,60931.238,845,342
Raw,32204.449,845,342
Raw,37834.399,846,342
Raw,32685.002,847,342
Raw,38194.238,848,342
Raw,42045.617,850,342
Raw,32339.959,852,342
Raw,43440.867,853,342
Raw,58286.289,855,342
Raw,38204.837,856,342
Raw,51480.924,858,342
Raw,42173.558,861,342
Raw,40533.715,861,342
Raw,43428.439,863,342
Raw,51474.403,864,342
Raw,56902.87,865,342
Raw,57418.958,866,342
Raw,38710.191,867,342
Raw,70480.409,868,342
Raw,50536.152,868,342
Raw,33460.98,870,342
Raw,49382.27,872,342
Raw,64298.47,873,342
Raw,49482.791,874,342
Raw,31378.562,875,342
Raw,40307.524,876,342
Raw,28206.979,878,342
Raw,43540.462,878,342
Raw,75349.448,879,342
Raw,37885.292,880,342
Raw,48082.049,881,342
Raw,1.00904173e+05,882,342
Raw,39322.5,882,342
Raw,25252.108,883,342
Raw,57316.283,884,342
Raw,49389.797,885,342
Raw,46519.124,886,342
Raw,20781.208,886,342
Raw,59209.749,887,342
Raw,79297.223,888,342
Raw,57955.432,890,342
Raw,43025.609,891,342
Raw,52090.734,892,342
Raw,41223.837,895,342
Raw,33157.088,896,342
Raw,34466.784,896,342
Raw,1.09147106e+05,897,342
Raw,48931.077,898,342
Raw,47089.63,899,342
Raw,43724.461,901,342
Raw,36216.407,902,342
Raw,31744.379,903,342
Raw,62818.554,904,342
Raw,35515.697,904,342
Raw,13567.503,905,342
Raw,32921.46,906,342
Raw,26390.232,906,342
Raw,15340.504,906,342
Raw,68792.85,907,342
Raw,36875.043,908,342
Raw,60532.751,909,342
Raw,45943.65,910,342
Raw,26399.117,910,342
Raw,51551.683,912,342
Raw,12306.403,912,342
Raw,60070.697,914,342
Raw,83400.414,915,342
Raw,46165.652,916,342
Raw,72279.51,917,342
Raw,66944.493,918,342
Raw,47639.017,920,342
Raw,50914.711,921,342
Raw,47427.165,922,342
Raw,44564.882,923,342
Raw,29468.372,925,342
Raw,78667.161,925,342
Raw,36370.253,928,342
Raw,45764.487,929,342
Raw,35953.065,930,342
Raw,34951.057,931,342
Raw,20495.62,931,342
Raw,38182.635,933,342
Raw,66031.898,934,342
Raw,54334.335,936,342
Raw,52828.001,937,342
Raw,38135.743,939,342
Raw,34838.873,940,342
Raw,23672.107,940,342
Raw,54474.921,941,342
Raw,58251.148,942,342
Raw,33981.993,943,342
Raw,65555.849,945,342
Raw,32641.024,946,342
Raw,53471.942,947,342
Raw,34703.221,948,342
Raw,44379.301,949,342
Raw,18880.895,950,342
Raw,43528.504,950,342
Raw,87008.823,952,342
Raw,39439.187,953,342
Raw,53107.578,954,342
Raw,53085.313,955,342
Raw,69034.581,956,342
Raw,45670.285,958,342
Raw,27934.262,959,342
Raw,45960.117,960,342
Raw,32164.537,961,342
Raw,96404.583,963,342
Raw,39254.355,964,342
Raw,25032.497,964,342
Raw,50038.758,965,342
Raw,27331.78,966,342
Raw,39668.823,966,342
Raw,63817.055,967,342
Raw,32251.425,969,342
Raw,50250.002,970,342
Raw,38031.462,971,342
Raw,38983.843,972,342
Raw,22354.735,972,342
Raw,90194.693,973,342
Raw,1.21038136e+05,973,342
Raw,56212.069,975,342
Raw,74609.905,976,342
Raw,79563.969,977,342
Raw,25171.475,977,342
Raw,60574.174,978,342
Raw,32350.116,978,342
Raw,71261.971,979,342
Raw,31889.002,980,342
Raw,87592.619,981,342
Raw,27337.189,982,342
Raw,85030.989,982,342
Raw,58967.19,982,342
Raw,35428.914,983,342
Raw,99062.776,983,342
Raw,33748.522,984,342
Raw,27136.393,985,342
Raw,10612.551,985,342
Raw,23621.214,985,342
Raw,40561.405,987,342
Raw,37023.898,989,342
Raw,50639.405,991,342
Raw,34895.191,992,342
Raw,46828.715,994,342
Raw,56332.503,995,342
Raw,55571.428,996,342
Raw,38880.099,997,342
Raw,54193.658,998,342
Raw,29755.306,999,342
Raw,36319.81,1001,342
Raw,56037.716,1002,342
Raw,59844.372,1004,342
Raw,51600.793,1005,342
Raw,71143.293,1006,342
Raw,39742.098,1007,342
Raw,94866.116,1009,342
Raw,8013.5615,1009,342
Raw,49142.468,1010,342
Raw,34665.039,1010,342
Raw,10447.104,1010,342
Raw,1.20653319e+05,1011,342
Raw,30942.829,1012,342
Raw,26493.924,1013,342
Raw,34624.904,1014,342
Raw,33512.899,1016,342
Raw,52253.617,1017,342
Raw,78694.109,1018,342
Raw,40858.374,1019,342
Raw,15137.959,1019,342
Raw,56291.5,1020,342
Raw,45485.027,1021,342
Raw,42028.915,1022,342
Raw,47784.483,1025,342
Raw,17235.693,1025,342
Raw,27017.136,1026,342
Raw,47270.48,1027,342
Raw,26778.17,1027,342
Raw,26640.738,1028,342
Raw,36230.969,1029,342
Raw,38344.717,1031,342
Raw,36921.587,1032,342
Raw,67485.079,1035,342
Raw,72171.039,1036,342
Raw,75782.956,1037,342
Raw,74702.528,1038,342
Raw,34819.639,1041,342
Raw,24736.899,1041,342
Raw,19575.031,1041,342
Raw,32389.69,1043,342
Raw,56267.983,1044,342
Raw,67065.088,1045,342
Raw,57092.151,1046,342
Raw,22604.829,1046,342
Raw,28196.479,1048,342
Raw,46321.202,1049,342
Raw,38954.015,1050,342
Raw,43085.402,1052,342
Raw,41612.942,1053,342
Raw,68387.237,1055,342
Raw,39607.467,1056,342
Raw,30624.232,1057,342
Raw,56232.862,1058,342
Raw,40867.85,1060,342
Raw,70086.244,1061,342
Raw,46241.54,1063,342
Raw,27485.492,1063,342
Raw,59227.313,1064,342
Raw,31549.733,1065,342
Raw,25432.262,1065,342
Raw,49300.075,1065,342
Raw,81209.229,1066,342
Raw,37215.095,1067,342
Raw,45376.788,1068,342
Raw,42890.262,1069,342
Raw,32206.624,1070,342
Raw,32283.715,1071,342
Raw,58380.526,1072,342
Raw,38499.364,1073,342
Raw,49797.056,1073,342
Raw,33960.756,1074,342
Raw,60330.283,1075,342
Raw,36196.575,1077,342
Raw,55725.734,1078,342
Raw,35557.124,1079,342
Raw,31390.446,1080,342
Raw,26995.963,1080,342
Raw,42125.809,1081,342
Raw,54134.067,1082,342
Raw,46629.525,1084,342
Raw,46828.898,1085,342
Raw,40928.276,1086,342
Raw,45515.668,1087,342
Raw,32781.01,1087,342
Raw,53038.771,1089,342
Raw,37795.193,1090,342
Raw,34075.405,1091,342
Raw,44619.755,1092,342
Raw,42346.28,1093,342
Raw,31135.786,1094,342
Raw,43969.702,1094,342
Raw,32777.586,1096,342
Raw,35787.855,1097,342
Raw,45447.652,1099,342
Raw,77278.812,1100,342
Raw,33493.458,1101,342
Raw,41017.931,1103,342
Raw,1.06933954e+05,1104,342
Raw,19589.753,1104,342
Raw,66226.623,1105,342
Raw,42838.549,1107,342
Raw,30289.935,1108,342
Raw,47515.38,1109,342
Raw,65864.07,1110,342
Raw,36132.625,1111,342
Raw,56457.301,1112,342
Raw,42741.856,1113,342
Raw,42142.679,1114,342
Raw,41358.759,1116,342
Raw,64709.682,1117,342
Raw,63767.786,1118,342
Raw,21893.499,1118,342
Raw,12493.88,1118,342
Raw,55996.215,1121,342
Raw,73637.589,1123,342
Raw,63233.834,1125,342
Raw,76923.679,1126,342
Raw,32212.765,1126,342
Raw,44429.047,1128,342
Raw,35021.78,1129,342
Raw,79835.362,1131,342
Raw,78972.533,1132,342
Raw,14145.841,1132,342
Raw,81256.325,1133,342
Raw,42363.989,1134,342
Raw,20527.634,1134,342
Raw,56395.765,1136,342
Raw,48343.39,1137,342
Raw,33451.874,1138,342
Raw,59277.796,1140,342
Raw,32495.193,1142,342
Raw,56395.546,1144,342
Raw,32441.365,1145,342
Raw,58003.777,1147,342
Raw,32790.511,1147,342
Raw,50259.196,1148,342
Raw,48641.219,1149,342
Raw,58251.334,1150,342
Raw,22121.493,1150,342
Raw,55938.661,1151,342
Raw,31992.577,1152,342
Raw,45227.076,1152,342
Raw,98087.829,1153,342
Raw,45547.98,1154,342
Raw,32879.95,1155,342
Raw,42511.175,1155,342
Raw,55729.271,1157,342
Raw,57530.098,1158,342
Raw,48664.873,1159,342
Raw,21473.108,1159,342
Raw,78937.374,1160,342
Raw,42399.522,1161,342
Raw,60420.833,1162,342
Raw,47252.78,1164,342
Raw,68526.4,1166,342
Raw,73530.918,1167,342
Raw,21435.154,1167,342
Raw,55283.224,1169,342
Raw,32072.27,1170,342
Raw,35258.122,1171,342
Raw,62070.687,1172,342
Raw,45088.937,1173,342
Raw,74410.244,1174,342
Raw,26602.72,1174,342
Raw,54497.577,1176,342
Raw,21501.109,1176,342
Raw,55008.659,1177,342
Raw,24491.804,1180,342
Raw,18346.279,1180,342
Raw,62505.346,1180,342
Raw,56146.638,1182,342
Raw,24128.519,1183,342
Raw,37200.422,1183,342
Raw,91242.375,1184,342
Raw,30998.587,1184,342
Raw,58485.531,1185,342
Raw,45566.533,1186,342
Raw,1.20634244e+05,1187,342
Raw,74877.618,1189,342
Raw,21586.724,1191,342
Raw,39554.393,1192,342
Raw,57343.803,1193,342
Raw,56756.241,1196,342
Raw,52536.85,1197,342
Raw,27942.549,1197,342
Raw,52531.623,1198,342
Raw,39619.121,1199,342
Raw,90686.147,1200,342
Raw,47468.994,1201,342
Raw,45788.522,1203,342
Raw,33165.164,1204,342
Raw,57525.87,1205,342
Raw,31124.523,1207,342
Raw,47053.287,1208,342
Raw,40534.041,1211,342
Raw,54417.438,1212,342
Raw,50429.2,1213,342
Raw,50308.028,1214,342
Raw,24060.514,1214,342
Raw,82439.994,1215,342
Raw,57936.137,1216,342
Raw,90924.234,1217,342
Raw,47379.626,1218,342
Raw,36087.229,1219,342
Raw,30731.72,1220,342
Raw,41516.053,1221,342
Raw,40115.625,1222,342
Raw,30366.315,1224,342
Raw,47211.918,1224,342
Raw,36481.19,1225,342
Raw,79840.648,1226,342
Raw,38780.746,1227,342
Raw,98113.482,1229,342
Raw,43973.763,1230,342
Raw,20900.732,1231,342
Raw,66268.208,1231,342
Raw,34815.677,1232,342
Raw,35720.632,1234,342
Raw,22139.839,1234,342
Raw,42538.111,1235,342
Raw,25867.753,1236,342
Raw,37894.242,1237,342
Raw,48951.601,1239,342
Raw,26901.347,1240,342
Raw,58894.059,1242,342
Raw,26427.79,1243,342
Raw,43871.2,1244,342
Raw,45839.196,1245,342
Raw,39050.538,1245,342
Raw,42805.617,1246,342
Raw,41182.253,1247,342
Raw,38855.132,1248,342
Raw,34938.846,1249,342
Raw,38943.257,1250,342
Raw,45763.582,1250,342
Raw,46302.952,1251,342
Raw,62663.587,1253,342
Raw,39026.952,1254,342
Raw,37407.294,1254,342
Raw,38916.92,1255,342
Raw,44719.309,1257,342
Raw,53708.167,1259,342
Raw,47864.207,1260,342
Raw,46185.261,1261,342
Raw,36431.33,1262,342
Raw,77204.865,1263,342
Raw,24665.798,1265,342
Raw,88414.53,1265,342
Raw,43195.878,1266,342
Raw,63349.748,1267,342
Raw,84115.884,1268,342
Raw,97362.373,1269,342
Raw,33559.611,1271,342
Raw,56946.558,1272,342
Raw,33620.657,1273,342
Raw,45199.761,1274,342
Raw,55745.771,1275,342
Raw,40468.781,1275,342
Raw,41339.781,1277,342
Raw,80468.316,1278,342
Raw,51303.72,1279,342
Raw,55291.911,1282,342
Raw,33407.345,1283,342
Raw,46276.474,1284,342
Raw,65191.889,1285,342
Raw,37599.403,1286,342
Raw,79006.088,1287,342
Raw,56592.278,1288,342
Raw,33798.659,1291,342
Raw,69176.276,1292,342
Raw,84776.873,1292,342
Raw,83011.486,1293,342
Raw,51505.55,1295,342
Raw,80227.278,1296,342
Raw,58547.865,1297,342
Raw,54264.326,1298,342
Raw,38473.1,1299,342
Raw,41563.684,1300,342
Raw,34862.623,1302,342
Raw,33778.51,1303,342
Raw,43383.417,1304,342
Raw,19318.742,1304,342
Raw,29863.141,1305,342
Raw,57697.951,1306,342
Raw,54607.216,1307,342
Raw,57122.318,1308,342
Raw,31556.066,1310,342
Raw,40104.177,1310,342
Raw,39773.817,1311,342
Raw,32163.84,1311,342
Raw,40192.927,1312,342
Raw,45128.381,1314,342
Raw,78126.874,1314,342
Raw,16244.025,1314,342
Raw,56911.271,1317,342
Raw,36602.004,1317,342
Raw,40283.091,1319,342
Raw,91297.319,1320,342
Raw,46279.304,1322,342
Raw,87976.155,1324,342
Raw,1.02273717e+05,1325,342
Raw,22401.038,1327,342
Raw,32479.741,1328,342
Raw,15487.921,1329,342
Raw,44362.544,1333,342
Raw,54663.558,1334,342
Raw,20170.593,1334,342
Raw,37194.52,1336,342
Raw,70370.559,1337,342
Raw,64001.222,1338,342
Raw,46692.822,1339,342
Raw,35397.17,1340,342
Raw,32829.676,1342,342
Raw,42365.934,1343,342
Raw,31432.888,1344,342
Raw,43229.078,1344,342
Raw,27362.103,1345,342
Raw,47534.016,1346,342
Raw,47273.12,1347,342
Raw,1.00182249e+05,1348,342
Raw,50944.179,1350,342
Raw,61767.172,1352,342
Raw,27093.723,1352,342
Raw,1.00522321e+05,1353,342
Raw,71542.063,1354,342
Raw,67287.335,1355,342
Raw,41170.844,1356,342
Raw,24044.87,1356,342
Raw,48521.376,1357,342
Raw,68527.648,1358,342
Raw,32865.376,1359,342
Raw,7776.7406,1359,342
Raw,66618.394,1360,342
Raw,42338.597,1362,342
Raw,22589.87,1363,342
Raw,31797.355,1364,342
Raw,45028.653,1366,342
Raw,17971.601,1366,342
Raw,22772.219,1369,342
Raw,26915.552,1369,342
Raw,55470.28,1369,342
Raw,42049.885,1371,342
Raw,36750.344,1372,342
Raw,32386.713,1373,342
Raw,41356.669,1374,342
Raw,1.00952273e+05,1374,342
Raw,47868.849,1376,342
Raw,39061.386,1379,342
Raw,1.16944265e+05,1380,342
Raw,53451.1,1381,342
Raw,71790.101,1382,342
Raw,27279.167,1382,342
Raw,49446.352,1383,342
Raw,36433.248,1385,342
Raw,36672.643,1386,342
Raw,22802.206,1386,342
Raw,32566.33,1387,342
Raw,51066.549,1388,342
Raw,61375.805,1389,342
Raw,47164.797,1390,342
Raw,46670.915,1391,342
Raw,38989.886,1391,342
Raw,26774.212,1392,342
Raw,61220.173,1393,342
Raw,23417.404,1394,342
Raw,92264.265,1395,342
Raw,40707.486,1397,342
Raw,36043.351,1398,342
Raw,27131.908,1398,342
Raw,84304.857,1399,342
Raw,52633.066,1399,342
Raw,42358.318,1400,342
Raw,38625.546,1401,342
Raw,40969.575,1402,342
Raw,24944.251,1403,342
Raw,31330.34,1403,342
Raw,24712.012,1404,342
Raw,45702.383,1404,342
Raw,70076.476,1405,342
Raw,7326.5577,1405,342
Raw,46581.703,1406,342
Raw,77101.941,1407,342
Raw,63839.552,1407,342
Raw,52480.009,1408,342
Raw,36385.363,1410,342
Raw,65751.718,1412,342
Raw,41550.991,1414,342
Raw,96805.775,1416,342
Raw,24063.126,1416,342
Raw,91163.854,1417,342
Raw,38757.779,1419,342
Raw,43596.588,1420,342
Raw,48381.116,1421,342
Raw,41591.272,1422,342
Raw,41560.831,1423,342
Raw,69533.641,1424,342
Raw,32812.366,1425,342
Raw,44698.488,1426,342
Raw,35531.201,1429,342
Raw,42645.218,1430,342
Raw,42681.886,1431,342
Raw,55736.09,1432,342
Raw,76666.829,1433,342
Raw,95242.985,1434,342
Raw,39416.108,1435,342
Raw,45392.839,1436,342
Raw,43320.12,1437,342
Raw,20733.704,1437,342
Raw,49259.735,1438,342
Raw,37821.828,1439,342
Raw,83369.451,1440,342
Raw,48900.555,1442,342
Raw,45059.007,1443,342
Raw,42267.844,1444,342
Raw,54581.703,1446,342
Raw,46183.014,1447,342
Raw,51566.715,1448,342
Raw,36086.232,1449,342
Raw,71078.026,1450,342
Raw,40497.203,1451,342
Raw,16560.12,1451,342
Raw,28151.205,1452,342
Raw,64009.32,1453,342
Raw,30208.296,1454,342
Raw,81186.03,1455,342
Raw,38562.454,1456,342
Raw,30877.091,1457,342
Raw,83810.803,1459,342
Raw,51349.069,1461,342
Raw,23909.209,1463,342
Raw,72840.621,1463,342
Raw,44645.163,1464,342
Raw,34999.178,1466,342
Raw,79120.202,1468,342
Raw,80689.185,1469,342
Raw,34841.587,1469,342
Raw,54265.262,1470,342
Raw,47450.229,1471,342
Raw,69054.779,1473,342
Raw,32751.599,1474,342
Raw,29622.52,1474,342
Raw,37961.596,1475,342
Raw,41360.051,1476,342
Raw,33499.821,1477,342
Raw,23622.754,1478,342
Raw,46196.231,1478,342
Raw,41885.887,1479,342
Raw,37935.362,1480,342
Raw,23409.612,1481,342
Raw,41927.194,1482,342
Raw,46587.295,1483,342
Raw,57817.103,1485,342
Raw,48904.692,1487,342
Raw,58273.563,1488,342
Raw,79558.103,1489,342
Raw,23594.756,1490,342
Raw,53503.332,1492,342
Raw,32141.573,1493,342
Raw,34388.404,1494,342
Raw,89833.626,1495,342
Raw,68773.748,1495,342
Raw,42793.894,1497,342
Raw,49394.271,1499,342
Raw,91772.327,1500,342
Raw,47263.462,1501,342
Raw,51226.322,1503,342
Raw,59191.952,1505,342
Raw,35073.504,1506,342
Raw,30155.839,1506,342
Raw,26943.766,1507,342
Raw,30564.62,1507,342
Raw,33819.458,1508,342
Raw,63401.048,1510,342
Raw,18072.937,1510,342
Raw,43159.685,1512,342
Raw,47904.978,1513,342
Raw,57264.542,1515,342
Raw,15454.619,1515,342
Raw,46250.95,1516,342
Raw,55379.345,1518,342
Raw,37701.66,1519,342
Raw,55147.373,1520,342
Raw,47999.233,1522,342
Raw,52482.321,1524,342
Raw,43268.054,1525,342
Raw,73591.441,1526,342
Raw,38229.937,1528,342
Raw,21023.856,1529,342
Raw,68846.144,1530,342
Raw,37107.724,1532,342
Raw,49400.983,1533,342
Raw,45085.601,1534,342
Raw,48158.287,1535,342
Raw,79686.075,1537,342
Raw,50287.11,1538,342
Raw,34319.615,1539,342
Raw,63777.502,1540,342
Raw,84656.44,1541,342
Raw,65467.985,1542,342
Raw,44253.181,1543,342
Raw,78778.552,1545,342
Raw,52825.695,1546,342
Raw,72192.533,1547,342
Raw,65918.152,1548,342
Raw,73936.578,1549,342
Raw,33509.957,1551,342
Raw,48712.023,1552,342
Raw,16923.849,1553,342
Raw,18833.066,1553,342
Raw,69611.869,1554,342
Raw,20490.117,1555,342
Raw,45304.477,1555,342
Raw,1.20131099e+05,1556,342
Raw,49607.809,1557,342
Raw,67174.971,1558,342
Raw,25384.026,1560,342
Raw,37139.719,1560,342
Raw,32035.547,1562,342
Raw,38314.788,1563,342
Raw,33415.823,1564,342
Raw,44066.927,1565,342
Raw,6359.8338,1566,342
Raw,77748.939,1567,342
Raw,45436.308,1568,342
Raw,61628.989,1570,342
Raw,11404.697,1570,342
Raw,53475.982,1571,342
Raw,25510.674,1572,342
Raw,41185.386,1574,342
Raw,56420.558,1575,342
Raw,42783.644,1576,342
Raw,14559.947,1578,342
Raw,41565.349,1580,342
Raw,65194.675,1581,342
Raw,43130.869,1582,342
Raw,80187.944,1583,342
Raw,45133.313,1585,342
Raw,31387.884,1586,342
Raw,37131.72,1587,342
Raw,38020.66,1589,342
Raw,35615.039,1590,342
Raw,38774.628,1591,342
Raw,75009.038,1592,342
Raw,50135.566,1594,342
Raw,7029.1165,1594,342
Raw,51149.3,1595,342
Raw,49712.074,1596,342
Raw,57070.286,1597,342
Raw,27708.489,1597,342
Raw,49351.412,1598,342
Raw,40338.117,1599,342
Raw,70027.978,1600,342
Raw,43475.996,1601,342
Raw,65097.778,1602,342
Raw,39877.119,1602,342
Raw,95704.132,1605,342
Raw,52809.651,1606,342
Raw,43984.78,1607,342
Raw,56816.344,1608,342
Raw,88086.959,1610,342
Raw,29995.193,1610,342
Raw,39348.285,1611,342
Raw,68667.077,1612,342
Raw,42143.623,1613,342
Raw,39790.808,1615,342
Raw,48851.3,1617,342
Raw,35823.646,1618,342
Raw,17739.149,1619,342
Raw,1.2679719e+05,1619,342
Raw,34168.127,1620,342
Raw,1.17911201e+05,1622,342
Raw,41540.904,1623,342
Raw,21097.703,1623,342
Raw,54158.053,1624,342
Raw,22563.262,1625,342
Raw,65464.947,1625,342
Raw,93250.875,1626,342
Raw,48998.591,1628,342
Raw,32854.458,1629,342
Raw,42447.345,1630,342
Raw,39685.045,1631,342
Raw,48724.163,1632,342
Raw,37776.229,1633,342
Raw,53367.587,1634,342
Raw,36949.33,1634,342
Raw,33383.18,1635,342
Raw,35990.432,1636,342
Raw,47114.791,1637,342
Raw,43573.163,1638,342
Raw,33887.976,1639,342
Raw,12934.06,1641,342
Raw,33149.409,1641,342
Raw,38432.298,1642,342
Raw,31846.735,1643,342
Raw,1.13030507e+05,1644,342
Raw,1.04641975e+05,1645,342
Raw,41408.125,1647,342
Raw,23211.151,1647,342
Raw,40599.3,1648,342
Raw,45407.503,1649,342
Raw,15436.921,1650,342
Raw,26467.444,1650,342
Raw,45681.427,1650,342
Raw,62338.256,1651,342
Raw,42825.491,1653,342
Raw,60424.46,1654,342
Raw,82632.774,1656,342
Raw,5723.9221,1656,342
Raw,45319.765,1657,342
Raw,39394.551,1659,342
Raw,68828.71,1661,342
Raw,51972.878,1662,342
Raw,70411.386,1662,342
Raw,40216.34,1663,342
Raw,54576.455,1664,342
Raw,1.06725438e+05,1666,342
Raw,33789.125,1668,342
Raw,29457.256,1669,342
Raw,40970.895,1670,342
Raw,37557.052,1671,342
Raw,71469.009,1672,342
Raw,58333.8,1673,342
Raw,50786.505,1674,342
Raw,59763.393,1675,342
Raw,44128.975,1676,342
Raw,54735.531,1677,342
Raw,37678.535,1679,342
Raw,28654.94,1680,342
Raw,55051.299,1681,342
Raw,51124.134,1683,342
Raw,44480.775,1684,342
Raw,32624.533,1685,342
Raw,37044.544,1687,342
Raw,38665.642,1689,342
Raw,47254.85,1690,342
Raw,47641.975,1690,342
Raw,57035.052,1691,342
Raw,64029.615,1693,342
Raw,53009.216,1694,342
Raw,9177.8669,1694,342
Raw,52752.593,1695,342
Raw,38010.059,1696,342
Raw,76771.056,1696,342
Raw,56347.3,1699,342
Raw,46364.707,1700,342
Raw,20182.94,1701,342
Raw,29979.663,1701,342
Raw,20228.05,1702,342
Raw,40146.59,1702,342
Raw,43763.214,1703,342
Raw,34463.336,1704,342
Raw,37866.695,1705,342
Raw,39914.972,1706,342
Raw,57325.178,1707,342
Raw,37556.489,1708,342
Raw,70321.016,1710,342
Raw,21530.725,1711,342
Raw,15948.918,1712,342
Raw,33804.18,1713,342
Raw,56881.168,1715,342
Raw,43344.863,1716,342
Raw,1.14287546e+05,1717,342
Raw,67318.071,1718,342
Raw,49635.781,1720,342
Raw,32532.752,1721,342
Raw,56910.647,1722,342
Raw,1.24616652e+05,1724,342
Raw,34423.897,1725,342
Raw,35846.571,1726,342
Raw,37171.974,1727,342
Raw,89104.436,1728,342
Raw,20665.854,1729,342
Raw,34321.908,1730,342
Raw,13567.39,1732,342
Raw,26880.32,1732,342
Raw,28604.173,1732,342
Raw,42785.091,1733,342
Raw,49076.307,1735,342
Raw,19207.865,1735,342
Raw,76645.597,1736,342
Raw,43550.054,1737,342
Raw,33946.92,1738,342
Raw,55605.993,1740,342
Raw,71426.626,1742,342
Raw,35391.826,1743,342
Raw,55219.884,1744,342
Raw,40338.355,1745,342
Raw,32411.232,1745,342
Raw,82554.232,1747,342
Raw,45452.706,1748,342
Raw,35903.52,1749,342
Raw,20093.337,1750,342
Raw,88005.247,1751,342
Raw,39281.623,1753,342
Raw,20004.142,1753,342
Raw,38085.236,1755,342
Raw,59013.115,1756,342
Raw,42934.584,1757,342
Raw,58401.253,1758,342
Raw,47475.581,1759,342
Raw,1.00388803e+05,1760,342
Raw,38276.817,1761,342
Raw,75463.305,1762,342
Raw,40139.211,1764,342
Raw,38740.758,1765,342
Raw,38748.301,1768,342
Raw,39077.317,1769,342
Raw,39129.213,1770,342
Raw,26651.174,1770,342
Raw,48838.266,1771,342
Raw,23535.882,1772,342
Raw,30964.655,1772,342
Raw,26892.344,1773,342
Raw,61747.511,1773,342
Raw,50523.62,1774,342
Raw,48085.46,1775,342
Raw,66208.123,1776,342
Raw,38117.537,1778,342
Raw,49378.948,1781,342
Raw,57372.454,1782,342
Raw,34697.717,1783,342
Raw,48733.156,1783,342
Raw,45147.487,1785,342
Raw,14578.055,1786,342
Raw,44538.974,1787,342
Raw,46318.28,1791,342
Raw,67432.614,1792,342
Raw,44037.996,1793,342
Raw,25634.06,1793,342
Raw,27763.26,1794,342
Raw,35749.873,1794,342
Raw,87005.382,1795,342
Raw,42585.649,1796,342
Raw,48856.21,1797,342
Raw,38752.6,1799,342
Raw,44197.485,1799,342
Raw,45710.393,1800,342
Raw,37180.644,1801,342
Raw,74288.93,1803,342
Raw,50126.564,1804,342
Raw,41195.862,1804,342
Raw,55162.22,1805,342
Raw,94531.02,1807,342
Raw,48140.51,1808,342
Raw,13313.686,1809,342
Raw,49586.348,1809,342
Raw,55443.093,1810,342
Raw,34742.907,1811,342
Raw,21437.499,1811,342
Raw,44976.172,1813,342
Raw,16387.126,1815,342
Raw,31039.882,1815,342
Raw,14227.625,1815,342
Raw,31054.124,1817,342
Raw,70326.254,1818,342
Raw,36560.288,1819,342
Raw,33048.526,1820,342
Raw,57777.331,1821,342
Raw,34702.563,1822,342
Raw,43384.204,1823,342
Raw,38540.6,1824,342
Raw,47044.374,1825,342
Raw,50314.688,1826,342
Raw,33695.578,1827,342
Raw,33898.344,1827,342
Raw,56242.134,1828,342
Raw,42361.346,1830,342
Raw,50296.022,1832,342
Raw,48839.574,1834,342
Raw,72574.977,1835,342
Raw,24999.061,1836,342
Raw,78805.924,1837,342
Raw,7960.6176,1837,342
Raw,64962.662,1838,342
Raw,22079.917,1838,342
Raw,41047.055,1840,342
Raw,15014.996,1840,342
Raw,39603.436,1841,342
Raw,23970.904,1842,342
Raw,55691.293,1843,342
Raw,11208.411,1845,342
Raw,46097.316,1845,342
Raw,63491.103,1846,342
Raw,66586.015,1847,342
Raw,42494.454,1848,342
Raw,25512.258,1848,342
Raw,35745.269,1852,342
Raw,42758.467,1854,342
Raw,61923.454,1855,342
Raw,72931.829,1856,342
Raw,31245.093,1857,342
Raw,62237.249,1858,342
Raw,59067.328,1860,342
Raw,36562.421,1862,342
Raw,43253.164,1862,342
Raw,38613.082,1863,342
Raw,51965.542,1865,342
Raw,19784.138,1866,342
Raw,32345.832,1866,342
Raw,81582.581,1867,342
Raw,49049.558,1868,342
Raw,22867.884,1868,342
Raw,55825.097,1870,342
Raw,41346.363,1871,342
Raw,32466.324,1871,342
Raw,49085.548,1872,342
Raw,69512.079,1873,342
Raw,24299.986,1875,342
Raw,32350.74,1875,342
Raw,51193.117,1876,342
Raw,22536.614,1877,342
Raw,34982.909,1877,342
Raw,39991.334,1878,342
Raw,39696.619,1878,342
Raw,60912.087,1880,342
Raw,45205.785,1884,342
Raw,58443.816,1885,342
Raw,38041.059,1886,342
Raw,37808.02,1887,342
Raw,52469.847,1890,342
Raw,69374.413,1891,342
Raw,38127.858,1893,342
Raw,43084.028,1893,342
Raw,45321.683,1894,342
Raw,33138.406,1895,342
Raw,40556.259,1896,342
Raw,31016.527,1897,342
Raw,64024.787,1898,342
Raw,39456.769,1899,342
Raw,60993.267,1900,342
Raw,32936.24,1901,342
Raw,35254.166,1902,342
Raw,16735.481,1903,342
Raw,92175.612,1906,342
Raw,46487.909,1908,342
Raw,56609.501,1909,342
Raw,32603.782,1910,342
Raw,25192.226,1910,342
Raw,39473.037,1911,342
Raw,37829.811,1912,342
Raw,86018.518,1914,342
Raw,69951.162,1915,342
Raw,36280.372,1916,342
Raw,46268.569,1917,342
Raw,8620.1643,1917,342
Raw,52446.189,1919,342
Raw,29348.665,1921,342
Raw,13515.766,1923,342
Raw,26571.688,1923,342
Raw,1.15082127e+05,1924,342
Raw,67612.346,1925,342
Raw,37166.652,1926,342
Raw,56442.367,1927,342
Raw,92407.091,1928,342
Raw,44473.528,1930,342
Raw,18865.969,1932,342
Raw,43077.199,1932,342
Raw,87285.508,1934,342
Raw,64627.575,1936,342
Raw,35240.166,1937,342
Raw,50344.823,1938,342
Raw,46450.253,1939,342
Raw,30365.995,1940,342
Raw,37797.794,1941,342
Raw,50418.667,1942,342
Raw,40797.86,1943,342
Raw,63297.352,1944,342
Raw,49555.167,1945,342
Raw,4296.7349,1945,342
Raw,47008.285,1946,342
Raw,47769.177,1947,342
Raw,45171.298,1948,342
Raw,46272.244,1949,342
Raw,38612.129,1951,342
Raw,14493.454,1951,342
Raw,45547.638,1953,342
Raw,21282.889,1954,342
Raw,34800.878,1955,342
Raw,13046.982,1956,342
Raw,58673.879,1957,342
Raw,48128.392,1959,342
Raw,21838.227,1959,342
Raw,39827.422,1960,342
Raw,58249.675,1962,342
Raw,54757.348,1964,342
Raw,76146.489,1965,342
Raw,55932.76,1966,342
Raw,67335.023,1967,342
Raw,36921.776,1967,342
Raw,30704.968,1967,342
Raw,40820.576,1968,342
Raw,60502.138,1969,342
Raw,35388.206,1970,342
Raw,47196.473,1971,342
Raw,34854.369,1973,342
Raw,59470.497,1974,342
Raw,60057.94,1976,342
Raw,90149.416,1977,342
Raw,46305.872,1978,342
Raw,96300.036,1979,342
Raw,42239.748,1980,342
Raw,71687.831,1981,342
Raw,51027.889,1982,342
Raw,40344.826,1985,342
Raw,88996.926,1988,342
Raw,37118.71,1989,342
Raw,87173.277,1990,342
Raw,39041.558,1992,342
Raw,54363.883,1993,342
Raw,41338.434,1994,342
Raw,16951.952,1994,342
Raw,48360.553,1996,342
Raw,16129.252,1997,342
Raw,13204.712,1997,342
Raw,45736.118,1998,342
Raw,39384.05,2000,342
Raw,29664.995,2001,342
Raw,5448.8049,2001,342
Raw,42054.391,2002,342
Raw,23865.062,2003,342
Raw,35238.579,2004,342
Raw,66339.44,2006,342
Raw,48595.346,2007,342
Raw,44297.284,2008,342
Raw,74591.249,2008,342
Raw,53788.026,2009,342
Raw,68491.743,2010,342
Raw,16362.384,2010,342
Raw,47738.759,2012,342
Raw,39062.283,2013,342
Raw,68582.778,2014,342
Raw,47865.927,2015,342
Raw,61475.788,2016,342
Raw,1.19923286e+05,2017,342
Raw,39350.278,2018,342
Raw,42476.423,2019,342
Raw,56326.702,2021,342
Raw,46652.122,2022,342
Raw,36147.563,2024,342
Raw,29160.01,2025,342
Raw,7271.5135,2025,342
Raw,34142.252,2026,342
Raw,19282.957,2027,342
Raw,17030.757,2027,342
Raw,1.12548943e+05,2028,342
Raw,41544.968,2029,342
Raw,38794.514,2030,342
Raw,62931.915,2031,342
Raw,87392.792,2032,342
Raw,43548.563,2034,342
Raw,43562.167,2035,342
Raw,45588.018,2036,342
Raw,39466.324,2038,342
Raw,42672.519,2040,342
Raw,24059.05,2041,342
Raw,49244.481,2042,342
Raw,46877.499,2046,342
Raw,77318.359,2047,342
Raw,34691.064,2048,342
Raw,38315.842,2050,342
Raw,71110.221,2052,342
Raw,47086.603,2054,342
Raw,34378.517,2055,342
Raw,87542.144,2056,342
Raw,61485.592,2058,342
Raw,55919.501,2060,342
Raw,56130.155,2061,342
Raw,12267.373,2061,342
Raw,37459.917,2062,342
Raw,59059.664,2063,342
Raw,87838.767,2064,342
Raw,75970.268,2065,342
Raw,45714.855,2066,342
Raw,45127.5,2067,342
Raw,16956.382,2067,342
Raw,34674.086,2070,342
Raw,45572.242,2071,342
Raw,26659.905,2072,342
Raw,58461.277,2072,342
Raw,1.09801253e+05,2073,342
Raw,54968.141,2074,342
Raw,76009.416,2077,342
Raw,39310.47,2078,342
Raw,10166.508,2078,342
Raw,48286.507,2080,342
Raw,41486.459,2081,342
Raw,27172.504,2083,342
Raw,50090.044,2084,342
Raw,82924.656,2085,342
Raw,11499.989,2085,342
Raw,55257.803,2086,342
Raw,41081.595,2087,342
Raw,58196.775,2088,342
Raw,30591.95,2089,342
Raw,44686.174,2090,342
Raw,63532.027,2091,342
Raw,40334.451,2092,342
Raw,29479.655,2094,342
Raw,56096.32,2095,342
Raw,61319.429,2096,342
Raw,46427.128,2097,342
Raw,53256.275,2099,342
Raw,52144.48,2099,342
Raw,39732.594,2101,342
Raw,49774.321,2102,342
Raw,44336.579,2103,342
Raw,38021.083,2104,342
Raw,62569.069,2107,342
Raw,44413.938,2109,342
Raw,38909.727,2111,342
Raw,41099.329,2113,342
Raw,46512.076,2114,342
Raw,75266.354,2115,342
Raw,46030.5,2116,342
Raw,30647.005,2116,342
Raw,35606.731,2117,342
Raw,34107.092,2118,342
Raw,18664.39,2120,342
Raw,36864.001,2120,342
Raw,30923.773,2121,342
Raw,45145.54,2122,342
Raw,12403.074,2123,342
Raw,44867.717,2123,342
Raw,68511.057,2125,342
Raw,56660.384,2126,342
Raw,86780.219,2127,342
Raw,48875.426,2128,342
Raw,91768.433,2129,342
Raw,74787.089,2130,342
Raw,35292.886,2130,342
Raw,35328.617,2131,342
Raw,84704.604,2132,342
Raw,20699.522,2133,342
Raw,1.01608837e+05,2133,342
Raw,44952.035,2134,342
Raw,41317.886,2135,342
Raw,49385.879,2136,342
Raw,57193.451,2138,342
Raw,39674.234,2139,342
Raw,31369.328,2140,342
Raw,33987.398,2142,342
Raw,1.19544966e+05,2144,342
Raw,1.00408029e+05,2144,342
Raw,63923.031,2146,342
Raw,29045.27,2147,342
Raw,63704.993,2148,342
Raw,54483.007,2149,342
Raw,15922.467,2150,342
Raw,95565.443,2151,342
Raw,29064.937,2151,342
Raw,35828.763,2152,342
Raw,70666.78,2153,342
Raw,46806.739,2154,342
Raw,37495.376,2155,342
Raw,36062.82,2156,342
Raw,43183.193,2157,342
Raw,21054.729,2159,342
Raw,34866.092,2160,342
Raw,16000.117,2160,342
Raw,66001.439,2161,342
Raw,37438.89,2162,342
Raw,41679.666,2163,342
Raw,30597.027,2164,342
Raw,45006.815,2165,342
Raw,48963.281,2166,342
Raw,11498.353,2167,342
Raw,26049.87,2167,342
Raw,47543.084,2168,342
Raw,73778.864,2169,342
Raw,53077.199,2170,342
Raw,35092.302,2171,342
Raw,58400.215,2172,342
Raw,58119.95,2173,342
Raw,31530.402,2174,342
Raw,47167.587,2175,342
Raw,82024.084,2176,342
Raw,42428.036,2179,342
Raw,74859.652,2181,342
Raw,46910.721,2182,342
Raw,29625.728,2183,342
Raw,23142.428,2183,342
Raw,89016.19,2185,342
Raw,57161.467,2187,342
Raw,42314.634,2188,342
Raw,60354.283,2189,342
Raw,17066.913,2189,342
Raw,59984.933,2190,342
Raw,47354.293,2191,342
Raw,69414.203,2192,342
Raw,41625.956,2194,342
Raw,49495.047,2196,342
Raw,34736.835,2197,342
Raw,41927.539,2198,342
Raw,59917.928,2199,342
Raw,23052.293,2199,342
Raw,58286.383,2200,342
Raw,84735.547,2202,342
Raw,60360.795,2203,342
Raw,40532.095,2204,342
Raw,31754.591,2204,342
Raw,26269.421,2205,342
Raw,97690.786,2206,342
Raw,20848.628,2207,342
Raw,37565.93,2208,342
Raw,61137.74,2209,342
Raw,27458.878,2209,342
Raw,41144.904,2210,342
Raw,64234.787,2212,342
Raw,43239.863,2214,342
Raw,25889.853,2215,342
Raw,29912.922,2216,342
Raw,43998.993,2220,342
Raw,36497.795,2222,342
Raw,43878.103,2223,342
Raw,24715.847,2223,342
Raw,19558.469,2223,342
Raw,36131.137,2224,342
Raw,18641.458,2225,342
Raw,41580.144,2225,342
Raw,31517.066,2226,342
Raw,53956.755,2227,342
Raw,49904.272,2229,342
Raw,56962.618,2229,342
Raw,28641.173,2230,342
Raw,38095.531,2230,342
Raw,36819.692,2231,342
Raw,34460.027,2233,342
Raw,76239.655,2235,342
Raw,32367.724,2235,342
Raw,55977.068,2236,342
Raw,67422.541,2237,342
Raw,38892.53,2238,342
Raw,31590.422,2240,342
Raw,41878.254,2242,342
Raw,48828.079,2243,342
Raw,71054.209,2244,342
Raw,91337.188,2246,342
Raw,99319.617,2247,342
Raw,38673.353,2248,342
Raw,38026.507,2249,342
Raw,46878.525,2250,342
Raw,54778.896,2251,342
Raw,38872.171,2253,342
Raw,39358.398,2254,342
Raw,65548.707,2255,342
Raw,38236.14,2255,342
Raw,31935.803,2257,342
Raw,42446.182,2258,342
Raw,1.25266667e+05,2260,342
Raw,50981.719,2261,342
Raw,40039.77,2264,342
Raw,32214.445,2266,342
Raw,24806.128,2266,342
Raw,45633.701,2266,342
Raw,39064.117,2267,342
Raw,33175.105,2268,342
Raw,43580.166,2269,342
Raw,27482.883,2269,342
Raw,12821.193,2270,342
Raw,20722.638,2271,342
Raw,63283.222,2271,342
Raw,1.02775014e+05,2272,342
Raw,25236.67,2273,342
Raw,20302.368,2273,342
Raw,1.00633545e+05,2275,342
Raw,56057.301,2276,342
Raw,33975.04,2277,342
Raw,35702.668,2278,342
Raw,42364.696,2279,342
Raw,10452.238,2279,342
Raw,47353.714,2280,342
Raw,20773.851,2280,342
Raw,49798.024,2281,342
Raw,52355.886,2282,342
Raw,51993.483,2283,342
Raw,40446.155,2284,342
Raw,84837.094,2285,342
Raw,29909.032,2286,342
Raw,10524.023,2286,342
Raw,37534.185,2287,342
Raw,36706.03,2289,342
Raw,42600.833,2290,342
Raw,30666.134,2290,342
Raw,53049.676,2291,342
Raw,15602.697,2292,342
Raw,1.14413244e+05,2292,342
Raw,54975.109,2293,342
Raw,27485.081,2293,342
Raw,55926.674,2294,342
Raw,56634.652,2295,342
Raw,25755.058,2297,342
Raw,51712.56,2298,342
Raw,44808.516,2300,342
Raw,37226.856,2301,342
Raw,55955.6,2303,342
Raw,38476.437,2304,342
Raw,26644.222,2305,342
Raw,46462.799,2305,342
Raw,45259.605,2306,342
Raw,38921.722,2307,342
Raw,57303.22,2308,342
Raw,67148.895,2309,342
Raw,31928.984,2311,342
Raw,34887.159,2312,342
Raw,16730.46,2314,342
Raw,41620.308,2314,342
Raw,43215.335,2315,342
Raw,52957.517,2316,342
Raw,47638.96,2317,342
Raw,78136.804,2318,342
Raw,48500.849,2319,342
Raw,50269.311,2320,342
Raw,59722.946,2321,342
Raw,34768.56,2322,342
Raw,47049.624,2323,342
Raw,96226.414,2325,342
Raw,27940.941,2326,342
Raw,26830.938,2326,342
Raw,6913.1579,2326,342
Raw,34865.285,2327,342
Raw,36733.93,2327,342
Raw,44484.315,2328,342
Raw,98784.079,2329,342
Raw,35344.568,2330,342
Raw,54709.242,2331,342
Raw,4891.2323,2332,342
Raw,43775.877,2333,342
Raw,31523.032,2335,342
Raw,51907.478,2336,342
Raw,46872.666,2337,342
Raw,14002.305,2337,342
Raw,46815.223,2338,342
Raw,27127.252,2338,342
Raw,35942.566,2339,342
Raw,51965.351,2341,342
Raw,34537.571,2343,342
Raw,25008.081,2343,342
Raw,58346.962,2344,342
Raw,62829.505,2345,342
Raw,49897.328,2347,342
Raw,47515.308,2348,342
Raw,21901.216,2350,342
Raw,53007.133,2350,342
Raw,39979.984,2352,342
Raw,18304.758,2353,342
Raw,29866.683,2353,342
Raw,51800.843,2354,342
Raw,29118.293,2355,342
Raw,42996.271,2355,342
Raw,50245.121,2357,342
Raw,46493.118,2358,342
Raw,41538.957,2359,342
Raw,54029.624,2360,342
Raw,43400.17,2361,342
Raw,40777.153,2363,342
Raw,76267.577,2365,342
Raw,37059.391,2366,342
Raw,33725.915,2368,342
Raw,10433.849,2368,342
Raw,27217.953,2369,342
Raw,64812.799,2369,342
Raw,31472.308,2369,342
Raw,37533.923,2370,342
Raw,40545.231,2371,342
Raw,17554.929,2373,342
Raw,92128.164,2373,342
Raw,50727.606,2374,342
Raw,46502.247,2375,342
Raw,34764.152,2376,342
Raw,1.27691484e+05,2378,342
Raw,42490.292,2379,342
Raw,33681.39,2380,342
Raw,70552.533,2380,342
Raw,42218.647,2381,342
Raw,39784.957,2382,342
Raw,27904.927,2383,342
Raw,44906.721,2384,342
Raw,20822.533,2384,342
Raw,86261.873,2385,342
Raw,25881.433,2386,342
Raw,49375.35,2387,342
Raw,73113.804,2389,342
Raw,45826.843,2389,342
Raw,49305.049,2390,342
Raw,20648.844,2392,342
Raw,55343.138,2392,342
Raw,23042.005,2392,342
Raw,81360.512,2393,342
Raw,21691.287,2394,342
Raw,39867.009,2395,342
Raw,26245.658,2395,342
Raw,47927.462,2396,342
Raw,20349.456,2396,342
Raw,43277.005,2397,342
Raw,37012.368,2398,342
Raw,40306.477,2399,342
Raw,35302.782,2399,342
Raw,27414.701,2399,342
Raw,35621.989,2400,342
Raw,74676.276,2401,342
Raw,40949.083,2402,342
Raw,14701.044,2403,342
Raw,29249.228,2404,342
Raw,46456.309,2405,342
Raw,53081.991,2406,342
Raw,19558.485,2406,342
Raw,30587.501,2408,342
Raw,34982.316,2409,342
Raw,30770.725,2409,342
Raw,32765.563,2410,342
Raw,20550.472,2411,342
Raw,36760.826,2411,342
Raw,45649.19,2412,342
Raw,40505.218,2413,342
Raw,33957.133,2414,342
Raw,14030.265,2415,342
Raw,38225.869,2416,342
Raw,23877.062,2416,342
Raw,48276.796,2417,342
Raw,37926.17,2418,342
Raw,23680.857,2419,342
Raw,65434.903,2420,342
Raw,37788.585,2421,342
Raw,39701.847,2422,342
Raw,22969.183,2422,342
Raw,43507.679,2423,342
Raw,31046.118,2424,342
Raw,12228.59,2425,342
Raw,39320.649,2426,342
Raw,59223.652,2428,342
Raw,29733.157,2428,342
Raw,93070.147,2429,342
Raw,67416.951,2430,342
Raw,36867.867,2431,342
Raw,10777.608,2432,342
Raw,13623.059,2435,342
Raw,47133.918,2436,342
Raw,55520.208,2437,342
Raw,1.0164648e+05,2439,342
Raw,26326.994,2441,342
Raw,60313.728,2442,342
Raw,56726.128,2443,342
Raw,41199.236,2444,342
Raw,47235.998,2444,342
Raw,38218.964,2445,342
Raw,65866.876,2446,342
Raw,58165.3,2447,342
Raw,50502.308,2450,342
Raw,41821.566,2451,342
Raw,52923.241,2452,342
Raw,5872.6152,2453,342
Raw,22041.608,2453,342
Raw,23072.587,2453,342
Raw,57038.487,2455,342
Raw,36922.167,2458,342
Raw,52552.197,2459,342
Raw,40237.392,2460,342
Raw,71649.772,2461,342
Raw,73345.424,2463,342
Raw,44129.571,2465,342
Raw,38953.087,2467,342
Raw,41993.534,2468,342
Raw,46708.684,2470,342
Raw,40717.979,2471,342
Raw,56022.914,2471,342
Raw,1.21713499e+05,2472,342
Raw,53152.686,2473,342
Raw,71985.975,2474,342
Raw,47199.928,2475,342
Raw,99954.711,2476,342
Raw,68522.227,2477,342
Raw,51335.33,2478,342
Raw,16340.05,2478,342
Raw,54017.422,2479,342
Raw,55537.163,2481,342
Raw,35407.664,2482,342
Raw,59768.933,2483,342
Raw,47804.527,2487,342
Raw,63357.311,2488,342
Raw,40929.996,2489,342
Raw,70300.238,2491,342
Raw,17845.844,2493,342
Raw,67982.204,2493,342
Raw,7512.8482,2493,342
Raw,52576.38,2494,342
Raw,36114.791,2494,342
Raw,33331.454,2495,342
Raw,39565.349,2495,342
Raw,51830.489,2497,342
Raw,53084.91,2498,342
Raw,18209.255,2498,342
Raw,61063.631,2499,342
Raw,68000.639,2500,342
Raw,45091.945,2501,342
Raw,56561.582,2502,342
Raw,52718.666,2503,342
Raw,42091.143,2504,342
Raw,16804.378,2504,342
Raw,44635.706,2505,342
Raw,42600.674,2506,342
Raw,54153.314,2507,342
Raw,44618.443,2508,342
Raw,35644.169,2509,342
Raw,25345.345,2512,342
Raw,47910.389,2514,342
Raw,81199.645,2516,342
Raw,52764.102,2522,342
Raw,18351.173,2523,342
Raw,58228.389,2524,342
Raw,35544.519,2525,342
Raw,89729.144,2527,342
Raw,44133.105,2528,342
Raw,47324.222,2529,342
Raw,56057.482,2531,342
Raw,83429.114,2532,342
Raw,48849.486,2534,342
Raw,41756.093,2535,342
Raw,30413.553,2538,342
Raw,45534.892,2539,342
Raw,43306.746,2540,342
Raw,16002.593,2540,342
Raw,57486.367,2541,342
Raw,47603.561,2543,342
Raw,55377.975,2545,342
Raw,38645.17,2546,342
Raw,47373.044,2547,342
Raw,65326.369,2548,342
Raw,70452.918,2549,342
Raw,36366.196,2550,342
Raw,41076.58,2551,342
Raw,28029.143,2551,342
Raw,67569.57,2552,342
Raw,29129.956,2553,342
Raw,50894.545,2554,342
Raw,45402.132,2555,342
Raw,30641.095,2555,342
Raw,45287.195,2557,342
Raw,39807.146,2558,342
Raw,46589.197,2558,342
Raw,63340.889,2559,342
Raw,42490.013,2560,342
Raw,94233.764,2561,342
Raw,50141.658,2562,342
Raw,39420.971,2563,342
Raw,56720.589,2564,342
Raw,51943.325,2565,342
Raw,32948.565,2566,342
Raw,76796.733,2567,342
Raw,71677.493,2569,342
Raw,75429.455,2570,342
Raw,26332.211,2571,342
Raw,31965.752,2571,342
Raw,38860.571,2572,342
Raw,51932.822,2573,342
Raw,45674.352,2574,342
Raw,53738.447,2575,342
Raw,77392.907,2576,342
Raw,49510.454,2577,342
Raw,50023.505,2578,342
Raw,50975.109,2579,342
Raw,28639.49,2580,342
Raw,39463.511,2581,342
Raw,56495.309,2583,342
Raw,15081.992,2583,342
Raw,54607.605,2584,342
Raw,51838.356,2585,342
Raw,40409.435,2587,342
Raw,71143.706,2588,342
Raw,66707.338,2589,342
Raw,44621.794,2590,342
Raw,33776.202,2591,342
Raw,45874.744,2592,342
Raw,1.16073705e+05,2593,342
Raw,46432.18,2595,342
Raw,61526.411,2596,342
Raw,47291.571,2598,342
Raw,17248.575,2598,342
Raw,65311.745,2599,342
Raw,24391.771,2601,342
Raw,23687.383,2601,342
Raw,34558.545,2602,342
Raw,12224.467,2602,342
Raw,88656.175,2604,342
Raw,54999.657,2605,342
Raw,51773.482,2606,342
Raw,30886.518,2607,342
Raw,42602.318,2607,342
Raw,32115.63,2609,342
Raw,68462.793,2610,342
Raw,91767.623,2611,342
Raw,47084.35,2612,342
Raw,32136.876,2612,342
Raw,97029.188,2615,342
Raw,7443.7842,2617,342
Raw,47472.836,2617,342
Raw,32947.176,2618,342
Raw,60225.824,2620,342
Raw,46900.098,2621,342
Raw,8959.069,2621,342
Raw,51164.752,2622,342
Raw,28836.679,2623,342
Raw,36468.486,2623,342
Raw,61961.411,2625,342
Raw,64281.135,2626,342
Raw,12096.048,2627,342
Raw,47799.201,2628,342
Raw,32796.494,2628,342
Raw,42564.594,2630,342
Raw,67143.885,2630,342
Raw,31854.858,2631,342
Raw,79734.516,2631,342
Raw,51873.938,2632,342
Raw,39257.894,2633,342
Raw,19641.092,2634,342
Raw,36869.337,2634,342
Raw,36732.387,2635,342
Raw,43919.679,2636,342
Raw,64660.619,2636,342
Raw,52104.591,2637,342
Raw,45155.726,2638,342
Raw,38219.237,2640,342
Raw,77314.821,2642,342
Raw,33300.508,2643,342
Raw,15043.914,2644,342
Raw,59441.487,2644,342
Raw,33354.068,2644,342
Raw,53398.148,2645,342
Raw,43329.004,2646,342
Raw,43935.588,2647,342
Raw,53907.067,2648,342
Raw,48689.387,2650,342
Raw,59845.055,2652,342
Raw,58497.905,2653,342
Raw,41461.525,2654,342
Raw,95615.796,2656,342
Raw,71085.559,2657,342
Raw,66980.441,2659,342
Raw,41097.326,2660,342
Raw,39240.535,2664,342
Raw,37542.124,2665,342
Raw,9117.8401,2666,342
Raw,25334.934,2666,342
Raw,10388.815,2666,342
Raw,1.16426018e+05,2667,342
Raw,45691.078,2668,342
Raw,46714.368,2669,342
Raw,15209.202,2671,342
Raw,77042.583,2671,342
Raw,70890.513,2672,342
Raw,46324.818,2673,342
Raw,1.04994305e+05,2674,342
Raw,24320.955,2674,342
Raw,69433.11,2675,342
Raw,43485.156,2676,342
Raw,31743.013,2677,342
Raw,40393.504,2678,342
Raw,84570.325,2680,342
Raw,60589.984,2681,342
Raw,38266.197,2682,342
Raw,55401.542,2684,342
Raw,67986.276,2686,342
Raw,54161.865,2688,342
Raw,38746.332,2689,342
Raw,66263.737,2690,342
Raw,63570.411,2692,342
Raw,35975.298,2693,342
Raw,71587.47,2694,342
Raw,39051.346,2695,342
Raw,68593.569,2697,342
Raw,89443.885,2698,342
Raw,14794.539,2699,342
Raw,1.15135297e+05,2699,342
Raw,40201.331,2701,342
Raw,26595.527,2703,342
Raw,23360.547,2704,342
Raw,44051.636,2705,342
Raw,68926.01,2706,342
Raw,29828.181,2706,342
Raw,72650.022,2707,342
Raw,30612.908,2708,342
Raw,78989.349,2709,342
Raw,18504.466,2709,342
Raw,63660.265,2710,342
Raw,28067.297,2711,342
Raw,64440.39,2711,342
Raw,75813.678,2712,342
Raw,45278.661,2714,342
Raw,47760.77,2715,342
Raw,49933.771,2716,342
Raw,65884.833,2718,342
Raw,52990.454,2720,342
Raw,45169.134,2721,342
Raw,33209.082,2722,342
Raw,24996.91,2722,342
Raw,53519.017,2723,342
Raw,45814.859,2724,342
Raw,46191.017,2725,342
Raw,45790.884,2727,342
Raw,67766.462,2728,342
Raw,54228.373,2730,342
Raw,48913.609,2731,342
Raw,44288.622,2732,342
Raw,43250.825,2733,342
Raw,34959.384,2734,342
Raw,31016.017,2735,342
Raw,39240.07,2737,342
Raw,36112.714,2739,342
Raw,31260.608,2740,342
Raw,56336.792,2741,342
Raw,26302.312,2742,342
Raw,91043.354,2743,342
Raw,99559.81,2745,342
Raw,1.04539924e+05,2746,342
Raw,35427.327,2747,342
Raw,47994.913,2748,342
Raw,11778.179,2748,342
Raw,38880.389,2749,342
Raw,35724.614,2750,342
Raw,42562.91,2751,342
Raw,28391.487,2751,342
Raw,49065.602,2752,342
Raw,54723.589,2753,342
Raw,43184.1,2754,342
Raw,63016.848,2755,342
Raw,14483.817,2755,342
Raw,54199.23,2757,342
Raw,53982.203,2758,342
Raw,27735.723,2760,342
Raw,15466.983,2761,342
Raw,33831.985,2761,342
Raw,49373.057,2763,342
Raw,30410.532,2765,342
Raw,30216.834,2766,342
Raw,44773.773,2767,342
Raw,47185.704,2767,342
Raw,46527.906,2769,342
Raw,22056.622,2769,342
Raw,29972.78,2770,342
Raw,40245.315,2771,342
Raw,57386.459,2772,342
Raw,78064.518,2773,342
Raw,16249.022,2774,342
Raw,35626.74,2775,342
Raw,48215.684,2776,342
Raw,39708.192,2777,342
Raw,31702.341,2778,342
Raw,59010.066,2779,342
Raw,54444.519,2780,342
Raw,1.18631017e+05,2781,342
Raw,36978.021,2782,342
Raw,19175.553,2783,342
Raw,38511.485,2783,342
Raw,40246.607,2784,342
Raw,51669.819,2785,342
Raw,55697.422,2786,342
Raw,16899.021,2786,342
Raw,44747.78,2787,342
Raw,38387.34,2789,342
Raw,62398.456,2790,342
Raw,49245.863,2792,342
Raw,47146.397,2793,342
Raw,54869.398,2796,342
Raw,45085.588,2797,342
Raw,40369.278,2798,342
Raw,61457.081,2799,342
Raw,63452.697,2800,342
Raw,50665.778,2801,342
Raw,11011.663,2802,342
Raw,59939.14,2803,342
Raw,27156.82,2804,342
Raw,17416.728,2804,342
Raw,39377.326,2805,342
Raw,48126.538,2807,342
Raw,69565.909,2809,342
Raw,48716.784,2809,342
Raw,61297.08,2811,342
Raw,27611.144,2812,342
Raw,98404.096,2813,342
Raw,51478.113,2815,342
Raw,49901.352,2816,342
Raw,50098.268,2817,342
Raw,82120.141,2818,342
Raw,31646.817,2819,342
Raw,37076.963,2819,342
Raw,81247.396,2820,342
Raw,35793.962,2821,342
Raw,49034.101,2822,342
Raw,53751.687,2824,342
Raw,28220.366,2825,342
Raw,50596.422,2828,342
Raw,50807.004,2829,342
Raw,1.03147687e+05,2830,342
Raw,33305.966,2831,342
Raw,23444.218,2831,342
Raw,16019.484,2832,342
Raw,40087.395,2833,342
