Cut?,Counts,eventNumber,runNumber
Raw,26,0,342
Raw,21,1,342
Raw,22,2,342
Raw,21,3,342
Raw,20,4,342
Raw,34,5,342
Raw,8,5,342
Raw,18,6,342
Raw,34,7,342
Raw,18,8,342
Raw,15,9,342
Raw,30,11,342
Raw,6,11,342
Raw,51,12,342
Raw,9,12,342
Raw,17,13,342
Raw,40,14,342
Raw,23,16,342
Raw,18,17,342
Raw,11,18,342
Raw,15,18,342
Raw,11,19,342
Raw,8,20,342
Raw,16,21,342
Raw,38,22,342
Raw,31,23,342
Raw,17,24,342
Raw,17,27,342
Raw,22,30,342
Raw,4,30,342
Raw,36,31,342
Raw,17,32,342
Raw,49,33,342
Raw,3,34,342
Raw,17,35,342
Raw,14,36,342
Raw,15,37,342
Raw,15,39,342
Raw,14,40,342
Raw,16,40,342
Raw,11,42,342
Raw,17,43,342
Raw,18,44,342
Raw,22,45,342
Raw,30,46,342
Raw,22,47,342
Raw,17,48,342
Raw,18,50,342
Raw,18,51,342
Raw,22,52,342
Raw,4,52,342
Raw,18,53,342
Raw,5,54,342
Raw,9,54,342
Raw,16,55,342
Raw,17,56,342
Raw,21,57,342
Raw,9,57,342
Raw,17,58,342
Raw,18,60,342
Raw,17,62,342
Raw,19,63,342
Raw,19,64,342
Raw,55,66,342
Raw,15,67,342
Raw,16,70,342
Raw,20,71,342
Raw,14,74,342
Raw,28,75,342
Raw,10,75,342
Raw,19,76,342
Raw,9,77,342
Raw,16,78,342
Raw,43,78,342
Raw,10,79,342
Raw,6,79,342
Raw,16,80,342
Raw,28,81,342
Raw,14,82,342
Raw,19,83,342
Raw,16,84,342
Raw,15,85,342
Raw,11,85,342
Raw,12,86,342
Raw,18,87,342
Raw,4,88,342
Raw,20,89,342
Raw,30,91,342
Raw,13,93,342
Raw,17,93,342
Raw,16,94,342
Raw,23,95,342
Raw,20,96,342
Raw,15,98,342
Raw,23,99,342
Raw,14,101,342
Raw,21,101,342
Raw,31,102,342
Raw,21,103,342
Raw,15,104,342
Raw,22,105,342
Raw,20,107,342
Raw,15,108,342
Raw,17,110,342
Raw,14,114,342
Raw,45,114,342
Raw,21,115,342
Raw,22,116,342
Raw,11,116,342
Raw,39,117,342
Raw,21,118,342
Raw,16,119,342
Raw,18,120,342
Raw,4,121,342
Raw,20,122,342
Raw,52,124,342
Raw,15,125,342
Raw,39,127,342
Raw,35,128,342
Raw,21,129,342
Raw,11,130,342
Raw,16,130,342
Raw,13,131,342
Raw,14,132,342
Raw,17,133,342
Raw,15,135,342
Raw,22,136,342
Raw,21,137,342
Raw,13,137,342
Raw,23,138,342
Raw,10,138,342
Raw,21,139,342
Raw,14,142,342
Raw,20,143,342
Raw,23,144,342
Raw,13,145,342
Raw,20,146,342
Raw,23,148,342
Raw,16,148,342
Raw,52,150,342
Raw,21,154,342
Raw,8,154,342
Raw,20,156,342
Raw,25,158,342
Raw,12,159,342
Raw,19,160,342
Raw,24,161,342
Raw,15,161,342
Raw,8,162,342
Raw,14,162,342
Raw,15,164,342
Raw,27,167,342
Raw,46,168,342
Raw,22,170,342
Raw,24,171,342
Raw,22,172,342
Raw,24,174,342
Raw,26,176,342
Raw,19,177,342
Raw,21,179,342
Raw,14,180,342
Raw,17,181,342
Raw,22,182,342
Raw,26,183,342
Raw,25,184,342
Raw,16,186,342
Raw,10,187,342
Raw,26,188,342
Raw,35,190,342
Raw,9,190,342
Raw,27,191,342
Raw,23,192,342
Raw,39,193,342
Raw,35,194,342
Raw,11,194,342
Raw,20,195,342
Raw,23,196,342
Raw,5,197,342
Raw,15,200,342
Raw,20,202,342
Raw,19,203,342
Raw,14,204,342
Raw,14,205,342
Raw,19,206,342
Raw,17,207,342
Raw,23,209,342
Raw,21,210,342
Raw,29,211,342
Raw,20,213,342
Raw,15,215,342
Raw,18,216,342
Raw,15,217,342
Raw,7,218,342
Raw,15,218,342
Raw,13,219,342
Raw,22,220,342
Raw,12,221,342
Raw,18,221,342
Raw,33,222,342
Raw,19,223,342
Raw,23,224,342
Raw,26,225,342
Raw,29,226,342
Raw,26,228,342
Raw,20,228,342
Raw,17,229,342
Raw,41,230,342
Raw,15,231,342
Raw,29,232,342
Raw,19,234,342
Raw,30,236,342
Raw,5,237,342
Raw,13,238,342
Raw,10,239,342
Raw,17,239,342
Raw,7,240,342
Raw,16,240,342
Raw,13,243,342
Raw,23,243,342
Raw,26,244,342
Raw,34,245,342
Raw,46,246,342
Raw,7,247,342
Raw,15,247,342
Raw,5,249,342
Raw,20,250,342
Raw,19,251,342
Raw,15,252,342
Raw,16,253,342
Raw,20,254,342
Raw,23,255,342
Raw,17,256,342
Raw,40,258,342
Raw,12,259,342
Raw,19,259,342
Raw,3,259,342
Raw,9,260,342
Raw,17,261,342
Raw,15,262,342
Raw,17,264,342
Raw,20,265,342
Raw,25,266,342
Raw,11,267,342
Raw,21,268,342
Raw,17,269,342
Raw,31,271,342
Raw,13,272,342
Raw,22,273,342
Raw,14,274,342
Raw,12,274,342
Raw,39,275,342
Raw,17,276,342
Raw,10,276,342
Raw,17,276,342
Raw,25,278,342
Raw,18,279,342
Raw,4,280,342
Raw,28,281,342
Raw,19,282,342
Raw,7,282,342
Raw,26,283,342
Raw,21,284,342
Raw,12,284,342
Raw,18,285,342
Raw,12,286,342
Raw,19,287,342
Raw,19,288,342
Raw,16,289,342
Raw,3,292,342
Raw,29,293,342
Raw,19,295,342
Raw,17,295,342
Raw,43,296,342
Raw,24,297,342
Raw,30,298,342
Raw,26,299,342
Raw,14,300,342
Raw,15,301,342
Raw,15,302,342
Raw,19,303,342
Raw,13,304,342
Raw,21,305,342
Raw,22,306,342
Raw,29,308,342
Raw,13,308,342
Raw,48,309,342
Raw,15,310,342
Raw,25,311,342
Raw,21,312,342
Raw,15,314,342
Raw,24,316,342
Raw,21,318,342
Raw,19,319,342
Raw,19,320,342
Raw,18,321,342
Raw,38,322,342
Raw,32,323,342
Raw,27,324,342
Raw,17,325,342
Raw,22,326,342
Raw,11,326,342
Raw,19,327,342
Raw,14,328,342
Raw,22,329,342
Raw,20,330,342
Raw,22,332,342
Raw,25,334,342
Raw,24,335,342
Raw,6,336,342
Raw,16,336,342
Raw,17,337,342
Raw,10,338,342
Raw,21,339,342
Raw,12,339,342
Raw,31,340,342
Raw,25,341,342
Raw,28,342,342
Raw,12,344,342
Raw,26,346,342
Raw,21,347,342
Raw,19,350,342
Raw,9,350,342
Raw,33,352,342
Raw,25,353,342
Raw,17,355,342
Raw,16,356,342
Raw,20,357,342
Raw,17,358,342
Raw,20,359,342
Raw,16,362,342
Raw,31,363,342
Raw,9,364,342
Raw,4,364,342
Raw,17,365,342
Raw,41,366,342
Raw,51,366,342
Raw,22,367,342
Raw,19,368,342
Raw,24,369,342
Raw,9,371,342
Raw,8,371,342
Raw,22,372,342
Raw,36,373,342
Raw,22,374,342
Raw,17,375,342
Raw,28,377,342
Raw,5,377,342
Raw,11,378,342
Raw,11,378,342
Raw,36,379,342
Raw,21,380,342
Raw,30,382,342
Raw,42,384,342
Raw,23,385,342
Raw,19,386,342
Raw,8,386,342
Raw,19,387,342
Raw,23,388,342
Raw,15,389,342
Raw,32,390,342
Raw,20,392,342
Raw,14,394,342
Raw,15,396,342
Raw,28,398,342
Raw,19,399,342
Raw,34,399,342
Raw,21,400,342
Raw,37,401,342
Raw,24,402,342
Raw,16,403,342
Raw,11,403,342
Raw,27,404,342
Raw,7,404,342
Raw,12,405,342
Raw,29,405,342
Raw,15,406,342
Raw,26,407,342
Raw,22,408,342
Raw,13,408,342
Raw,19,409,342
Raw,8,410,342
Raw,16,410,342
Raw,14,411,342
Raw,20,411,342
Raw,43,412,342
Raw,13,413,342
Raw,33,413,342
Raw,21,414,342
Raw,30,415,342
Raw,13,416,342
Raw,15,417,342
Raw,20,420,342
Raw,10,420,342
Raw,8,421,342
Raw,20,421,342
Raw,14,422,342
Raw,20,423,342
Raw,31,424,342
Raw,17,427,342
Raw,18,430,342
Raw,18,431,342
Raw,14,432,342
Raw,20,433,342
Raw,14,434,342
Raw,14,435,342
Raw,9,436,342
Raw,43,437,342
Raw,10,438,342
Raw,22,439,342
Raw,7,439,342
Raw,32,441,342
Raw,27,442,342
Raw,23,443,342
Raw,19,444,342
Raw,16,445,342
Raw,17,446,342
Raw,19,447,342
Raw,16,448,342
Raw,15,449,342
Raw,18,450,342
Raw,21,452,342
Raw,16,454,342
Raw,9,454,342
Raw,24,456,342
Raw,6,456,342
Raw,14,457,342
Raw,16,459,342
Raw,34,460,342
Raw,17,461,342
Raw,4,461,342
Raw,14,462,342
Raw,11,462,342
Raw,23,463,342
Raw,36,464,342
Raw,10,466,342
Raw,22,467,342
Raw,34,468,342
Raw,21,469,342
Raw,14,470,342
Raw,20,471,342
Raw,5,472,342
Raw,14,473,342
Raw,18,474,342
Raw,21,475,342
Raw,35,476,342
Raw,10,477,342
Raw,16,478,342
Raw,18,479,342
Raw,7,480,342
Raw,19,480,342
Raw,9,480,342
Raw,29,481,342
Raw,10,482,342
Raw,18,483,342
Raw,38,484,342
Raw,20,486,342
Raw,24,487,342
Raw,18,488,342
Raw,19,489,342
Raw,14,490,342
Raw,29,492,342
Raw,16,493,342
Raw,14,494,342
Raw,20,496,342
Raw,20,497,342
Raw,16,498,342
Raw,11,498,342
Raw,40,499,342
Raw,19,500,342
Raw,18,501,342
Raw,11,502,342
Raw,9,504,342
Raw,16,504,342
Raw,28,505,342
Raw,18,507,342
Raw,14,509,342
Raw,13,512,342
Raw,22,513,342
Raw,8,513,342
Raw,22,514,342
Raw,22,515,342
Raw,15,516,342
Raw,11,517,342
Raw,16,518,342
Raw,9,519,342
Raw,29,520,342
Raw,12,520,342
Raw,21,522,342
Raw,17,523,342
Raw,23,524,342
Raw,24,525,342
Raw,28,526,342
Raw,16,527,342
Raw,17,529,342
Raw,23,530,342
Raw,14,531,342
Raw,19,532,342
Raw,14,532,342
Raw,15,533,342
Raw,27,534,342
Raw,15,534,342
Raw,17,535,342
Raw,28,538,342
Raw,39,540,342
Raw,21,541,342
Raw,24,542,342
Raw,19,543,342
Raw,11,544,342
Raw,13,544,342
Raw,5,544,342
Raw,25,545,342
Raw,21,546,342
Raw,19,547,342
Raw,14,550,342
Raw,8,550,342
Raw,18,551,342
Raw,37,552,342
Raw,11,554,342
Raw,35,554,342
Raw,17,555,342
Raw,20,555,342
Raw,57,556,342
Raw,18,557,342
Raw,18,559,342
Raw,14,561,342
Raw,12,561,342
Raw,31,563,342
Raw,12,564,342
Raw,25,565,342
Raw,18,566,342
Raw,19,567,342
Raw,17,568,342
Raw,21,569,342
Raw,20,570,342
Raw,7,572,342
Raw,20,572,342
Raw,16,574,342
Raw,7,574,342
Raw,13,576,342
Raw,7,578,342
Raw,14,578,342
Raw,20,580,342
Raw,18,581,342
Raw,31,583,342
Raw,16,584,342
Raw,22,585,342
Raw,23,586,342
Raw,21,587,342
Raw,21,588,342
Raw,45,589,342
Raw,3,589,342
Raw,22,590,342
Raw,10,591,342
Raw,19,591,342
Raw,18,592,342
Raw,20,592,342
Raw,19,594,342
Raw,26,595,342
Raw,17,596,342
Raw,17,597,342
Raw,12,598,342
Raw,31,599,342
Raw,34,600,342
Raw,7,600,342
Raw,12,602,342
Raw,10,602,342
Raw,14,603,342
Raw,18,604,342
Raw,14,605,342
Raw,24,606,342
Raw,16,607,342
Raw,17,608,342
Raw,11,609,342
Raw,10,611,342
Raw,24,612,342
Raw,16,613,342
Raw,17,614,342
Raw,14,615,342
Raw,12,616,342
Raw,15,617,342
Raw,7,618,342
Raw,37,619,342
Raw,20,621,342
Raw,54,623,342
Raw,20,624,342
Raw,6,624,342
Raw,19,625,342
Raw,12,626,342
Raw,16,626,342
Raw,25,628,342
Raw,19,629,342
Raw,16,630,342
Raw,27,631,342
Raw,23,632,342
Raw,11,633,342
Raw,27,634,342
Raw,15,635,342
Raw,17,636,342
Raw,16,637,342
Raw,14,637,342
Raw,20,638,342
Raw,13,639,342
Raw,21,640,342
Raw,13,641,342
Raw,57,641,342
Raw,26,642,342
Raw,14,643,342
Raw,16,644,342
Raw,15,645,342
Raw,12,645,342
Raw,14,646,342
Raw,20,647,342
Raw,4,648,342
Raw,11,649,342
Raw,15,649,342
Raw,22,650,342
Raw,38,651,342
Raw,5,651,342
Raw,32,652,342
Raw,22,653,342
Raw,19,655,342
Raw,8,655,342
Raw,13,656,342
Raw,15,657,342
Raw,36,658,342
Raw,3,658,342
Raw,8,659,342
Raw,14,659,342
Raw,22,660,342
Raw,21,661,342
Raw,5,661,342
Raw,38,662,342
Raw,20,663,342
Raw,17,664,342
Raw,25,665,342
Raw,10,665,342
Raw,17,667,342
Raw,19,669,342
Raw,12,670,342
Raw,19,671,342
Raw,13,672,342
Raw,20,673,342
Raw,37,674,342
Raw,14,676,342
Raw,40,677,342
Raw,19,678,342
Raw,24,679,342
Raw,25,680,342
Raw,17,681,342
Raw,15,682,342
Raw,18,683,342
Raw,24,684,342
Raw,16,685,342
Raw,31,686,342
Raw,45,686,342
Raw,18,687,342
Raw,14,688,342
Raw,16,689,342
Raw,22,690,342
Raw,8,690,342
Raw,22,691,342
Raw,16,693,342
Raw,16,694,342
Raw,14,695,342
Raw,17,696,342
Raw,15,697,342
Raw,20,697,342
Raw,24,698,342
Raw,32,699,342
Raw,21,701,342
Raw,21,703,342
Raw,22,705,342
Raw,14,706,342
Raw,21,707,342
Raw,25,708,342
Raw,42,709,342
Raw,26,710,342
Raw,11,710,342
Raw,12,711,342
Raw,26,712,342
Raw,15,714,342
Raw,17,715,342
Raw,25,716,342
Raw,19,719,342
Raw,27,720,342
Raw,18,721,342
Raw,11,722,342
Raw,21,723,342
Raw,8,724,342
Raw,15,725,342
Raw,8,725,342
Raw,15,726,342
Raw,13,727,342
Raw,11,727,342
Raw,16,728,342
Raw,35,729,342
Raw,29,731,342
Raw,37,733,342
Raw,9,733,342
Raw,13,734,342
Raw,19,735,342
Raw,12,736,342
Raw,18,737,342
Raw,7,739,342
Raw,19,739,342
Raw,16,741,342
Raw,25,741,342
Raw,12,742,342
Raw,20,743,342
Raw,31,745,342
Raw,40,746,342
Raw,15,747,342
Raw,8,747,342
Raw,47,748,342
Raw,17,749,342
Raw,9,752,342
Raw,14,753,342
Raw,22,754,342
Raw,19,756,342
Raw,30,759,342
Raw,27,761,342
Raw,18,762,342
Raw,27,763,342
Raw,25,764,342
Raw,23,765,342
Raw,14,765,342
Raw,29,766,342
Raw,8,767,342
Raw,21,767,342
Raw,10,767,342
Raw,16,767,342
Raw,37,769,342
Raw,4,770,342
Raw,21,771,342
Raw,32,772,342
Raw,49,774,342
Raw,18,775,342
Raw,48,776,342
Raw,14,776,342
Raw,19,778,342
Raw,14,780,342
Raw,14,782,342
Raw,33,784,342
Raw,24,785,342
Raw,12,786,342
Raw,18,787,342
Raw,17,788,342
Raw,15,789,342
Raw,38,790,342
Raw,21,792,342
Raw,20,793,342
Raw,13,793,342
Raw,21,794,342
Raw,28,795,342
Raw,19,796,342
Raw,18,798,342
Raw,25,799,342
Raw,17,800,342
Raw,14,801,342
Raw,17,801,342
Raw,35,802,342
Raw,25,803,342
Raw,17,804,342
Raw,13,805,342
Raw,16,805,342
Raw,21,806,342
Raw,16,807,342
Raw,40,808,342
Raw,19,809,342
Raw,12,809,342
Raw,45,810,342
Raw,20,811,342
Raw,23,812,342
Raw,47,813,342
Raw,29,814,342
Raw,14,815,342
Raw,12,817,342
Raw,29,819,342
Raw,16,819,342
Raw,11,820,342
Raw,32,820,342
Raw,25,821,342
Raw,17,822,342
Raw,5,822,342
Raw,9,823,342
Raw,18,823,342
Raw,15,824,342
Raw,11,825,342
Raw,20,825,342
Raw,19,826,342
Raw,12,827,342
Raw,13,827,342
Raw,10,827,342
Raw,19,828,342
Raw,42,831,342
Raw,28,832,342
Raw,43,833,342
Raw,20,835,342
Raw,11,836,342
Raw,16,836,342
Raw,18,837,342
Raw,17,838,342
Raw,28,838,342
Raw,18,840,342
Raw,11,840,342
Raw,23,842,342
Raw,12,844,342
Raw,11,844,342
Raw,25,845,342
Raw,13,845,342
Raw,13,846,342
Raw,14,847,342
Raw,17,848,342
Raw,18,850,342
Raw,15,852,342
Raw,16,853,342
Raw,24,855,342
Raw,19,856,342
Raw,19,858,342
Raw,20,861,342
Raw,14,861,342
Raw,20,863,342
Raw,24,864,342
Raw,24,865,342
Raw,24,866,342
Raw,19,867,342
Raw,29,868,342
Raw,18,868,342
Raw,17,870,342
Raw,22,872,342
Raw,23,873,342
Raw,23,874,342
Raw,16,875,342
Raw,15,876,342
Raw,12,878,342
Raw,18,878,342
Raw,25,879,342
Raw,15,880,342
Raw,23,881,342
Raw,47,882,342
Raw,14,882,342
Raw,9,883,342
Raw,20,884,342
Raw,23,885,342
Raw,21,886,342
Raw,11,886,342
Raw,22,887,342
Raw,32,888,342
Raw,21,890,342
Raw,18,891,342
Raw,21,892,342
Raw,18,895,342
Raw,14,896,342
Raw,16,896,342
Raw,46,897,342
Raw,21,898,342
Raw,20,899,342
Raw,17,901,342
Raw,14,902,342
Raw,12,903,342
Raw,28,904,342
Raw,15,904,342
Raw,7,905,342
Raw,13,906,342
Raw,8,906,342
Raw,7,906,342
Raw,28,907,342
Raw,13,908,342
Raw,23,909,342
Raw,20,910,342
Raw,10,910,342
Raw,24,912,342
Raw,6,912,342
Raw,22,914,342
Raw,35,915,342
Raw,20,916,342
Raw,30,917,342
Raw,29,918,342
Raw,19,920,342
Raw,20,921,342
Raw,24,922,342
Raw,19,923,342
Raw,16,925,342
Raw,30,925,342
Raw,16,928,342
Raw,19,929,342
Raw,18,930,342
Raw,14,931,342
Raw,9,931,342
Raw,19,933,342
Raw,29,934,342
Raw,20,936,342
Raw,22,937,342
Raw,16,939,342
Raw,16,940,342
Raw,10,940,342
Raw,20,941,342
Raw,19,942,342
Raw,11,943,342
Raw,28,945,342
Raw,16,946,342
Raw,17,947,342
Raw,18,948,342
Raw,20,949,342
Raw,8,950,342
Raw,18,950,342
Raw,39,952,342
Raw,14,953,342
Raw,22,954,342
Raw,24,955,342
Raw,30,956,342
Raw,19,958,342
Raw,14,959,342
Raw,22,960,342
Raw,16,961,342
Raw,41,963,342
Raw,17,964,342
Raw,12,964,342
Raw,17,965,342
Raw,15,966,342
Raw,16,966,342
Raw,20,967,342
Raw,13,969,342
Raw,21,970,342
Raw,16,971,342
Raw,22,972,342
Raw,10,972,342
Raw,39,973,342
Raw,56,973,342
Raw,21,975,342
Raw,30,976,342
Raw,29,977,342
Raw,9,977,342
Raw,20,978,342
Raw,14,978,342
Raw,29,979,342
Raw,14,980,342
Raw,38,981,342
Raw,12,982,342
Raw,34,982,342
Raw,25,982,342
Raw,13,983,342
Raw,42,983,342
Raw,16,984,342
Raw,10,985,342
Raw,7,985,342
Raw,11,985,342
Raw,15,987,342
Raw,14,989,342
Raw,18,991,342
Raw,19,992,342
Raw,16,994,342
Raw,24,995,342
Raw,23,996,342
Raw,16,997,342
Raw,19,998,342
Raw,13,999,342
Raw,18,1001,342
Raw,20,1002,342
Raw,21,1004,342
Raw,22,1005,342
Raw,33,1006,342
Raw,18,1007,342
Raw,36,1009,342
Raw,4,1009,342
Raw,24,1010,342
Raw,14,1010,342
Raw,5,1010,342
Raw,49,1011,342
Raw,13,1012,342
Raw,11,1013,342
Raw,13,1014,342
Raw,14,1016,342
Raw,21,1017,342
Raw,31,1018,342
Raw,17,1019,342
Raw,8,1019,342
Raw,23,1020,342
Raw,20,1021,342
Raw,20,1022,342
Raw,24,1025,342
Raw,9,1025,342
Raw,12,1026,342
Raw,19,1027,342
Raw,9,1027,342
Raw,14,1028,342
Raw,17,1029,342
Raw,15,1031,342
Raw,17,1032,342
Raw,20,1035,342
Raw,32,1036,342
Raw,34,1037,342
Raw,30,1038,342
Raw,21,1041,342
Raw,11,1041,342
Raw,8,1041,342
Raw,15,1043,342
Raw,25,1044,342
Raw,21,1045,342
Raw,22,1046,342
Raw,10,1046,342
Raw,12,1048,342
Raw,19,1049,342
Raw,16,1050,342
Raw,17,1052,342
Raw,15,1053,342
Raw,25,1055,342
Raw,19,1056,342
Raw,15,1057,342
Raw,26,1058,342
Raw,17,1060,342
Raw,26,1061,342
Raw,21,1063,342
Raw,10,1063,342
Raw,27,1064,342
Raw,15,1065,342
Raw,11,1065,342
Raw,25,1065,342
Raw,33,1066,342
Raw,14,1067,342
Raw,20,1068,342
Raw,19,1069,342
Raw,14,1070,342
Raw,16,1071,342
Raw,23,1072,342
Raw,17,1073,342
Raw,17,1073,342
Raw,15,1074,342
Raw,21,1075,342
Raw,17,1077,342
Raw,16,1078,342
Raw,16,1079,342
Raw,14,1080,342
Raw,10,1080,342
Raw,18,1081,342
Raw,20,1082,342
Raw,18,1084,342
Raw,20,1085,342
Raw,20,1086,342
Raw,17,1087,342
Raw,16,1087,342
Raw,22,1089,342
Raw,16,1090,342
Raw,15,1091,342
Raw,16,1092,342
Raw,20,1093,342
Raw,10,1094,342
Raw,19,1094,342
Raw,17,1096,342
Raw,15,1097,342
Raw,19,1099,342
Raw,36,1100,342
Raw,14,1101,342
Raw,20,1103,342
Raw,48,1104,342
Raw,8,1104,342
Raw,31,1105,342
Raw,18,1107,342
Raw,13,1108,342
Raw,22,1109,342
Raw,28,1110,342
Raw,13,1111,342
Raw,20,1112,342
Raw,16,1113,342
Raw,15,1114,342
Raw,18,1116,342
Raw,22,1117,342
Raw,23,1118,342
Raw,9,1118,342
Raw,7,1118,342
Raw,21,1121,342
Raw,30,1123,342
Raw,24,1125,342
Raw,34,1126,342
Raw,11,1126,342
Raw,18,1128,342
Raw,16,1129,342
Raw,37,1131,342
Raw,26,1132,342
Raw,8,1132,342
Raw,31,1133,342
Raw,20,1134,342
Raw,11,1134,342
Raw,24,1136,342
Raw,23,1137,342
Raw,14,1138,342
Raw,21,1140,342
Raw,15,1142,342
Raw,18,1144,342
Raw,13,1145,342
Raw,28,1147,342
Raw,16,1147,342
Raw,21,1148,342
Raw,20,1149,342
Raw,27,1150,342
Raw,10,1150,342
Raw,21,1151,342
Raw,12,1152,342
Raw,19,1152,342
Raw,41,1153,342
Raw,21,1154,342
Raw,14,1155,342
Raw,17,1155,342
Raw,20,1157,342
Raw,24,1158,342
Raw,20,1159,342
Raw,8,1159,342
Raw,24,1160,342
Raw,14,1161,342
Raw,20,1162,342
Raw,22,1164,342
Raw,32,1166,342
Raw,29,1167,342
Raw,9,1167,342
Raw,24,1169,342
Raw,14,1170,342
Raw,15,1171,342
Raw,19,1172,342
Raw,18,1173,342
Raw,36,1174,342
Raw,13,1174,342
Raw,17,1176,342
Raw,8,1176,342
Raw,24,1177,342
Raw,9,1180,342
Raw,10,1180,342
Raw,23,1180,342
Raw,28,1182,342
Raw,10,1183,342
Raw,17,1183,342
Raw,35,1184,342
Raw,12,1184,342
Raw,20,1185,342
Raw,18,1186,342
Raw,46,1187,342
Raw,26,1189,342
Raw,9,1191,342
Raw,16,1192,342
Raw,24,1193,342
Raw,21,1196,342
Raw,25,1197,342
Raw,14,1197,342
Raw,20,1198,342
Raw,15,1199,342
Raw,38,1200,342
Raw,21,1201,342
Raw,19,1203,342
Raw,14,1204,342
Raw,20,1205,342
Raw,18,1207,342
Raw,16,1208,342
Raw,17,1211,342
Raw,21,1212,342
Raw,22,1213,342
Raw,19,1214,342
Raw,11,1214,342
Raw,34,1215,342
Raw,27,1216,342
Raw,36,1217,342
Raw,23,1218,342
Raw,15,1219,342
Raw,14,1220,342
Raw,17,1221,342
Raw,14,1222,342
Raw,12,1224,342
Raw,19,1224,342
Raw,16,1225,342
Raw,26,1226,342
Raw,17,1227,342
Raw,43,1229,342
Raw,17,1230,342
Raw,9,1231,342
Raw,26,1231,342
Raw,13,1232,342
Raw,15,1234,342
Raw,9,1234,342
Raw,19,1235,342
Raw,11,1236,342
Raw,17,1237,342
Raw,21,1239,342
Raw,10,1240,342
Raw,22,1242,342
Raw,11,1243,342
Raw,19,1244,342
Raw,20,1245,342
Raw,18,1245,342
Raw,17,1246,342
Raw,20,1247,342
Raw,15,1248,342
Raw,16,1249,342
Raw,14,1250,342
Raw,19,1250,342
Raw,19,1251,342
Raw,20,1253,342
Raw,18,1254,342
Raw,16,1254,342
Raw,17,1255,342
Raw,18,1257,342
Raw,23,1259,342
Raw,17,1260,342
Raw,24,1261,342
Raw,16,1262,342
Raw,38,1263,342
Raw,13,1265,342
Raw,37,1265,342
Raw,16,1266,342
Raw,20,1267,342
Raw,35,1268,342
Raw,43,1269,342
Raw,18,1271,342
Raw,18,1272,342
Raw,15,1273,342
Raw,20,1274,342
Raw,23,1275,342
Raw,16,1275,342
Raw,17,1277,342
Raw,34,1278,342
Raw,21,1279,342
Raw,23,1282,342
Raw,15,1283,342
Raw,20,1284,342
Raw,24,1285,342
Raw,16,1286,342
Raw,35,1287,342
Raw,24,1288,342
Raw,15,1291,342
Raw,29,1292,342
Raw,34,1292,342
Raw,32,1293,342
Raw,23,1295,342
Raw,40,1296,342
Raw,21,1297,342
Raw,19,1298,342
Raw,14,1299,342
Raw,17,1300,342
Raw,15,1302,342
Raw,15,1303,342
Raw,19,1304,342
Raw,10,1304,342
Raw,12,1305,342
Raw,26,1306,342
Raw,20,1307,342
Raw,18,1308,342
Raw,10,1310,342
Raw,20,1310,342
Raw,14,1311,342
Raw,11,1311,342
Raw,19,1312,342
Raw,21,1314,342
Raw,28,1314,342
Raw,5,1314,342
Raw,22,1317,342
Raw,17,1317,342
Raw,20,1319,342
Raw,29,1320,342
Raw,18,1322,342
Raw,35,1324,342
Raw,48,1325,342
Raw,14,1327,342
Raw,15,1328,342
Raw,6,1329,342
Raw,14,1333,342
Raw,20,1334,342
Raw,8,1334,342
Raw,17,1336,342
Raw,31,1337,342
Raw,20,1338,342
Raw,19,1339,342
Raw,15,1340,342
Raw,18,1342,342
Raw,14,1343,342
Raw,13,1344,342
Raw,19,1344,342
Raw,15,1345,342
Raw,21,1346,342
Raw,19,1347,342
Raw,43,1348,342
Raw,16,1350,342
Raw,26,1352,342
Raw,13,1352,342
Raw,38,1353,342
Raw,28,1354,342
Raw,21,1355,342
Raw,17,1356,342
Raw,10,1356,342
Raw,18,1357,342
Raw,22,1358,342
Raw,14,1359,342
Raw,4,1359,342
Raw,29,1360,342
Raw,16,1362,342
Raw,8,1363,342
Raw,15,1364,342
Raw,21,1366,342
Raw,9,1366,342
Raw,11,1369,342
Raw,11,1369,342
Raw,21,1369,342
Raw,14,1371,342
Raw,12,1372,342
Raw,13,1373,342
Raw,17,1374,342
Raw,44,1374,342
Raw,18,1376,342
Raw,15,1379,342
Raw,52,1380,342
Raw,21,1381,342
Raw,31,1382,342
Raw,14,1382,342
Raw,23,1383,342
Raw,16,1385,342
Raw,14,1386,342
Raw,9,1386,342
Raw,14,1387,342
Raw,22,1388,342
Raw,26,1389,342
Raw,22,1390,342
Raw,18,1391,342
Raw,17,1391,342
Raw,12,1392,342
Raw,26,1393,342
Raw,10,1394,342
Raw,34,1395,342
Raw,14,1397,342
Raw,15,1398,342
Raw,9,1398,342
Raw,38,1399,342
Raw,21,1399,342
Raw,17,1400,342
Raw,18,1401,342
Raw,15,1402,342
Raw,9,1403,342
Raw,13,1403,342
Raw,13,1404,342
Raw,19,1404,342
Raw,27,1405,342
Raw,4,1405,342
Raw,19,1406,342
Raw,30,1407,342
Raw,31,1407,342
Raw,23,1408,342
Raw,18,1410,342
Raw,23,1412,342
Raw,17,1414,342
Raw,39,1416,342
Raw,13,1416,342
Raw,45,1417,342
Raw,17,1419,342
Raw,20,1420,342
Raw,20,1421,342
Raw,17,1422,342
Raw,15,1423,342
Raw,20,1424,342
Raw,14,1425,342
Raw,17,1426,342
Raw,17,1429,342
Raw,17,1430,342
Raw,17,1431,342
Raw,25,1432,342
Raw,32,1433,342
Raw,40,1434,342
Raw,20,1435,342
Raw,19,1436,342
Raw,22,1437,342
Raw,11,1437,342
Raw,18,1438,342
Raw,17,1439,342
Raw,37,1440,342
Raw,23,1442,342
Raw,21,1443,342
Raw,18,1444,342
Raw,19,1446,342
Raw,22,1447,342
Raw,21,1448,342
Raw,15,1449,342
Raw,23,1450,342
Raw,14,1451,342
Raw,6,1451,342
Raw,14,1452,342
Raw,24,1453,342
Raw,15,1454,342
Raw,35,1455,342
Raw,15,1456,342
Raw,12,1457,342
Raw,38,1459,342
Raw,20,1461,342
Raw,12,1463,342
Raw,32,1463,342
Raw,19,1464,342
Raw,16,1466,342
Raw,33,1468,342
Raw,31,1469,342
Raw,16,1469,342
Raw,22,1470,342
Raw,18,1471,342
Raw,38,1473,342
Raw,13,1474,342
Raw,14,1474,342
Raw,16,1475,342
Raw,17,1476,342
Raw,11,1477,342
Raw,12,1478,342
Raw,16,1478,342
Raw,17,1479,342
Raw,15,1480,342
Raw,11,1481,342
Raw,17,1482,342
Raw,21,1483,342
Raw,23,1485,342
Raw,21,1487,342
Raw,25,1488,342
Raw,34,1489,342
Raw,12,1490,342
Raw,19,1492,342
Raw,16,1493,342
Raw,17,1494,342
Raw,37,1495,342
Raw,33,1495,342
Raw,17,1497,342
Raw,15,1499,342
Raw,47,1500,342
Raw,18,1501,342
Raw,19,1503,342
Raw,23,1505,342
Raw,14,1506,342
Raw,15,1506,342
Raw,14,1507,342
Raw,15,1507,342
Raw,17,1508,342
Raw,25,1510,342
Raw,9,1510,342
Raw,17,1512,342
Raw,17,1513,342
Raw,28,1515,342
Raw,7,1515,342
Raw,16,1516,342
Raw,22,1518,342
Raw,14,1519,342
Raw,23,1520,342
Raw,18,1522,342
Raw,20,1524,342
Raw,15,1525,342
Raw,33,1526,342
Raw,15,1528,342
Raw,11,1529,342
Raw,29,1530,342
Raw,16,1532,342
Raw,21,1533,342
Raw,19,1534,342
Raw,19,1535,342
Raw,24,1537,342
Raw,22,1538,342
Raw,15,1539,342
Raw,25,1540,342
Raw,32,1541,342
Raw,24,1542,342
Raw,19,1543,342
Raw,32,1545,342
Raw,19,1546,342
Raw,29,1547,342
Raw,29,1548,342
Raw,35,1549,342
Raw,13,1551,342
Raw,23,1552,342
Raw,8,1553,342
Raw,9,1553,342
Raw,27,1554,342
Raw,10,1555,342
Raw,17,1555,342
Raw,45,1556,342
Raw,19,1557,342
Raw,31,1558,342
Raw,12,1560,342
Raw,16,1560,342
Raw,16,1562,342
Raw,20,1563,342
Raw,16,1564,342
Raw,19,1565,342
Raw,3,1566,342
Raw,34,1567,342
Raw,20,1568,342
Raw,24,1570,342
Raw,4,1570,342
Raw,18,1571,342
Raw,13,1572,342
Raw,19,1574,342
Raw,19,1575,342
Raw,18,1576,342
Raw,7,1578,342
Raw,20,1580,342
Raw,24,1581,342
Raw,18,1582,342
Raw,31,1583,342
Raw,20,1585,342
Raw,12,1586,342
Raw,17,1587,342
Raw,21,1589,342
Raw,19,1590,342
Raw,17,1591,342
Raw,32,1592,342
Raw,25,1594,342
Raw,4,1594,342
Raw,18,1595,342
Raw,23,1596,342
Raw,25,1597,342
Raw,13,1597,342
Raw,23,1598,342
Raw,14,1599,342
Raw,21,1600,342
Raw,18,1601,342
Raw,25,1602,342
Raw,17,1602,342
Raw,48,1605,342
Raw,22,1606,342
Raw,17,1607,342
Raw,24,1608,342
Raw,30,1610,342
Raw,10,1610,342
Raw,17,1611,342
Raw,29,1612,342
Raw,17,1613,342
Raw,19,1615,342
Raw,21,1617,342
Raw,16,1618,342
Raw,9,1619,342
Raw,57,1619,342
Raw,14,1620,342
Raw,53,1622,342
Raw,19,1623,342
Raw,13,1623,342
Raw,24,1624,342
Raw,11,1625,342
Raw,30,1625,342
Raw,42,1626,342
Raw,21,1628,342
Raw,15,1629,342
Raw,17,1630,342
Raw,19,1631,342
Raw,21,1632,342
Raw,16,1633,342
Raw,19,1634,342
Raw,18,1634,342
Raw,16,1635,342
Raw,19,1636,342
Raw,18,1637,342
Raw,19,1638,342
Raw,16,1639,342
Raw,8,1641,342
Raw,12,1641,342
Raw,15,1642,342
Raw,15,1643,342
Raw,48,1644,342
Raw,46,1645,342
Raw,13,1647,342
Raw,9,1647,342
Raw,14,1648,342
Raw,21,1649,342
Raw,7,1650,342
Raw,11,1650,342
Raw,21,1650,342
Raw,26,1651,342
Raw,16,1653,342
Raw,25,1654,342
Raw,33,1656,342
Raw,4,1656,342
Raw,20,1657,342
Raw,16,1659,342
Raw,29,1661,342
Raw,26,1662,342
Raw,29,1662,342
Raw,19,1663,342
Raw,19,1664,342
Raw,36,1666,342
Raw,15,1668,342
Raw,14,1669,342
Raw,19,1670,342
Raw,20,1671,342
Raw,31,1672,342
Raw,26,1673,342
Raw,20,1674,342
Raw,22,1675,342
Raw,15,1676,342
Raw,23,1677,342
Raw,15,1679,342
Raw,15,1680,342
Raw,23,1681,342
Raw,22,1683,342
Raw,20,1684,342
Raw,14,1685,342
Raw,17,1687,342
Raw,17,1689,342
Raw,15,1690,342
Raw,27,1690,342
Raw,25,1691,342
Raw,30,1693,342
Raw,23,1694,342
Raw,5,1694,342
Raw,22,1695,342
Raw,16,1696,342
Raw,30,1696,342
Raw,18,1699,342
Raw,16,1700,342
Raw,7,1701,342
Raw,13,1701,342
Raw,6,1702,342
Raw,17,1702,342
Raw,20,1703,342
Raw,14,1704,342
Raw,16,1705,342
Raw,17,1706,342
Raw,24,1707,342
Raw,18,1708,342
Raw,23,1710,342
Raw,10,1711,342
Raw,9,1712,342
Raw,17,1713,342
Raw,29,1715,342
Raw,17,1716,342
Raw,57,1717,342
Raw,26,1718,342
Raw,19,1720,342
Raw,15,1721,342
Raw,19,1722,342
Raw,55,1724,342
Raw,17,1725,342
Raw,11,1726,342
Raw,19,1727,342
Raw,38,1728,342
Raw,11,1729,342
Raw,14,1730,342
Raw,7,1732,342
Raw,15,1732,342
Raw,15,1732,342
Raw,20,1733,342
Raw,19,1735,342
Raw,9,1735,342
Raw,30,1736,342
Raw,17,1737,342
Raw,18,1738,342
Raw,22,1740,342
Raw,23,1742,342
Raw,15,1743,342
Raw,21,1744,342
Raw,19,1745,342
Raw,13,1745,342
Raw,28,1747,342
Raw,17,1748,342
Raw,18,1749,342
Raw,9,1750,342
Raw,37,1751,342
Raw,18,1753,342
Raw,9,1753,342
Raw,19,1755,342
Raw,28,1756,342
Raw,19,1757,342
Raw,21,1758,342
Raw,18,1759,342
Raw,36,1760,342
Raw,16,1761,342
Raw,25,1762,342
Raw,18,1764,342
Raw,16,1765,342
Raw,16,1768,342
Raw,16,1769,342
Raw,18,1770,342
Raw,9,1770,342
Raw,22,1771,342
Raw,11,1772,342
Raw,15,1772,342
Raw,14,1773,342
Raw,29,1773,342
Raw,25,1774,342
Raw,18,1775,342
Raw,22,1776,342
Raw,12,1778,342
Raw,20,1781,342
Raw,19,1782,342
Raw,13,1783,342
Raw,19,1783,342
Raw,17,1785,342
Raw,8,1786,342
Raw,9,1787,342
Raw,14,1791,342
Raw,27,1792,342
Raw,21,1793,342
Raw,10,1793,342
Raw,10,1794,342
Raw,14,1794,342
Raw,32,1795,342
Raw,19,1796,342
Raw,19,1797,342
Raw,15,1799,342
Raw,20,1799,342
Raw,19,1800,342
Raw,16,1801,342
Raw,31,1803,342
Raw,24,1804,342
Raw,17,1804,342
Raw,28,1805,342
Raw,40,1807,342
Raw,22,1808,342
Raw,7,1809,342
Raw,18,1809,342
Raw,26,1810,342
Raw,12,1811,342
Raw,10,1811,342
Raw,21,1813,342
Raw,6,1815,342
Raw,12,1815,342
Raw,8,1815,342
Raw,11,1817,342
Raw,28,1818,342
Raw,18,1819,342
Raw,14,1820,342
Raw,24,1821,342
Raw,19,1822,342
Raw,20,1823,342
Raw,18,1824,342
Raw,16,1825,342
Raw,21,1826,342
Raw,15,1827,342
Raw,16,1827,342
Raw,26,1828,342
Raw,20,1830,342
Raw,17,1832,342
Raw,21,1834,342
Raw,33,1835,342
Raw,12,1836,342
Raw,32,1837,342
Raw,3,1837,342
Raw,29,1838,342
Raw,10,1838,342
Raw,19,1840,342
Raw,7,1840,342
Raw,18,1841,342
Raw,8,1842,342
Raw,21,1843,342
Raw,6,1845,342
Raw,20,1845,342
Raw,28,1846,342
Raw,29,1847,342
Raw,21,1848,342
Raw,15,1848,342
Raw,16,1852,342
Raw,14,1854,342
Raw,28,1855,342
Raw,23,1856,342
Raw,15,1857,342
Raw,31,1858,342
Raw,20,1860,342
Raw,54,1861,342
Raw,16,1862,342
Raw,20,1862,342
Raw,14,1863,342
Raw,22,1865,342
Raw,10,1866,342
Raw,15,1866,342
Raw,34,1867,342
Raw,19,1868,342
Raw,12,1868,342
Raw,25,1870,342
Raw,18,1871,342
Raw,12,1871,342
Raw,17,1872,342
Raw,27,1873,342
Raw,11,1875,342
Raw,15,1875,342
Raw,22,1876,342
Raw,14,1877,342
Raw,16,1877,342
Raw,14,1878,342
Raw,16,1878,342
Raw,24,1880,342
Raw,16,1884,342
Raw,22,1885,342
Raw,12,1886,342
Raw,16,1887,342
Raw,18,1890,342
Raw,24,1891,342
Raw,16,1893,342
Raw,17,1893,342
Raw,22,1894,342
Raw,16,1895,342
Raw,13,1896,342
Raw,12,1897,342
Raw,23,1898,342
Raw,15,1899,342
Raw,18,1900,342
Raw,13,1901,342
Raw,16,1902,342
Raw,10,1903,342
Raw,37,1906,342
Raw,18,1908,342
Raw,20,1909,342
Raw,12,1910,342
Raw,13,1910,342
Raw,19,1911,342
Raw,14,1912,342
Raw,34,1914,342
Raw,25,1915,342
Raw,20,1916,342
Raw,23,1917,342
Raw,5,1917,342
Raw,20,1919,342
Raw,13,1921,342
Raw,8,1923,342
Raw,10,1923,342
Raw,52,1924,342
Raw,25,1925,342
Raw,14,1926,342
Raw,21,1927,342
Raw,34,1928,342
Raw,18,1930,342
Raw,10,1932,342
Raw,15,1932,342
Raw,39,1934,342
Raw,28,1936,342
Raw,10,1937,342
Raw,17,1938,342
Raw,18,1939,342
Raw,14,1940,342
Raw,15,1941,342
Raw,26,1942,342
Raw,21,1943,342
Raw,21,1944,342
Raw,22,1945,342
Raw,3,1945,342
Raw,21,1946,342
Raw,19,1947,342
Raw,19,1948,342
Raw,20,1949,342
Raw,11,1951,342
Raw,6,1951,342
Raw,19,1953,342
Raw,10,1954,342
Raw,17,1955,342
Raw,5,1956,342
Raw,25,1957,342
Raw,21,1959,342
Raw,13,1959,342
Raw,21,1960,342
Raw,24,1962,342
Raw,20,1964,342
Raw,30,1965,342
Raw,19,1966,342
Raw,27,1967,342
Raw,16,1967,342
Raw,12,1967,342
Raw,18,1968,342
Raw,30,1969,342
Raw,13,1970,342
Raw,17,1971,342
Raw,12,1973,342
Raw,20,1974,342
Raw,24,1976,342
Raw,30,1977,342
Raw,15,1978,342
Raw,34,1979,342
Raw,14,1980,342
Raw,35,1981,342
Raw,24,1982,342
Raw,17,1985,342
Raw,31,1988,342
Raw,14,1989,342
Raw,38,1990,342
Raw,19,1992,342
Raw,22,1993,342
Raw,15,1994,342
Raw,6,1994,342
Raw,21,1996,342
Raw,8,1997,342
Raw,5,1997,342
Raw,21,1998,342
Raw,16,2000,342
Raw,10,2001,342
Raw,3,2001,342
Raw,14,2002,342
Raw,10,2003,342
Raw,15,2004,342
Raw,25,2006,342
Raw,18,2007,342
Raw,22,2008,342
Raw,30,2008,342
Raw,21,2009,342
Raw,30,2010,342
Raw,10,2010,342
Raw,17,2012,342
Raw,20,2013,342
Raw,29,2014,342
Raw,15,2015,342
Raw,20,2016,342
Raw,54,2017,342
Raw,18,2018,342
Raw,17,2019,342
Raw,20,2021,342
Raw,16,2022,342
Raw,14,2024,342
Raw,12,2025,342
Raw,3,2025,342
Raw,14,2026,342
Raw,7,2027,342
Raw,5,2027,342
Raw,43,2028,342
Raw,18,2029,342
Raw,12,2030,342
Raw,32,2031,342
Raw,37,2032,342
Raw,19,2034,342
Raw,19,2035,342
Raw,18,2036,342
Raw,19,2038,342
Raw,16,2040,342
Raw,10,2041,342
Raw,19,2042,342
Raw,17,2046,342
Raw,30,2047,342
Raw,14,2048,342
Raw,18,2050,342
Raw,25,2052,342
Raw,18,2054,342
Raw,13,2055,342
Raw,28,2056,342
Raw,27,2058,342
Raw,22,2060,342
Raw,24,2061,342
Raw,5,2061,342
Raw,18,2062,342
Raw,22,2063,342
Raw,36,2064,342
Raw,36,2065,342
Raw,20,2066,342
Raw,20,2067,342
Raw,7,2067,342
Raw,15,2070,342
Raw,23,2071,342
Raw,13,2072,342
Raw,27,2072,342
Raw,51,2073,342
Raw,22,2074,342
Raw,32,2077,342
Raw,16,2078,342
Raw,4,2078,342
Raw,17,2080,342
Raw,15,2081,342
Raw,12,2083,342
Raw,22,2084,342
Raw,31,2085,342
Raw,7,2085,342
Raw,21,2086,342
Raw,16,2087,342
Raw,28,2088,342
Raw,13,2089,342
Raw,17,2090,342
Raw,24,2091,342
Raw,21,2092,342
Raw,16,2094,342
Raw,19,2095,342
Raw,19,2096,342
Raw,20,2097,342
Raw,24,2099,342
Raw,22,2099,342
Raw,21,2101,342
Raw,23,2102,342
Raw,16,2103,342
Raw,15,2104,342
Raw,25,2107,342
Raw,17,2109,342
Raw,17,2111,342
Raw,16,2113,342
Raw,20,2114,342
Raw,29,2115,342
Raw,18,2116,342
Raw,16,2116,342
Raw,13,2117,342
Raw,17,2118,342
Raw,9,2120,342
Raw,19,2120,342
Raw,15,2121,342
Raw,18,2122,342
Raw,5,2123,342
Raw,16,2123,342
Raw,28,2125,342
Raw,19,2126,342
Raw,35,2127,342
Raw,21,2128,342
Raw,41,2129,342
Raw,28,2130,342
Raw,16,2130,342
Raw,17,2131,342
Raw,39,2132,342
Raw,10,2133,342
Raw,43,2133,342
Raw,16,2134,342
Raw,17,2135,342
Raw,22,2136,342
Raw,28,2138,342
Raw,15,2139,342
Raw,17,2140,342
Raw,14,2142,342
Raw,47,2144,342
Raw,50,2144,342
Raw,30,2146,342
Raw,16,2147,342
Raw,25,2148,342
Raw,21,2149,342
Raw,6,2150,342
Raw,41,2151,342
Raw,13,2151,342
Raw,15,2152,342
Raw,23,2153,342
Raw,19,2154,342
Raw,13,2155,342
Raw,20,2156,342
Raw,13,2157,342
Raw,9,2159,342
Raw,16,2160,342
Raw,6,2160,342
Raw,26,2161,342
Raw,20,2162,342
Raw,18,2163,342
Raw,15,2164,342
Raw,17,2165,342
Raw,18,2166,342
Raw,6,2167,342
Raw,14,2167,342
Raw,19,2168,342
Raw,35,2169,342
Raw,22,2170,342
Raw,15,2171,342
Raw,22,2172,342
Raw,20,2173,342
Raw,12,2174,342
Raw,17,2175,342
Raw,40,2176,342
Raw,20,2179,342
Raw,30,2181,342
Raw,15,2182,342
Raw,15,2183,342
Raw,13,2183,342
Raw,32,2185,342
Raw,17,2187,342
Raw,16,2188,342
Raw,18,2189,342
Raw,9,2189,342
Raw,28,2190,342
Raw,18,2191,342
Raw,25,2192,342
Raw,15,2194,342
Raw,19,2196,342
Raw,15,2197,342
Raw,21,2198,342
Raw,26,2199,342
Raw,11,2199,342
Raw,18,2200,342
Raw,37,2202,342
Raw,26,2203,342
Raw,13,2204,342
Raw,15,2204,342
Raw,14,2205,342
Raw,45,2206,342
Raw,10,2207,342
Raw,13,2208,342
Raw,24,2209,342
Raw,10,2209,342
Raw,16,2210,342
Raw,27,2212,342
Raw,21,2214,342
Raw,10,2215,342
Raw,16,2216,342
Raw,16,2220,342
Raw,18,2222,342
Raw,19,2223,342
Raw,8,2223,342
Raw,11,2223,342
Raw,12,2224,342
Raw,8,2225,342
Raw,19,2225,342
Raw,13,2226,342
Raw,22,2227,342
Raw,18,2229,342
Raw,24,2229,342
Raw,13,2230,342
Raw,17,2230,342
Raw,15,2231,342
Raw,13,2233,342
Raw,32,2235,342
Raw,14,2235,342
Raw,21,2236,342
Raw,27,2237,342
Raw,21,2238,342
Raw,14,2240,342
Raw,20,2242,342
Raw,14,2243,342
Raw,28,2244,342
Raw,36,2246,342
Raw,38,2247,342
Raw,19,2248,342
Raw,18,2249,342
Raw,18,2250,342
Raw,22,2251,342
Raw,15,2253,342
Raw,18,2254,342
Raw,26,2255,342
Raw,16,2255,342
Raw,18,2257,342
Raw,16,2258,342
Raw,49,2260,342
Raw,22,2261,342
Raw,17,2264,342
Raw,15,2266,342
Raw,13,2266,342
Raw,17,2266,342
Raw,16,2267,342
Raw,14,2268,342
Raw,22,2269,342
Raw,12,2269,342
Raw,6,2270,342
Raw,11,2271,342
Raw,31,2271,342
Raw,47,2272,342
Raw,10,2273,342
Raw,10,2273,342
Raw,42,2275,342
Raw,20,2276,342
Raw,14,2277,342
Raw,16,2278,342
Raw,19,2279,342
Raw,5,2279,342
Raw,21,2280,342
Raw,11,2280,342
Raw,19,2281,342
Raw,21,2282,342
Raw,22,2283,342
Raw,19,2284,342
Raw,33,2285,342
Raw,15,2286,342
Raw,5,2286,342
Raw,16,2287,342
Raw,16,2289,342
Raw,15,2290,342
Raw,11,2290,342
Raw,23,2291,342
Raw,8,2292,342
Raw,48,2292,342
Raw,23,2293,342
Raw,14,2293,342
Raw,18,2294,342
Raw,23,2295,342
Raw,13,2297,342
Raw,21,2298,342
Raw,22,2300,342
Raw,16,2301,342
Raw,20,2303,342
Raw,14,2304,342
Raw,11,2305,342
Raw,20,2305,342
Raw,18,2306,342
Raw,16,2307,342
Raw,17,2308,342
Raw,28,2309,342
Raw,15,2311,342
Raw,16,2312,342
Raw,6,2314,342
Raw,17,2314,342
Raw,19,2315,342
Raw,25,2316,342
Raw,19,2317,342
Raw,35,2318,342
Raw,19,2319,342
Raw,21,2320,342
Raw,20,2321,342
Raw,17,2322,342
Raw,20,2323,342
Raw,45,2325,342
Raw,13,2326,342
Raw,16,2326,342
Raw,3,2326,342
Raw,17,2327,342
Raw,16,2327,342
Raw,13,2328,342
Raw,41,2329,342
Raw,17,2330,342
Raw,21,2331,342
Raw,4,2332,342
Raw,17,2333,342
Raw,15,2335,342
Raw,20,2336,342
Raw,21,2337,342
Raw,5,2337,342
Raw,24,2338,342
Raw,14,2338,342
Raw,16,2339,342
Raw,21,2341,342
Raw,15,2343,342
Raw,14,2343,342
Raw,27,2344,342
Raw,24,2345,342
Raw,18,2347,342
Raw,23,2348,342
Raw,10,2350,342
Raw,23,2350,342
Raw,19,2352,342
Raw,10,2353,342
Raw,13,2353,342
Raw,21,2354,342
Raw,9,2355,342
Raw,19,2355,342
Raw,21,2357,342
Raw,19,2358,342
Raw,17,2359,342
Raw,24,2360,342
Raw,17,2361,342
Raw,18,2363,342
Raw,34,2365,342
Raw,14,2366,342
Raw,17,2368,342
Raw,5,2368,342
Raw,11,2369,342
Raw,32,2369,342
Raw,11,2369,342
Raw,16,2370,342
Raw,17,2371,342
Raw,9,2373,342
Raw,37,2373,342
Raw,21,2374,342
Raw,20,2375,342
Raw,16,2376,342
Raw,52,2378,342
Raw,15,2379,342
Raw,16,2380,342
Raw,26,2380,342
Raw,19,2381,342
Raw,17,2382,342
Raw,14,2383,342
Raw,23,2384,342
Raw,9,2384,342
Raw,36,2385,342
Raw,11,2386,342
Raw,19,2387,342
Raw,37,2389,342
Raw,19,2389,342
Raw,16,2390,342
Raw,10,2392,342
Raw,20,2392,342
Raw,11,2392,342
Raw,28,2393,342
Raw,11,2394,342
Raw,19,2395,342
Raw,14,2395,342
Raw,22,2396,342
Raw,10,2396,342
Raw,16,2397,342
Raw,14,2398,342
Raw,19,2399,342
Raw,19,2399,342
Raw,11,2399,342
Raw,15,2400,342
Raw,33,2401,342
Raw,16,2402,342
Raw,5,2403,342
Raw,11,2404,342
Raw,20,2405,342
Raw,25,2406,342
Raw,9,2406,342
Raw,14,2408,342
Raw,11,2409,342
Raw,12,2409,342
Raw,14,2410,342
Raw,9,2411,342
Raw,17,2411,342
Raw,19,2412,342
Raw,19,2413,342
Raw,17,2414,342
Raw,6,2415,342
Raw,18,2416,342
Raw,12,2416,342
Raw,20,2417,342
Raw,16,2418,342
Raw,10,2419,342
Raw,27,2420,342
Raw,16,2421,342
Raw,16,2422,342
Raw,8,2422,342
Raw,19,2423,342
Raw,14,2424,342
Raw,5,2425,342
Raw,14,2426,342
Raw,24,2428,342
Raw,12,2428,342
Raw,40,2429,342
Raw,18,2430,342
Raw,17,2431,342
Raw,4,2432,342
Raw,6,2435,342
Raw,20,2436,342
Raw,23,2437,342
Raw,45,2439,342
Raw,13,2441,342
Raw,22,2442,342
Raw,21,2443,342
Raw,20,2444,342
Raw,20,2444,342
Raw,14,2445,342
Raw,31,2446,342
Raw,25,2447,342
Raw,20,2450,342
Raw,20,2451,342
Raw,22,2452,342
Raw,3,2453,342
Raw,10,2453,342
Raw,13,2453,342
Raw,27,2455,342
Raw,15,2458,342
Raw,19,2459,342
Raw,18,2460,342
Raw,24,2461,342
Raw,22,2463,342
Raw,14,2465,342
Raw,16,2467,342
Raw,18,2468,342
Raw,18,2470,342
Raw,14,2471,342
Raw,19,2471,342
Raw,45,2472,342
Raw,23,2473,342
Raw,26,2474,342
Raw,18,2475,342
Raw,41,2476,342
Raw,27,2477,342
Raw,20,2478,342
Raw,8,2478,342
Raw,24,2479,342
Raw,23,2481,342
Raw,15,2482,342
Raw,28,2483,342
Raw,21,2487,342
Raw,30,2488,342
Raw,18,2489,342
Raw,24,2491,342
Raw,8,2493,342
Raw,28,2493,342
Raw,6,2493,342
Raw,30,2494,342
Raw,16,2494,342
Raw,16,2495,342
Raw,16,2495,342
Raw,21,2497,342
Raw,19,2498,342
Raw,9,2498,342
Raw,22,2499,342
Raw,33,2500,342
Raw,19,2501,342
Raw,23,2502,342
Raw,18,2503,342
Raw,16,2504,342
Raw,7,2504,342
Raw,18,2505,342
Raw,16,2506,342
Raw,23,2507,342
Raw,21,2508,342
Raw,12,2509,342
Raw,11,2512,342
Raw,20,2514,342
Raw,32,2516,342
Raw,22,2522,342
Raw,12,2523,342
Raw,29,2524,342
Raw,14,2525,342
Raw,40,2527,342
Raw,17,2528,342
Raw,15,2529,342
Raw,20,2531,342
Raw,43,2532,342
Raw,20,2534,342
Raw,20,2535,342
Raw,13,2538,342
Raw,16,2539,342
Raw,19,2540,342
Raw,8,2540,342
Raw,22,2541,342
Raw,20,2543,342
Raw,18,2545,342
Raw,17,2546,342
Raw,20,2547,342
Raw,21,2548,342
Raw,24,2549,342
Raw,12,2550,342
Raw,19,2551,342
Raw,11,2551,342
Raw,31,2552,342
Raw,15,2553,342
Raw,23,2554,342
Raw,17,2555,342
Raw,12,2555,342
Raw,22,2557,342
Raw,12,2558,342
Raw,19,2558,342
Raw,23,2559,342
Raw,16,2560,342
Raw,39,2561,342
Raw,19,2562,342
Raw,15,2563,342
Raw,23,2564,342
Raw,18,2565,342
Raw,17,2566,342
Raw,32,2567,342
Raw,31,2569,342
Raw,21,2570,342
Raw,11,2571,342
Raw,11,2571,342
Raw,20,2572,342
Raw,24,2573,342
Raw,18,2574,342
Raw,21,2575,342
Raw,30,2576,342
Raw,21,2577,342
Raw,20,2578,342
Raw,20,2579,342
Raw,12,2580,342
Raw,15,2581,342
Raw,22,2583,342
Raw,7,2583,342
Raw,21,2584,342
Raw,23,2585,342
Raw,20,2587,342
Raw,31,2588,342
Raw,22,2589,342
Raw,18,2590,342
Raw,15,2591,342
Raw,19,2592,342
Raw,48,2593,342
Raw,19,2595,342
Raw,18,2596,342
Raw,14,2598,342
Raw,6,2598,342
Raw,24,2599,342
Raw,12,2601,342
Raw,11,2601,342
Raw,14,2602,342
Raw,5,2602,342
Raw,31,2604,342
Raw,23,2605,342
Raw,20,2606,342
Raw,12,2607,342
Raw,13,2607,342
Raw,14,2609,342
Raw,25,2610,342
Raw,34,2611,342
Raw,16,2612,342
Raw,13,2612,342
Raw,38,2615,342
Raw,4,2617,342
Raw,19,2617,342
Raw,13,2618,342
Raw,29,2620,342
Raw,20,2621,342
Raw,5,2621,342
Raw,19,2622,342
Raw,14,2623,342
Raw,13,2623,342
Raw,22,2625,342
Raw,24,2626,342
Raw,6,2627,342
Raw,23,2628,342
Raw,14,2628,342
Raw,19,2630,342
Raw,27,2630,342
Raw,16,2631,342
Raw,37,2631,342
Raw,22,2632,342
Raw,20,2633,342
Raw,9,2634,342
Raw,17,2634,342
Raw,17,2635,342
Raw,21,2636,342
Raw,29,2636,342
Raw,23,2637,342
Raw,13,2638,342
Raw,16,2640,342
Raw,34,2642,342
Raw,15,2643,342
Raw,6,2644,342
Raw,27,2644,342
Raw,10,2644,342
Raw,27,2645,342
Raw,19,2646,342
Raw,16,2647,342
Raw,24,2648,342
Raw,20,2650,342
Raw,19,2652,342
Raw,27,2653,342
Raw,19,2654,342
Raw,40,2656,342
Raw,27,2657,342
Raw,26,2659,342
Raw,18,2660,342
Raw,15,2664,342
Raw,17,2665,342
Raw,4,2666,342
Raw,9,2666,342
Raw,4,2666,342
Raw,49,2667,342
Raw,18,2668,342
Raw,13,2669,342
Raw,9,2671,342
Raw,32,2671,342
Raw,27,2672,342
Raw,22,2673,342
Raw,45,2674,342
Raw,12,2674,342
Raw,25,2675,342
Raw,18,2676,342
Raw,16,2677,342
Raw,18,2678,342
Raw,34,2680,342
Raw,26,2681,342
Raw,18,2682,342
Raw,26,2684,342
Raw,28,2686,342
Raw,19,2688,342
Raw,20,2689,342
Raw,29,2690,342
Raw,26,2692,342
Raw,14,2693,342
Raw,32,2694,342
Raw,20,2695,342
Raw,28,2697,342
Raw,29,2698,342
Raw,8,2699,342
Raw,41,2699,342
Raw,19,2701,342
Raw,11,2703,342
Raw,10,2704,342
Raw,18,2705,342
Raw,30,2706,342
Raw,12,2706,342
Raw,28,2707,342
Raw,13,2708,342
Raw,34,2709,342
Raw,6,2709,342
Raw,26,2710,342
Raw,14,2711,342
Raw,29,2711,342
Raw,31,2712,342
Raw,19,2714,342
Raw,19,2715,342
Raw,22,2716,342
Raw,30,2718,342
Raw,22,2720,342
Raw,21,2721,342
Raw,15,2722,342
Raw,9,2722,342
Raw,22,2723,342
Raw,14,2724,342
Raw,21,2725,342
Raw,16,2727,342
Raw,26,2728,342
Raw,22,2730,342
Raw,16,2731,342
Raw,21,2732,342
Raw,18,2733,342
Raw,16,2734,342
Raw,12,2735,342
Raw,14,2737,342
Raw,15,2739,342
Raw,15,2740,342
Raw,23,2741,342
Raw,13,2742,342
Raw,44,2743,342
Raw,44,2745,342
Raw,46,2746,342
Raw,14,2747,342
Raw,17,2748,342
Raw,6,2748,342
Raw,15,2749,342
Raw,18,2750,342
Raw,16,2751,342
Raw,14,2751,342
Raw,21,2752,342
Raw,25,2753,342
Raw,16,2754,342
Raw,24,2755,342
Raw,7,2755,342
Raw,21,2757,342
Raw,25,2758,342
Raw,13,2760,342
Raw,6,2761,342
Raw,16,2761,342
Raw,21,2763,342
Raw,15,2765,342
Raw,11,2766,342
Raw,24,2767,342
Raw,17,2767,342
Raw,19,2769,342
Raw,12,2769,342
Raw,15,2770,342
Raw,14,2771,342
Raw,21,2772,342
Raw,25,2773,342
Raw,9,2774,342
Raw,12,2775,342
Raw,21,2776,342
Raw,19,2777,342
Raw,16,2778,342
Raw,25,2779,342
Raw,23,2780,342
Raw,46,2781,342
Raw,19,2782,342
Raw,7,2783,342
Raw,14,2783,342
Raw,17,2784,342
Raw,22,2785,342
Raw,24,2786,342
Raw,6,2786,342
Raw,15,2787,342
Raw,18,2789,342
Raw,21,2790,342
Raw,24,2792,342
Raw,16,2793,342
Raw,23,2796,342
Raw,19,2797,342
Raw,17,2798,342
Raw,25,2799,342
Raw,25,2800,342
Raw,18,2801,342
Raw,7,2802,342
Raw,26,2803,342
Raw,10,2804,342
Raw,4,2804,342
Raw,13,2805,342
Raw,17,2807,342
Raw,29,2809,342
Raw,23,2809,342
Raw,29,2811,342
Raw,12,2812,342
Raw,46,2813,342
Raw,23,2815,342
Raw,21,2816,342
Raw,26,2817,342
Raw,33,2818,342
Raw,11,2819,342
Raw,18,2819,342
Raw,36,2820,342
Raw,16,2821,342
Raw,24,2822,342
Raw,21,2824,342
Raw,15,2825,342
Raw,22,2828,342
Raw,19,2829,342
Raw,42,2830,342
Raw,17,2831,342
Raw,10,2831,342
Raw,8,2832,342
Raw,23,2833,342
Raw,23,2834,342
Raw,29,2835,342
Raw,17,2836,342
Raw,11,2837,342
Raw,18,2839,342
Raw,16,2840,342
Raw,10,2841,342
Raw,12,2841,342
Raw,14,2842,342
Raw,32,2843,342
Raw,6,2843,342
Raw,21,2844,342
Raw,13,2845,342
Raw,20,2846,342
Raw,11,2846,342
Raw,27,2847,342
Raw,11,2848,342
Raw,19,2848,342
Raw,7,2848,342
Raw,12,2849,342
Raw,10,2849,342
Raw,17,2850,342
Raw,34,2851,342
Raw,30,2852,342
Raw,20,2853,342
Raw,21,2854,342
Raw,5,2854,342
Raw,16,2855,342
Raw,15,2856,342
Raw,32,2857,342
Raw,27,2858,342
Raw,17,2859,342
Raw,13,2859,342
Raw,24,2861,342
Raw,17,2862,342
Raw,14,2863,342
Raw,19,2863,342
Raw,20,2864,342
Raw,20,2865,342
Raw,31,2867,342
Raw,7,2868,342
Raw,18,2869,342
Raw,15,2870,342
Raw,16,2871,342
Raw,8,2871,342
Raw,20,2872,342
Raw,24,2874,342
Raw,30,2875,342
Raw,20,2876,342
Raw,30,2876,342
Raw,17,2877,342
Raw,45,2878,342
Raw,12,2879,342
Raw,18,2880,342
Raw,14,2881,342
Raw,55,2882,342
Raw,40,2882,342
Raw,11,2883,342
Raw,17,2883,342
Raw,19,2884,342
Raw,23,2885,342
Raw,9,2885,342
Raw,26,2886,342
Raw,17,2887,342
Raw,21,2889,342
Raw,35,2891,342
Raw,15,2893,342
Raw,15,2895,342
Raw,27,2898,342
Raw,15,2899,342
Raw,5,2899,342
Raw,12,2901,342
Raw,19,2902,342
Raw,53,2903,342
Raw,17,2904,342
Raw,14,2905,342
Raw,18,2906,342
Raw,16,2907,342
Raw,41,2908,342
Raw,12,2908,342
Raw,15,2909,342
Raw,15,2910,342
Raw,13,2911,342
Raw,11,2911,342
Raw,20,2913,342
Raw,19,2914,342
Raw,36,2915,342
Raw,16,2916,342
Raw,15,2917,342
Raw,14,2918,342
Raw,16,2920,342
Raw,31,2921,342
Raw,21,2922,342
Raw,29,2924,342
Raw,16,2925,342
Raw,31,2926,342
Raw,22,2927,342
Raw,21,2928,342
Raw,6,2928,342
Raw,28,2929,342
Raw,24,2930,342
Raw,8,2930,342
Raw,16,2931,342
Raw,18,2932,342
Raw,18,2933,342
Raw,15,2934,342
Raw,14,2935,342
Raw,53,2938,342
Raw,13,2938,342
Raw,32,2939,342
Raw,30,2940,342
Raw,19,2941,342
Raw,14,2942,342
Raw,18,2944,342
Raw,24,2945,342
Raw,17,2946,342
Raw,10,2947,342
Raw,8,2947,342
Raw,18,2948,342
Raw,13,2950,342
Raw,16,2951,342
Raw,6,2952,342
Raw,19,2952,342
Raw,25,2954,342
Raw,22,2955,342
Raw,13,2956,342
Raw,13,2956,342
Raw,11,2956,342
Raw,8,2956,342
Raw,13,2957,342
Raw,15,2958,342
Raw,21,2959,342
Raw,30,2960,342
Raw,12,2962,342
Raw,31,2962,342
Raw,17,2963,342
Raw,16,2964,342
Raw,15,2965,342
Raw,14,2966,342
Raw,15,2968,342
Raw,10,2969,342
Raw,46,2970,342
Raw,7,2973,342
Raw,23,2974,342
Raw,9,2976,342
Raw,20,2977,342
Raw,18,2978,342
Raw,15,2979,342
Raw,16,2979,342
Raw,15,2980,342
Raw,4,2981,342
Raw,21,2982,342
Raw,16,2983,342
Raw,21,2983,342
Raw,28,2985,342
Raw,18,2987,342
Raw,13,2987,342
Raw,13,2988,342
Raw,8,2988,342
Raw,35,2989,342
Raw,18,2991,342
Raw,19,2992,342
Raw,55,2993,342
Raw,15,2994,342
Raw,33,2996,342
Raw,13,2999,342
Raw,23,3000,342
Raw,15,3001,342
Raw,17,3002,342
Raw,15,3003,342
Raw,15,3004,342
Raw,25,3005,342
Raw,21,3006,342
Raw,18,3006,342
Raw,13,3006,342
Raw,33,3007,342
Raw,18,3008,342
Raw,24,3009,342
Raw,13,3011,342
Raw,10,3012,342
Raw,35,3013,342
Raw,12,3013,342
Raw,20,3014,342
Raw,46,3015,342
Raw,24,3017,342
Raw,14,3018,342
Raw,22,3019,342
Raw,15,3019,342
Raw,10,3019,342
Raw,16,3020,342
Raw,35,3022,342
Raw,24,3023,342
Raw,23,3024,342
Raw,37,3026,342
Raw,8,3027,342
Raw,17,3027,342
Raw,16,3028,342
Raw,16,3029,342
Raw,18,3030,342
Raw,22,3031,342
Raw,9,3032,342
Raw,12,3034,342
Raw,11,3034,342
Raw,21,3036,342
Raw,15,3037,342
Raw,21,3038,342
Raw,21,3040,342
Raw,17,3042,342
Raw,11,3042,342
Raw,21,3043,342
Raw,16,3045,342
Raw,15,3047,342
Raw,20,3048,342
Raw,18,3050,342
Raw,44,3052,342
Raw,18,3052,342
Raw,20,3053,342
Raw,25,3054,342
Raw,26,3055,342
Raw,34,3056,342
Raw,12,3057,342
Raw,16,3058,342
Raw,29,3060,342
Raw,34,3060,342
Raw,27,3064,342
Raw,6,3064,342
Raw,17,3065,342
Raw,19,3066,342
Raw,6,3067,342
Raw,10,3067,342
Raw,18,3068,342
Raw,13,3069,342
Raw,17,3070,342
Raw,12,3071,342
Raw,11,3071,342
Raw,22,3072,342
Raw,26,3073,342
Raw,28,3074,342
Raw,19,3075,342
Raw,16,3076,342
Raw,20,3076,342
Raw,20,3077,342
Raw,22,3079,342
Raw,29,3081,342
Raw,6,3081,342
Raw,14,3083,342
Raw,25,3084,342
Raw,10,3086,342
Raw,17,3087,342
Raw,10,3087,342
Raw,22,3088,342
Raw,12,3088,342
Raw,43,3090,342
Raw,12,3091,342
Raw,10,3091,342
Raw,25,3093,342
Raw,22,3094,342
Raw,18,3097,342
Raw,19,3098,342
Raw,22,3099,342
Raw,51,3100,342
Raw,18,3101,342
Raw,9,3102,342
Raw,38,3102,342
Raw,21,3103,342
Raw,26,3104,342
Raw,24,3105,342
Raw,16,3106,342
Raw,40,3107,342
Raw,20,3109,342
Raw,21,3110,342
Raw,22,3111,342
Raw,12,3113,342
Raw,13,3113,342
Raw,21,3115,342
Raw,13,3115,342
Raw,22,3117,342
Raw,15,3119,342
Raw,3,3119,342
Raw,24,3120,342
Raw,31,3121,342
Raw,25,3122,342
Raw,30,3123,342
Raw,21,3125,342
Raw,22,3126,342
Raw,19,3127,342
Raw,17,3128,342
Raw,26,3129,342
Raw,9,3130,342
Raw,20,3130,342
Raw,41,3131,342
Raw,19,3132,342
Raw,9,3133,342
Raw,26,3134,342
Raw,19,3135,342
Raw,32,3136,342
Raw,16,3137,342
Raw,48,3139,342
Raw,39,3140,342
Raw,16,3141,342
Raw,28,3143,342
Raw,26,3144,342
Raw,16,3145,342
Raw,21,3146,342
Raw,19,3146,342
Raw,13,3147,342
Raw,33,3148,342
Raw,19,3149,342
Raw,16,3150,342
Raw,24,3151,342
Raw,23,3152,342
Raw,22,3153,342
Raw,15,3153,342
Raw,4,3154,342
Raw,10,3154,342
Raw,3,3154,342
Raw,22,3155,342
Raw,7,3155,342
Raw,29,3156,342
Raw,25,3157,342
Raw,29,3159,342
Raw,17,3160,342
Raw,28,3161,342
Raw,25,3162,342
Raw,13,3163,342
Raw,30,3163,342
Raw,20,3164,342
Raw,15,3165,342
Raw,15,3166,342
Raw,17,3168,342
Raw,22,3169,342
Raw,23,3169,342
Raw,17,3170,342
Raw,16,3171,342
Raw,48,3172,342
Raw,13,3173,342
Raw,17,3174,342
Raw,10,3174,342
Raw,10,3174,342
Raw,8,3175,342
Raw,13,3175,342
Raw,16,3178,342
Raw,21,3180,342
Raw,20,3181,342
Raw,21,3184,342
Raw,22,3186,342
Raw,37,3186,342
Raw,12,3188,342
Raw,20,3189,342
Raw,33,3191,342
Raw,14,3192,342
Raw,20,3192,342
Raw,22,3193,342
Raw,22,3194,342
Raw,19,3195,342
Raw,10,3196,342
Raw,21,3197,342
Raw,15,3199,342
Raw,6,3200,342
Raw,21,3202,342
Raw,18,3203,342
Raw,22,3205,342
Raw,17,3207,342
Raw,18,3208,342
Raw,39,3210,342
Raw,7,3210,342
Raw,11,3212,342
Raw,15,3212,342
Raw,22,3213,342
Raw,21,3214,342
Raw,48,3215,342
Raw,24,3216,342
Raw,16,3218,342
Raw,25,3219,342
Raw,23,3220,342
Raw,31,3221,342
Raw,18,3222,342
Raw,21,3223,342
Raw,7,3224,342
Raw,23,3225,342
Raw,15,3226,342
Raw,20,3228,342
Raw,43,3229,342
Raw,14,3229,342
Raw,17,3230,342
Raw,20,3233,342
Raw,17,3234,342
Raw,22,3237,342
Raw,11,3240,342
Raw,21,3241,342
Raw,13,3241,342
Raw,14,3242,342
Raw,24,3243,342
Raw,19,3244,342
Raw,14,3245,342
Raw,14,3246,342
Raw,24,3247,342
Raw,13,3248,342
Raw,7,3248,342
Raw,16,3250,342
Raw,12,3251,342
Raw,35,3252,342
Raw,17,3253,342
Raw,19,3255,342
Raw,10,3256,342
Raw,53,3257,342
Raw,35,3258,342
Raw,7,3258,342
Raw,23,3259,342
Raw,21,3260,342
Raw,13,3261,342
Raw,16,3262,342
Raw,16,3263,342
Raw,21,3264,342
Raw,22,3265,342
Raw,14,3265,342
Raw,36,3266,342
Raw,16,3267,342
Raw,33,3268,342
Raw,32,3268,342
Raw,20,3270,342
Raw,24,3271,342
Raw,24,3272,342
Raw,20,3273,342
Raw,22,3275,342
Raw,16,3276,342
Raw,17,3277,342
Raw,13,3277,342
Raw,23,3280,342
Raw,9,3280,342
Raw,22,3281,342
Raw,19,3283,342
Raw,8,3283,342
Raw,22,3284,342
Raw,19,3288,342
Raw,19,3289,342
Raw,15,3290,342
Raw,16,3292,342
Raw,21,3292,342
Raw,16,3292,342
Raw,18,3294,342
Raw,18,3295,342
Raw,15,3296,342
Raw,12,3297,342
Raw,6,3298,342
Raw,15,3299,342
Raw,31,3300,342
Raw,14,3301,342
Raw,17,3302,342
Raw,21,3303,342
Raw,15,3304,342
Raw,25,3305,342
Raw,16,3307,342
Raw,15,3308,342
Raw,18,3309,342
Raw,15,3310,342
Raw,14,3311,342
Raw,42,3311,342
Raw,14,3312,342
Raw,22,3314,342
Raw,5,3314,342
Raw,20,3316,342
Raw,17,3317,342
Raw,8,3318,342
Raw,22,3320,342
Raw,17,3322,342
Raw,20,3323,342
Raw,14,3324,342
Raw,17,3325,342
Raw,17,3327,342
Raw,14,3328,342
Raw,6,3331,342
Raw,14,3331,342
Raw,5,3332,342
Raw,37,3332,342
Raw,14,3333,342
Raw,12,3334,342
Raw,11,3335,342
Raw,32,3335,342
Raw,17,3336,342
Raw,22,3337,342
Raw,17,3338,342
Raw,21,3339,342
Raw,17,3340,342
Raw,12,3341,342
Raw,8,3341,342
Raw,30,3341,342
Raw,21,3342,342
Raw,25,3343,342
Raw,23,3345,342
Raw,17,3345,342
Raw,12,3347,342
Raw,17,3347,342
Raw,7,3347,342
Raw,16,3348,342
Raw,19,3350,342
Raw,19,3351,342
Raw,8,3351,342
Raw,17,3352,342
Raw,12,3353,342
Raw,11,3353,342
Raw,25,3355,342
Raw,12,3358,342
Raw,18,3359,342
Raw,33,3360,342
Raw,17,3361,342
Raw,24,3362,342
Raw,24,3363,342
Raw,13,3363,342
Raw,21,3364,342
Raw,16,3365,342
Raw,22,3367,342
Raw,21,3368,342
Raw,17,3370,342
Raw,15,3371,342
Raw,17,3371,342
Raw,45,3374,342
Raw,23,3374,342
Raw,11,3375,342
Raw,11,3376,342
Raw,18,3377,342
Raw,26,3378,342
Raw,21,3379,342
Raw,15,3380,342
Raw,21,3383,342
Raw,38,3386,342
Raw,19,3387,342
Raw,29,3388,342
Raw,15,3389,342
Raw,8,3389,342
Raw,21,3390,342
Raw,9,3391,342
Raw,24,3393,342
Raw,15,3398,342
Raw,27,3399,342
Raw,12,3399,342
Raw,25,3400,342
Raw,34,3401,342
Raw,10,3405,342
Raw,15,3409,342
Raw,21,3410,342
Raw,9,3411,342
Raw,11,3412,342
Raw,8,3413,342
Raw,28,3415,342
Raw,15,3416,342
Raw,14,3417,342
Raw,10,3417,342
Raw,3,3417,342
Raw,38,3418,342
Raw,9,3418,342
Raw,22,3420,342
Raw,31,3424,342
Raw,20,3425,342
Raw,11,3425,342
Raw,21,3426,342
Raw,22,3428,342
Raw,20,3431,342
Raw,35,3432,342
Raw,7,3433,342
Raw,19,3437,342
Raw,13,3448,342
Raw,54,3452,342
Raw,22,3456,342
Raw,14,3456,342
Raw,13,3457,342
Raw,28,3457,342
Raw,28,3458,342
Raw,18,3459,342
Raw,27,3460,342
Raw,3,3464,342
Raw,12,3465,342
Raw,25,3466,342
Raw,12,3466,342
Raw,17,3467,342
Raw,19,3468,342
Raw,23,3469,342
Raw,14,3470,342
Raw,26,3471,342
Raw,18,3473,342
Raw,24,3474,342
Raw,16,3475,342
Raw,14,3476,342
Raw,27,3478,342
Raw,17,3479,342
Raw,17,3480,342
Raw,19,3481,342
Raw,15,3485,342
Raw,17,3486,342
Raw,24,3487,342
Raw,20,3488,342
Raw,19,3489,342
Raw,20,3490,342
Raw,15,3491,342
Raw,17,3492,342
Raw,30,3493,342
Raw,12,3494,342
Raw,21,3495,342
Raw,32,3496,342
Raw,17,3497,342
Raw,39,3498,342
Raw,20,3499,342
Raw,39,3500,342
Raw,9,3500,342
Raw,20,3501,342
Raw,18,3502,342
Raw,9,3502,342
Raw,21,3503,342
Raw,10,3503,342
Raw,40,3504,342
Raw,13,3505,342
Raw,29,3506,342
Raw,16,3507,342
Raw,15,3508,342
Raw,18,3509,342
Raw,11,3509,342
Raw,25,3510,342
Raw,15,3510,342
Raw,12,3511,342
Raw,3,3512,342
Raw,17,3513,342
Raw,12,3514,342
Raw,12,3514,342
Raw,14,3515,342
Raw,13,3516,342
Raw,29,3519,342
Raw,8,3519,342
Raw,15,3520,342
Raw,15,3521,342
Raw,26,3522,342
Raw,21,3523,342
Raw,18,3525,342
Raw,18,3526,342
Raw,29,3526,342
Raw,8,3526,342
Raw,40,3529,342
Raw,22,3530,342
Raw,11,3531,342
Raw,13,3531,342
Raw,13,3533,342
Raw,20,3534,342
Raw,20,3535,342
Raw,18,3536,342
Raw,16,3537,342
Raw,28,3538,342
Raw,8,3538,342
Raw,31,3539,342
Raw,24,3540,342
Raw,33,3541,342
Raw,20,3542,342
Raw,17,3543,342
Raw,8,3544,342
Raw,15,3544,342
Raw,16,3545,342
Raw,34,3550,342
Raw,9,3550,342
Raw,18,3551,342
Raw,15,3553,342
Raw,20,3554,342
Raw,35,3555,342
Raw,15,3556,342
Raw,16,3557,342
Raw,21,3558,342
Raw,27,3559,342
Raw,15,3560,342
Raw,18,3563,342
Raw,25,3564,342
Raw,14,3565,342
Raw,27,3567,342
Raw,15,3568,342
Raw,20,3569,342
Raw,12,3569,342
Raw,18,3571,342
Raw,10,3571,342
Raw,17,3572,342
Raw,17,3573,342
Raw,20,3575,342
Raw,33,3575,342
Raw,20,3577,342
Raw,13,3577,342
Raw,25,3578,342
Raw,20,3579,342
Raw,11,3580,342
Raw,15,3582,342
Raw,16,3583,342
Raw,19,3584,342
Raw,17,3584,342
Raw,28,3585,342
Raw,18,3586,342
Raw,13,3587,342
Raw,12,3588,342
Raw,16,3588,342
Raw,21,3589,342
Raw,22,3590,342
Raw,20,3591,342
Raw,17,3592,342
Raw,24,3594,342
Raw,12,3595,342
Raw,10,3595,342
Raw,24,3596,342
Raw,29,3597,342
Raw,19,3598,342
Raw,15,3603,342
Raw,16,3604,342
Raw,20,3604,342
Raw,20,3605,342
Raw,25,3606,342
Raw,38,3607,342
Raw,24,3608,342
Raw,22,3609,342
Raw,27,3610,342
Raw,28,3613,342
Raw,25,3616,342
Raw,11,3616,342
Raw,28,3617,342
Raw,28,3618,342
Raw,11,3618,342
Raw,15,3619,342
Raw,19,3620,342
Raw,11,3621,342
Raw,15,3621,342
Raw,48,3622,342
Raw,16,3623,342
Raw,17,3625,342
Raw,25,3626,342
Raw,20,3627,342
Raw,11,3627,342
Raw,24,3628,342
Raw,18,3629,342
Raw,17,3632,342
Raw,19,3633,342
Raw,15,3634,342
Raw,11,3636,342
Raw,18,3637,342
Raw,41,3638,342
Raw,23,3639,342
Raw,13,3641,342
Raw,13,3641,342
Raw,20,3644,342
Raw,20,3646,342
Raw,20,3647,342
Raw,23,3648,342
Raw,40,3650,342
Raw,11,3651,342
Raw,12,3653,342
Raw,18,3653,342
Raw,33,3654,342
Raw,8,3655,342
Raw,15,3655,342
Raw,17,3659,342
Raw,14,3661,342
Raw,16,3662,342
Raw,16,3663,342
Raw,16,3663,342
Raw,21,3664,342
Raw,20,3665,342
Raw,14,3666,342
Raw,21,3667,342
Raw,23,3668,342
Raw,28,3669,342
Raw,14,3669,342
Raw,13,3670,342
Raw,18,3671,342
Raw,17,3673,342
Raw,17,3674,342
Raw,17,3676,342
Raw,9,3677,342
Raw,22,3679,342
Raw,25,3680,342
Raw,23,3681,342
Raw,16,3682,342
Raw,16,3683,342
Raw,17,3684,342
Raw,30,3685,342
Raw,6,3685,342
Raw,14,3686,342
Raw,25,3687,342
Raw,9,3688,342
Raw,23,3689,342
Raw,20,3692,342
Raw,16,3694,342
Raw,9,3696,342
Raw,41,3696,342
Raw,36,3697,342
Raw,36,3699,342
Raw,10,3701,342
Raw,12,3701,342
Raw,16,3702,342
Raw,11,3703,342
Raw,32,3705,342
Raw,13,3706,342
Raw,25,3707,342
Raw,12,3708,342
Raw,18,3709,342
Raw,18,3710,342
Raw,12,3711,342
Raw,45,3711,342
Raw,22,3712,342
Raw,19,3713,342
Raw,10,3714,342
Raw,33,3715,342
Raw,9,3716,342
Raw,33,3719,342
Raw,18,3720,342
Raw,7,3721,342
Raw,19,3722,342
Raw,8,3723,342
Raw,13,3723,342
Raw,19,3724,342
Raw,17,3725,342
Raw,36,3726,342
Raw,18,3728,342
Raw,24,3730,342
Raw,24,3731,342
Raw,18,3732,342
Raw,38,3733,342
Raw,26,3735,342
Raw,18,3736,342
Raw,17,3737,342
Raw,8,3740,342
Raw,19,3741,342
Raw,12,3742,342
Raw,20,3742,342
Raw,39,3743,342
Raw,16,3745,342
Raw,23,3746,342
Raw,18,3748,342
Raw,10,3748,342
Raw,24,3750,342
Raw,29,3753,342
Raw,20,3754,342
Raw,42,3755,342
Raw,16,3757,342
Raw,21,3759,342
Raw,31,3761,342
Raw,18,3761,342
Raw,3,3761,342
Raw,35,3762,342
Raw,18,3762,342
Raw,22,3764,342
Raw,5,3765,342
Raw,24,3766,342
Raw,10,3767,342
Raw,23,3768,342
Raw,16,3769,342
Raw,18,3770,342
Raw,38,3771,342
Raw,21,3773,342
Raw,7,3773,342
Raw,15,3775,342
Raw,22,3776,342
Raw,12,3777,342
Raw,17,3778,342
Raw,12,3778,342
Raw,10,3779,342
Raw,13,3780,342
Raw,12,3781,342
Raw,22,3783,342
Raw,35,3784,342
Raw,9,3785,342
Raw,16,3786,342
Raw,19,3787,342
Raw,22,3789,342
Raw,26,3791,342
Raw,23,3792,342
Raw,20,3793,342
Raw,19,3794,342
Raw,7,3796,342
Raw,42,3796,342
Raw,14,3797,342
Raw,45,3797,342
Raw,9,3798,342
Raw,23,3799,342
Raw,25,3800,342
Raw,25,3802,342
Raw,19,3802,342
Raw,17,3803,342
Raw,19,3805,342
Raw,16,3805,342
Raw,6,3805,342
Raw,12,3808,342
Raw,8,3809,342
Raw,15,3809,342
Raw,30,3810,342
Raw,33,3811,342
Raw,23,3812,342
Raw,14,3813,342
Raw,10,3813,342
Raw,17,3814,342
Raw,30,3815,342
Raw,11,3816,342
Raw,22,3818,342
Raw,16,3821,342
Raw,6,3822,342
Raw,8,3822,342
Raw,32,3823,342
Raw,16,3824,342
Raw,26,3826,342
Raw,13,3827,342
Raw,32,3828,342
Raw,23,3830,342
Raw,37,3831,342
Raw,19,3832,342
Raw,50,3834,342
Raw,20,3835,342
Raw,17,3836,342
Raw,27,3837,342
Raw,14,3838,342
Raw,15,3838,342
Raw,22,3840,342
Raw,18,3842,342
Raw,20,3843,342
Raw,18,3845,342
Raw,18,3846,342
Raw,16,3848,342
Raw,18,3850,342
Raw,35,3851,342
Raw,16,3852,342
Raw,21,3853,342
Raw,17,3854,342
Raw,17,3854,342
Raw,30,3855,342
Raw,25,3857,342
Raw,17,3858,342
Raw,22,3859,342
Raw,27,3860,342
Raw,26,3861,342
Raw,22,3862,342
Raw,41,3863,342
Raw,15,3864,342
Raw,14,3865,342
Raw,20,3866,342
Raw,20,3867,342
Raw,5,3867,342
Raw,18,3868,342
Raw,19,3869,342
Raw,36,3870,342
Raw,19,3871,342
Raw,5,3871,342
Raw,22,3872,342
Raw,9,3872,342
Raw,46,3873,342
Raw,26,3874,342
Raw,16,3876,342
Raw,15,3877,342
Raw,12,3878,342
Raw,16,3879,342
Raw,16,3881,342
Raw,30,3881,342
Raw,22,3882,342
Raw,25,3883,342
Raw,10,3884,342
Raw,18,3884,342
Raw,16,3885,342
Raw,40,3886,342
Raw,35,3887,342
Raw,15,3888,342
Raw,18,3889,342
Raw,18,3890,342
Raw,19,3891,342
Raw,4,3891,342
Raw,20,3892,342
Raw,21,3894,342
Raw,29,3895,342
Raw,7,3896,342
Raw,19,3896,342
Raw,19,3897,342
Raw,13,3898,342
Raw,8,3899,342
Raw,23,3900,342
Raw,26,3901,342
Raw,22,3902,342
Raw,43,3903,342
Raw,15,3904,342
Raw,24,3905,342
Raw,14,3905,342
Raw,16,3907,342
Raw,17,3909,342
Raw,5,3909,342
Raw,14,3910,342
Raw,5,3910,342
Raw,34,3911,342
Raw,14,3912,342
Raw,30,3914,342
Raw,5,3914,342
Raw,16,3915,342
Raw,13,3916,342
Raw,22,3917,342
Raw,18,3917,342
Raw,41,3918,342
Raw,4,3918,342
Raw,39,3919,342
Raw,20,3920,342
Raw,16,3921,342
Raw,13,3921,342
Raw,15,3922,342
Raw,20,3922,342
Raw,36,3923,342
Raw,12,3925,342
Raw,11,3925,342
Raw,18,3925,342
Raw,7,3925,342
Raw,16,3926,342
Raw,35,3927,342
Raw,6,3927,342
Raw,14,3927,342
Raw,22,3929,342
Raw,4,3930,342
Raw,13,3930,342
Raw,22,3931,342
Raw,18,3932,342
Raw,22,3933,342
Raw,13,3935,342
Raw,25,3936,342
Raw,6,3936,342
Raw,11,3937,342
Raw,34,3939,342
Raw,22,3941,342
Raw,16,3941,342
Raw,15,3943,342
Raw,4,3943,342
Raw,27,3945,342
Raw,25,3946,342
Raw,18,3947,342
Raw,14,3948,342
Raw,13,3950,342
Raw,11,3951,342
Raw,30,3951,342
Raw,29,3952,342
Raw,19,3954,342
Raw,17,3955,342
Raw,8,3955,342
Raw,14,3957,342
Raw,11,3958,342
Raw,17,3959,342
Raw,22,3960,342
Raw,14,3960,342
Raw,15,3961,342
Raw,20,3962,342
Raw,8,3963,342
Raw,22,3964,342
Raw,21,3965,342
Raw,13,3967,342
Raw,4,3967,342
Raw,18,3968,342
Raw,16,3969,342
Raw,20,3970,342
Raw,20,3972,342
Raw,19,3973,342
Raw,9,3973,342
Raw,10,3974,342
Raw,21,3976,342
Raw,12,3977,342
Raw,13,3977,342
Raw,23,3978,342
Raw,52,3979,342
Raw,4,3980,342
Raw,15,3981,342
Raw,15,3981,342
Raw,21,3982,342
Raw,15,3983,342
Raw,43,3984,342
Raw,17,3987,342
Raw,23,3989,342
Raw,15,3990,342
Raw,16,3991,342
Raw,21,3992,342
Raw,16,3992,342
Raw,23,3993,342
Raw,24,3994,342
Raw,18,3995,342
Raw,17,3996,342
Raw,14,3997,342
Raw,26,3997,342
Raw,19,3999,342
Raw,19,4000,342
Raw,31,4001,342
Raw,16,4002,342
Raw,12,4003,342
Raw,30,4004,342
Raw,16,4004,342
Raw,16,4005,342
Raw,22,4006,342
Raw,23,4007,342
Raw,26,4008,342
Raw,18,4008,342
Raw,38,4009,342
Raw,14,4010,342
Raw,23,4011,342
Raw,12,4011,342
Raw,31,4013,342
Raw,25,4015,342
Raw,18,4016,342
Raw,20,4017,342
Raw,15,4018,342
Raw,15,4019,342
Raw,15,4020,342
Raw,29,4021,342
Raw,18,4023,342
Raw,12,4024,342
Raw,16,4025,342
Raw,20,4026,342
Raw,35,4028,342
Raw,19,4029,342
Raw,17,4030,342
Raw,20,4031,342
Raw,28,4032,342
Raw,28,4033,342
Raw,20,4036,342
Raw,23,4037,342
Raw,12,4037,342
Raw,12,4038,342
Raw,15,4040,342
Raw,16,4041,342
Raw,12,4041,342
Raw,6,4042,342
Raw,16,4043,342
Raw,16,4044,342
Raw,15,4045,342
Raw,15,4045,342
Raw,20,4046,342
Raw,13,4050,342
Raw,15,4050,342
Raw,17,4051,342
Raw,15,4053,342
Raw,23,4054,342
Raw,10,4054,342
Raw,43,4056,342
Raw,26,4058,342
Raw,21,4060,342
Raw,4,4060,342
Raw,16,4061,342
Raw,11,4063,342
Raw,34,4063,342
Raw,24,4065,342
Raw,25,4066,342
Raw,9,4067,342
Raw,7,4069,342
Raw,23,4070,342
Raw,18,4072,342
Raw,6,4073,342
Raw,17,4074,342
Raw,24,4075,342
Raw,17,4076,342
Raw,28,4077,342
Raw,7,4077,342
Raw,14,4078,342
Raw,18,4080,342
Raw,36,4081,342
Raw,36,4082,342
Raw,19,4083,342
Raw,17,4083,342
Raw,13,4084,342
Raw,12,4084,342
Raw,29,4085,342
Raw,20,4087,342
Raw,21,4088,342
Raw,10,4089,342
Raw,19,4090,342
Raw,46,4095,342
Raw,17,4098,342
Raw,37,4100,342
Raw,20,4101,342
Raw,18,4102,342
Raw,14,4103,342
Raw,32,4103,342
Raw,35,4104,342
Raw,21,4105,342
Raw,24,4107,342
Raw,20,4108,342
Raw,5,4109,342
Raw,4,4109,342
Raw,32,4109,342
Raw,12,4109,342
Raw,26,4110,342
Raw,18,4111,342
Raw,12,4112,342
Raw,21,4113,342
Raw,13,4115,342
Raw,6,4115,342
