Cut?,Counts,eventNumber,runNumber
Raw,21,2,340
Raw,6,10,340
Raw,19,11,340
Raw,12,13,340
Raw,27,23,340
Raw,12,25,340
Raw,60,30,340
Raw,22,31,340
Raw,35,39,340
Raw,12,39,340
Raw,46,45,340
Raw,54,59,340
Raw,20,62,340
Raw,19,67,340
Raw,7,67,340
Raw,14,75,340
Raw,19,88,340
Raw,11,88,340
Raw,43,94,340
Raw,20,101,340
Raw,10,101,340
Raw,28,111,340
Raw,20,111,340
Raw,19,113,340
Raw,23,113,340
Raw,14,116,340
Raw,20,118,340
Raw,18,118,340
Raw,11,121,340
Raw,26,124,340
Raw,38,125,340
Raw,26,135,340
Raw,20,141,340
Raw,44,149,340
Raw,19,157,340
Raw,55,161,340
Raw,13,161,340
Raw,18,164,340
Raw,23,164,340
Raw,14,166,340
Raw,27,168,340
Raw,58,171,340
Raw,14,172,340
Raw,13,172,340
Raw,29,175,340
Raw,6,177,340
Raw,18,179,340
Raw,19,187,340
Raw,20,200,340
Raw,16,206,340
Raw,17,208,340
Raw,26,208,340
Raw,16,213,340
Raw,21,224,340
Raw,22,229,340
Raw,20,239,340
Raw,19,241,340
Raw,44,241,340
Raw,29,251,340
Raw,21,251,340
Raw,46,256,340
Raw,57,259,340
Raw,24,269,340
Raw,19,270,340
Raw,20,277,340
Raw,20,282,340
Raw,13,290,340
Raw,29,290,340
Raw,16,290,340
Raw,5,291,340
Raw,11,298,340
Raw,25,301,340
Raw,13,301,340
Raw,14,303,340
Raw,33,303,340
Raw,20,310,340
Raw,19,315,340
Raw,9,315,340
Raw,29,317,340
Raw,22,324,340
Raw,21,332,340
Raw,63,332,340
Raw,21,333,340
Raw,14,333,340
Raw,18,337,340
Raw,16,342,340
Raw,18,346,340
Raw,20,352,340
Raw,21,361,340
Raw,16,361,340
Raw,20,362,340
Raw,27,364,340
Raw,44,370,340
Raw,38,375,340
Raw,26,376,340
Raw,5,378,340
Raw,7,394,340
Raw,28,396,340
Raw,13,399,340
Raw,14,400,340
Raw,19,409,340
Raw,23,414,340
Raw,62,415,340
Raw,16,422,340
Raw,12,422,340
Raw,43,434,340
Raw,5,439,340
Raw,17,439,340
Raw,21,439,340
Raw,21,440,340
Raw,22,442,340
Raw,34,443,340
Raw,27,469,340
Raw,12,469,340
Raw,42,472,340
Raw,43,484,340
Raw,17,485,340
Raw,10,486,340
Raw,42,487,340
Raw,23,487,340
Raw,9,489,340
Raw,19,491,340
Raw,8,494,340
Raw,48,494,340
Raw,11,499,340
Raw,27,502,340
Raw,20,502,340
Raw,36,504,340
Raw,21,504,340
Raw,11,507,340
Raw,43,513,340
Raw,16,518,340
Raw,21,524,340
Raw,24,529,340
Raw,6,538,340
Raw,22,539,340
Raw,19,556,340
Raw,14,556,340
Raw,47,556,340
Raw,44,558,340
Raw,17,563,340
Raw,26,568,340
Raw,24,569,340
Raw,16,578,340
Raw,16,579,340
Raw,17,579,340
Raw,16,585,340
Raw,21,587,340
Raw,16,587,340
Raw,25,588,340
Raw,15,588,340
Raw,14,589,340
Raw,52,589,340
Raw,46,591,340
Raw,17,591,340
Raw,18,593,340
Raw,19,593,340
Raw,17,600,340
Raw,33,601,340
Raw,45,605,340
Raw,24,613,340
Raw,31,619,340
Raw,11,620,340
Raw,19,620,340
Raw,19,620,340
Raw,50,621,340
Raw,15,643,340
Raw,15,650,340
Raw,21,653,340
Raw,33,655,340
Raw,33,656,340
Raw,30,657,340
Raw,21,659,340
Raw,57,664,340
Raw,38,669,340
Raw,11,670,340
Raw,45,671,340
Raw,18,676,340
Raw,27,676,340
Raw,28,682,340
Raw,20,682,340
Raw,4,688,340
Raw,16,689,340
Raw,34,692,340
Raw,15,693,340
Raw,10,694,340
Raw,16,705,340
Raw,39,712,340
Raw,21,713,340
Raw,10,732,340
Raw,4,734,340
Raw,34,741,340
Raw,17,741,340
Raw,17,744,340
Raw,17,775,340
Raw,55,775,340
Raw,14,791,340
Raw,32,804,340
Raw,13,808,340
Raw,10,809,340
Raw,31,811,340
Raw,21,812,340
Raw,25,814,340
Raw,21,822,340
Raw,20,824,340
Raw,19,827,340
Raw,30,842,340
Raw,21,843,340
Raw,44,843,340
Raw,24,850,340
Raw,35,850,340
Raw,33,854,340
Raw,18,863,340
Raw,13,866,340
Raw,19,869,340
Raw,7,869,340
Raw,26,873,340
Raw,59,878,340
Raw,41,881,340
Raw,24,885,340
Raw,23,896,340
Raw,8,896,340
Raw,19,903,340
Raw,15,912,340
Raw,15,915,340
Raw,15,924,340
Raw,32,939,340
Raw,27,942,340
Raw,32,949,340
Raw,18,950,340
Raw,15,963,340
Raw,25,968,340
Raw,6,973,340
Raw,23,973,340
Raw,22,974,340
Raw,21,974,340
Raw,6,980,340
Raw,7,980,340
Raw,23,985,340
Raw,17,986,340
Raw,18,988,340
Raw,15,988,340
Raw,35,997,340
Raw,6,1000,340
Raw,18,1000,340
Raw,8,1009,340
Raw,10,1015,340
Raw,49,1017,340
Raw,21,1018,340
Raw,5,1018,340
Raw,23,1022,340
Raw,21,1025,340
Raw,38,1029,340
Raw,26,1031,340
Raw,4,1031,340
Raw,15,1035,340
Raw,38,1061,340
Raw,14,1062,340
Raw,23,1066,340
Raw,45,1067,340
Raw,19,1071,340
Raw,28,1074,340
Raw,55,1080,340
Raw,25,1087,340
Raw,22,1088,340
Raw,12,1088,340
Raw,38,1092,340
Raw,15,1097,340
Raw,24,1098,340
Raw,54,1104,340
Raw,20,1115,340
Raw,12,1118,340
Raw,22,1122,340
Raw,11,1122,340
Raw,44,1129,340
Raw,33,1137,340
Raw,33,1142,340
Raw,23,1144,340
Raw,12,1149,340
Raw,9,1149,340
Raw,27,1150,340
Raw,13,1150,340
Raw,22,1160,340
Raw,33,1163,340
Raw,10,1164,340
Raw,30,1168,340
Raw,7,1179,340
Raw,18,1179,340
Raw,9,1179,340
Raw,39,1180,340
Raw,43,1180,340
Raw,50,1184,340
Raw,24,1189,340
Raw,14,1189,340
Raw,12,1193,340
Raw,33,1198,340
Raw,35,1203,340
Raw,22,1212,340
Raw,19,1218,340
Raw,21,1222,340
Raw,36,1226,340
Raw,22,1226,340
Raw,18,1227,340
Raw,9,1228,340
Raw,15,1228,340
Raw,31,1232,340
Raw,9,1233,340
Raw,6,1233,340
Raw,31,1238,340
Raw,16,1238,340
Raw,33,1243,340
Raw,13,1252,340
Raw,15,1256,340
Raw,15,1256,340
Raw,13,1257,340
Raw,17,1259,340
Raw,11,1260,340
Raw,14,1262,340
Raw,15,1262,340
Raw,10,1266,340
Raw,13,1266,340
Raw,20,1287,340
Raw,15,1287,340
Raw,17,1296,340
Raw,43,1300,340
Raw,36,1305,340
Raw,21,1308,340
Raw,12,1308,340
Raw,13,1341,340
Raw,17,1341,340
Raw,18,1346,340
Raw,16,1368,340
Raw,23,1373,340
Raw,18,1375,340
Raw,18,1378,340
Raw,20,1378,340
Raw,21,1386,340
Raw,62,1387,340
Raw,62,1390,340
Raw,16,1396,340
Raw,18,1399,340
Raw,27,1400,340
Raw,13,1405,340
Raw,46,1408,340
Raw,45,1414,340
Raw,22,1416,340
Raw,23,1418,340
Raw,23,1419,340
Raw,15,1431,340
Raw,34,1431,340
Raw,17,1448,340
Raw,57,1454,340
Raw,36,1457,340
Raw,52,1464,340
Raw,41,1477,340
Raw,24,1482,340
Raw,32,1486,340
Raw,15,1489,340
Raw,18,1492,340
Raw,9,1493,340
Raw,14,1494,340
Raw,44,1497,340
Raw,22,1502,340
Raw,21,1505,340
Raw,51,1521,340
Raw,24,1524,340
Raw,24,1529,340
Raw,52,1536,340
Raw,24,1537,340
Raw,22,1553,340
Raw,20,1555,340
Raw,18,1556,340
Raw,15,1559,340
Raw,19,1568,340
Raw,27,1571,340
Raw,6,1571,340
Raw,31,1572,340
Raw,30,1576,340
Raw,15,1577,340
Raw,27,1582,340
Raw,25,1585,340
Raw,21,1585,340
Raw,27,1589,340
Raw,19,1589,340
Raw,22,1591,340
Raw,27,1593,340
Raw,21,1599,340
Raw,10,1599,340
Raw,18,1605,340
Raw,36,1609,340
Raw,20,1610,340
Raw,33,1623,340
Raw,42,1628,340
Raw,14,1629,340
Raw,18,1629,340
Raw,9,1629,340
Raw,20,1634,340
Raw,11,1636,340
Raw,50,1636,340
Raw,22,1639,340
Raw,18,1639,340
Raw,23,1641,340
Raw,26,1650,340
Raw,17,1665,340
Raw,45,1683,340
Raw,28,1689,340
Raw,22,1691,340
Raw,21,1691,340
Raw,29,1694,340
Raw,31,1705,340
Raw,16,1707,340
Raw,18,1708,340
Raw,24,1714,340
Raw,19,1717,340
Raw,16,1719,340
Raw,18,1727,340
Raw,16,1742,340
Raw,30,1749,340
Raw,7,1760,340
Raw,18,1761,340
Raw,22,1761,340
Raw,24,1768,340
Raw,27,1770,340
Raw,55,1780,340
Raw,13,1785,340
Raw,13,1787,340
Raw,8,1797,340
Raw,18,1798,340
Raw,17,1798,340
Raw,11,1800,340
Raw,44,1807,340
Raw,48,1818,340
Raw,14,1821,340
Raw,16,1825,340
Raw,53,1827,340
Raw,33,1827,340
Raw,14,1831,340
Raw,21,1850,340
Raw,52,1853,340
Raw,39,1860,340
Raw,7,1866,340
Raw,17,1866,340
Raw,22,1867,340
Raw,29,1869,340
Raw,37,1872,340
Raw,35,1884,340
Raw,16,1884,340
Raw,20,1887,340
Raw,23,1888,340
Raw,23,1890,340
Raw,30,1897,340
Raw,37,1904,340
Raw,23,1908,340
Raw,22,1909,340
Raw,21,1910,340
Raw,15,1916,340
Raw,34,1922,340
Raw,19,1925,340
Raw,14,1928,340
Raw,22,1930,340
Raw,38,1933,340
Raw,20,1934,340
Raw,11,1934,340
Raw,17,1941,340
Raw,36,1942,340
Raw,20,1950,340
Raw,15,1955,340
Raw,16,1955,340
Raw,57,1956,340
Raw,23,1957,340
Raw,53,1961,340
Raw,44,1987,340
Raw,57,1998,340
Raw,19,2000,340
Raw,25,2015,340
Raw,32,2019,340
Raw,18,2019,340
Raw,25,2022,340
Raw,24,2025,340
Raw,5,2034,340
Raw,41,2039,340
Raw,20,2041,340
Raw,26,2049,340
Raw,27,2062,340
Raw,18,2062,340
Raw,19,2062,340
Raw,37,2065,340
Raw,21,2065,340
Raw,15,2066,340
Raw,17,2069,340
Raw,22,2079,340
Raw,14,2082,340
Raw,20,2086,340
Raw,20,2099,340
Raw,22,2099,340
Raw,12,2100,340
Raw,37,2103,340
Raw,32,2113,340
Raw,15,2114,340
Raw,15,2120,340
Raw,12,2124,340
Raw,25,2128,340
Raw,34,2133,340
Raw,12,2135,340
Raw,19,2146,340
Raw,17,2149,340
Raw,22,2157,340
Raw,38,2159,340
Raw,28,2165,340
Raw,45,2166,340
Raw,28,2174,340
Raw,18,2177,340
Raw,19,2184,340
Raw,58,2186,340
Raw,20,2192,340
Raw,16,2204,340
Raw,37,2204,340
Raw,22,2218,340
Raw,16,2238,340
Raw,31,2238,340
Raw,15,2245,340
Raw,21,2248,340
Raw,20,2252,340
Raw,17,2256,340
Raw,25,2259,340
Raw,10,2275,340
Raw,17,2275,340
Raw,26,2280,340
Raw,62,2281,340
Raw,33,2284,340
Raw,9,2288,340
Raw,55,2292,340
Raw,31,2299,340
Raw,8,2313,340
Raw,21,2315,340
Raw,25,2320,340
Raw,31,2326,340
Raw,24,2333,340
Raw,35,2338,340
Raw,19,2358,340
Raw,29,2361,340
Raw,12,2366,340
Raw,52,2369,340
Raw,24,2369,340
Raw,30,2377,340
Raw,17,2377,340
Raw,36,2382,340
Raw,38,2389,340
Raw,46,2390,340
Raw,49,2391,340
Raw,17,2394,340
Raw,22,2403,340
Raw,29,2408,340
Raw,30,2409,340
Raw,17,2411,340
Raw,45,2415,340
Raw,15,2419,340
Raw,28,2419,340
Raw,14,2422,340
Raw,11,2430,340
Raw,19,2430,340
Raw,21,2433,340
Raw,43,2440,340
Raw,27,2444,340
Raw,26,2444,340
Raw,45,2445,340
Raw,60,2447,340
Raw,41,2448,340
Raw,28,2452,340
Raw,22,2463,340
Raw,29,2478,340
Raw,38,2479,340
Raw,25,2484,340
Raw,45,2485,340
Raw,62,2496,340
Raw,31,2499,340
Raw,35,2500,340
Raw,23,2509,340
Raw,24,2516,340
Raw,9,2519,340
Raw,18,2527,340
Raw,8,2527,340
Raw,38,2533,340
Raw,19,2533,340
Raw,18,2540,340
Raw,19,2540,340
Raw,6,2541,340
Raw,19,2542,340
Raw,29,2542,340
Raw,22,2545,340
Raw,15,2557,340
Raw,40,2558,340
Raw,17,2562,340
Raw,16,2564,340
Raw,17,2568,340
Raw,38,2573,340
Raw,46,2585,340
Raw,12,2589,340
Raw,20,2590,340
Raw,5,2591,340
Raw,34,2602,340
Raw,9,2613,340
Raw,19,2626,340
Raw,9,2626,340
Raw,20,2642,340
Raw,31,2649,340
Raw,43,2650,340
Raw,21,2655,340
Raw,10,2655,340
Raw,51,2656,340
Raw,25,2668,340
Raw,34,2671,340
Raw,14,2673,340
Raw,25,2680,340
Raw,21,2681,340
Raw,20,2682,340
Raw,15,2687,340
Raw,14,2689,340
Raw,27,2690,340
Raw,12,2691,340
Raw,26,2695,340
Raw,22,2697,340
Raw,56,2699,340
Raw,16,2706,340
Raw,20,2717,340
Raw,58,2717,340
Raw,36,2721,340
Raw,42,2725,340
Raw,42,2725,340
Raw,20,2749,340
Raw,13,2751,340
Raw,13,2751,340
Raw,44,2758,340
Raw,11,2773,340
Raw,12,2776,340
Raw,12,2776,340
Raw,35,2779,340
Raw,18,2783,340
Raw,15,2785,340
Raw,27,2793,340
Raw,17,2798,340
Raw,57,2812,340
Raw,21,2813,340
Raw,5,2815,340
Raw,27,2819,340
Raw,21,2819,340
Raw,6,2824,340
Raw,37,2858,340
Raw,40,2860,340
Raw,18,2860,340
Raw,34,2861,340
Raw,32,2866,340
Raw,15,2871,340
Raw,18,2882,340
Raw,35,2899,340
Raw,17,2900,340
Raw,23,2906,340
Raw,19,2909,340
Raw,18,2909,340
Raw,22,2910,340
Raw,14,2911,340
Raw,17,2915,340
Raw,18,2917,340
Raw,8,2918,340
Raw,25,2920,340
Raw,27,2924,340
Raw,30,2925,340
Raw,46,2932,340
Raw,25,2935,340
Raw,19,2943,340
Raw,23,2946,340
Raw,18,2949,340
Raw,46,2959,340
Raw,20,2959,340
Raw,14,2968,340
Raw,24,2975,340
Raw,14,2977,340
Raw,11,2977,340
Raw,13,2978,340
Raw,19,2986,340
Raw,29,2986,340
Raw,17,2987,340
Raw,39,2987,340
Raw,25,2988,340
Raw,19,2988,340
Raw,42,2989,340
Raw,19,2990,340
Raw,7,2994,340
Raw,49,2994,340
Raw,9,2996,340
Raw,15,3013,340
Raw,17,3013,340
Raw,45,3015,340
Raw,29,3019,340
Raw,16,3019,340
Raw,25,3024,340
Raw,22,3028,340
Raw,21,3028,340
Raw,35,3029,340
Raw,24,3034,340
Raw,24,3048,340
Raw,53,3049,340
Raw,50,3052,340
Raw,25,3054,340
Raw,5,3054,340
Raw,32,3058,340
Raw,21,3072,340
Raw,11,3094,340
Raw,32,3097,340
Raw,15,3101,340
Raw,13,3105,340
Raw,26,3113,340
Raw,16,3115,340
Raw,14,3115,340
Raw,13,3129,340
Raw,20,3129,340
Raw,19,3136,340
Raw,13,3136,340
Raw,16,3138,340
Raw,36,3142,340
Raw,53,3144,340
Raw,41,3149,340
Raw,15,3157,340
Raw,20,3159,340
Raw,17,3162,340
Raw,11,3162,340
Raw,7,3164,340
Raw,24,3166,340
Raw,15,3166,340
Raw,35,3167,340
Raw,18,3186,340
Raw,52,3188,340
Raw,31,3190,340
Raw,33,3194,340
Raw,6,3194,340
Raw,31,3197,340
Raw,33,3198,340
Raw,27,3199,340
Raw,24,3200,340
Raw,19,3200,340
Raw,61,3202,340
Raw,26,3203,340
Raw,21,3212,340
Raw,27,3212,340
Raw,18,3213,340
Raw,30,3219,340
Raw,51,3225,340
Raw,26,3227,340
Raw,20,3231,340
Raw,39,3240,340
Raw,13,3248,340
Raw,19,3249,340
Raw,23,3250,340
Raw,48,3260,340
Raw,12,3266,340
Raw,19,3266,340
Raw,23,3270,340
Raw,16,3275,340
Raw,54,3276,340
Raw,24,3305,340
Raw,19,3308,340
Raw,9,3308,340
Raw,26,3310,340
Raw,11,3310,340
Raw,42,3314,340
Raw,29,3329,340
Raw,22,3331,340
Raw,15,3355,340
Raw,18,3359,340
Raw,14,3359,340
Raw,23,3385,340
Raw,49,3392,340
Raw,23,3395,340
Raw,57,3396,340
Raw,12,3404,340
Raw,48,3405,340
Raw,20,3405,340
Raw,40,3406,340
Raw,28,3406,340
Raw,20,3408,340
Raw,18,3409,340
Raw,20,3427,340
Raw,21,3430,340
Raw,37,3432,340
Raw,23,3436,340
Raw,11,3438,340
Raw,21,3441,340
Raw,20,3449,340
Raw,13,3449,340
Raw,25,3454,340
Raw,21,3458,340
Raw,30,3458,340
Raw,13,3460,340
Raw,23,3463,340
Raw,32,3464,340
Raw,5,3474,340
Raw,23,3475,340
Raw,11,3475,340
Raw,25,3476,340
Raw,34,3478,340
Raw,21,3478,340
Raw,23,3483,340
Raw,8,3499,340
Raw,36,3499,340
Raw,43,3512,340
Raw,12,3513,340
Raw,20,3513,340
Raw,32,3515,340
Raw,15,3515,340
Raw,33,3519,340
Raw,18,3523,340
Raw,13,3523,340
Raw,22,3524,340
Raw,35,3529,340
Raw,21,3544,340
Raw,24,3545,340
Raw,10,3547,340
Raw,13,3551,340
Raw,24,3552,340
Raw,32,3552,340
Raw,18,3552,340
Raw,15,3554,340
Raw,20,3557,340
Raw,29,3561,340
Raw,22,3566,340
Raw,19,3566,340
Raw,41,3579,340
Raw,35,3581,340
Raw,38,3584,340
Raw,16,3591,340
Raw,27,3594,340
Raw,23,3594,340
Raw,14,3595,340
Raw,36,3599,340
Raw,26,3601,340
Raw,12,3613,340
Raw,19,3616,340
Raw,17,3616,340
Raw,20,3628,340
Raw,17,3628,340
Raw,25,3634,340
Raw,17,3661,340
Raw,16,3668,340
Raw,57,3677,340
Raw,42,3685,340
Raw,28,3689,340
Raw,15,3702,340
Raw,14,3703,340
Raw,15,3704,340
Raw,24,3705,340
Raw,17,3705,340
Raw,27,3713,340
Raw,16,3715,340
Raw,57,3721,340
Raw,28,3721,340
Raw,26,3725,340
Raw,18,3732,340
Raw,28,3732,340
Raw,25,3738,340
Raw,44,3740,340
Raw,18,3741,340
Raw,28,3741,340
Raw,22,3743,340
Raw,10,3748,340
Raw,5,3752,340
Raw,39,3752,340
Raw,34,3755,340
Raw,20,3758,340
Raw,26,3758,340
Raw,18,3762,340
Raw,15,3772,340
Raw,42,3781,340
Raw,33,3785,340
Raw,22,3794,340
Raw,60,3796,340
Raw,50,3807,340
Raw,5,3810,340
Raw,3,3810,340
Raw,56,3820,340
Raw,21,3820,340
Raw,47,3821,340
Raw,17,3830,340
Raw,3,3830,340
Raw,22,3834,340
Raw,18,3834,340
Raw,36,3837,340
Raw,26,3838,340
Raw,24,3853,340
Raw,17,3854,340
Raw,11,3855,340
Raw,22,3855,340
Raw,30,3855,340
Raw,43,3864,340
Raw,34,3867,340
Raw,9,3869,340
Raw,17,3869,340
Raw,23,3875,340
Raw,20,3879,340
Raw,16,3879,340
Raw,17,3889,340
Raw,4,3889,340
Raw,21,3891,340
Raw,13,3897,340
Raw,34,3902,340
Raw,16,3913,340
Raw,21,3914,340
Raw,23,3921,340
Raw,41,3924,340
Raw,27,3930,340
Raw,23,3930,340
Raw,22,3935,340
Raw,16,3946,340
Raw,14,3955,340
Raw,20,3956,340
Raw,44,3973,340
Raw,15,3973,340
Raw,20,3977,340
Raw,11,3977,340
Raw,25,3978,340
Raw,19,3980,340
Raw,21,3981,340
Raw,22,3982,340
Raw,16,3982,340
Raw,19,3983,340
Raw,58,3990,340
Raw,38,3993,340
Raw,6,3993,340
Raw,18,3994,340
Raw,11,4003,340
Raw,18,4009,340
Raw,15,4012,340
Raw,16,4012,340
Raw,17,4026,340
Raw,27,4027,340
Raw,35,4045,340
Raw,39,4046,340
Raw,21,4049,340
Raw,20,4049,340
Raw,8,4054,340
Raw,21,4063,340
Raw,16,4065,340
Raw,15,4066,340
Raw,46,4071,340
Raw,3,4082,340
Raw,30,4083,340
Raw,21,4083,340
Raw,45,4087,340
Raw,29,4099,340
Raw,16,4099,340
Raw,16,4105,340
Raw,10,4107,340
Raw,33,4113,340
Raw,15,4116,340
Raw,25,4119,340
Raw,26,4119,340
Raw,44,4121,340
Raw,10,4142,340
Raw,17,4146,340
Raw,35,4147,340
Raw,47,4160,340
Raw,11,4162,340
Raw,26,4163,340
Raw,7,4163,340
Raw,16,4166,340
Raw,13,4166,340
Raw,23,4175,340
Raw,21,4192,340
Raw,25,4214,340
Raw,21,4244,340
Raw,41,4244,340
Raw,22,4247,340
Raw,39,4247,340
Raw,11,4248,340
Raw,23,4258,340
Raw,52,4267,340
Raw,19,4271,340
Raw,48,4272,340
Raw,25,4274,340
Raw,8,4274,340
Raw,20,4287,340
Raw,13,4288,340
Raw,31,4293,340
Raw,23,4293,340
Raw,59,4307,340
Raw,37,4313,340
Raw,21,4315,340
Raw,7,4324,340
Raw,36,4328,340
Raw,63,4342,340
Raw,58,4342,340
Raw,13,4343,340
Raw,19,4347,340
Raw,29,4351,340
Raw,24,4351,340
Raw,37,4352,340
Raw,19,4352,340
Raw,23,4353,340
Raw,10,4353,340
Raw,15,4353,340
Raw,21,4367,340
Raw,10,4367,340
Raw,46,4368,340
Raw,30,4376,340
Raw,33,4377,340
Raw,18,4407,340
Raw,27,4407,340
Raw,48,4417,340
Raw,31,4425,340
Raw,42,4430,340
Raw,19,4432,340
Raw,22,4436,340
Raw,14,4436,340
Raw,16,4442,340
Raw,25,4444,340
Raw,14,4449,340
Raw,32,4451,340
Raw,16,4453,340
Raw,18,4455,340
Raw,12,4455,340
Raw,7,4460,340
Raw,62,4463,340
Raw,44,4480,340
Raw,12,4494,340
Raw,13,4496,340
Raw,28,4498,340
Raw,22,4500,340
Raw,59,4510,340
Raw,23,4512,340
Raw,7,4516,340
Raw,23,4528,340
Raw,8,4528,340
Raw,17,4530,340
Raw,26,4530,340
Raw,19,4530,340
Raw,42,4533,340
Raw,20,4535,340
Raw,20,4540,340
Raw,21,4545,340
Raw,26,4548,340
Raw,49,4553,340
Raw,59,4553,340
Raw,18,4562,340
Raw,50,4563,340
Raw,17,4569,340
Raw,18,4588,340
Raw,21,4589,340
Raw,9,4590,340
Raw,25,4595,340
Raw,10,4598,340
Raw,44,4605,340
Raw,25,4606,340
Raw,23,4606,340
Raw,15,4611,340
Raw,19,4613,340
Raw,15,4618,340
Raw,45,4623,340
Raw,8,4623,340
Raw,21,4626,340
Raw,12,4626,340
Raw,15,4627,340
Raw,17,4630,340
Raw,24,4630,340
Raw,21,4659,340
Raw,9,4687,340
Raw,48,4696,340
Raw,18,4698,340
Raw,22,4717,340
Raw,24,4717,340
Raw,40,4718,340
Raw,13,4719,340
Raw,10,4727,340
Raw,17,4727,340
Raw,19,4730,340
Raw,47,4736,340
Raw,14,4740,340
Raw,20,4741,340
Raw,44,4750,340
Raw,23,4757,340
Raw,19,4763,340
Raw,20,4763,340
Raw,7,4765,340
Raw,20,4768,340
Raw,38,4779,340
Raw,24,4790,340
Raw,44,4797,340
Raw,14,4797,340
Raw,17,4804,340
Raw,16,4805,340
Raw,34,4808,340
Raw,13,4810,340
Raw,27,4813,340
Raw,9,4817,340
Raw,48,4817,340
Raw,3,4819,340
Raw,51,4820,340
Raw,13,4820,340
Raw,25,4822,340
Raw,18,4832,340
Raw,20,4832,340
Raw,12,4837,340
Raw,15,4840,340
Raw,28,4840,340
Raw,20,4846,340
Raw,9,4846,340
Raw,14,4852,340
Raw,43,4855,340
Raw,16,4856,340
Raw,12,4858,340
Raw,14,4862,340
Raw,11,4862,340
Raw,18,4867,340
Raw,20,4869,340
Raw,41,4883,340
Raw,17,4886,340
Raw,4,4901,340
Raw,27,4902,340
Raw,18,4906,340
Raw,21,4915,340
Raw,26,4918,340
Raw,31,4918,340
Raw,19,4919,340
Raw,26,4925,340
Raw,10,4926,340
Raw,16,4936,340
Raw,22,4938,340
Raw,29,4944,340
Raw,19,4944,340
Raw,54,4945,340
Raw,28,4952,340
Raw,5,4957,340
Raw,16,4958,340
Raw,15,4958,340
Raw,31,4965,340
Raw,30,4965,340
Raw,17,4970,340
Raw,19,4970,340
Raw,13,4972,340
Raw,56,4975,340
Raw,31,4983,340
Raw,30,4984,340
Raw,13,4984,340
Raw,23,4986,340
Raw,11,4991,340
Raw,49,4992,340
Raw,25,5004,340
Raw,23,5028,340
Raw,47,5029,340
Raw,19,5029,340
Raw,60,5036,340
Raw,21,5040,340
Raw,35,5040,340
Raw,21,5041,340
Raw,41,5044,340
Raw,3,5044,340
Raw,16,5045,340
Raw,41,5048,340
Raw,62,5050,340
Raw,11,5054,340
Raw,32,5060,340
Raw,48,5069,340
Raw,15,5070,340
Raw,26,5076,340
Raw,47,5077,340
Raw,16,5085,340
Raw,29,5095,340
Raw,22,5097,340
Raw,9,5097,340
Raw,3,5108,340
Raw,15,5111,340
Raw,18,5117,340
Raw,16,5123,340
Raw,25,5135,340
Raw,11,5140,340
Raw,27,5145,340
Raw,14,5148,340
Raw,18,5151,340
Raw,8,5154,340
Raw,10,5158,340
Raw,29,5162,340
Raw,25,5162,340
Raw,56,5169,340
Raw,23,5172,340
Raw,20,5174,340
Raw,41,5174,340
Raw,17,5179,340
Raw,52,5183,340
Raw,12,5188,340
Raw,35,5197,340
Raw,15,5204,340
Raw,28,5209,340
Raw,36,5213,340
Raw,15,5216,340
Raw,19,5220,340
Raw,21,5233,340
Raw,16,5233,340
Raw,18,5239,340
Raw,9,5239,340
Raw,28,5240,340
Raw,15,5254,340
Raw,31,5254,340
Raw,32,5267,340
Raw,15,5269,340
Raw,16,5270,340
Raw,25,5275,340
Raw,21,5276,340
Raw,12,5276,340
Raw,17,5280,340
Raw,25,5280,340
Raw,7,5280,340
Raw,19,5282,340
Raw,21,5300,340
Raw,13,5300,340
Raw,20,5301,340
Raw,17,5301,340
Raw,3,5304,340
Raw,19,5304,340
Raw,14,5316,340
Raw,10,5324,340
Raw,13,5337,340
Raw,29,5338,340
Raw,31,5344,340
Raw,31,5350,340
Raw,23,5357,340
Raw,16,5362,340
Raw,13,5363,340
Raw,16,5364,340
Raw,16,5372,340
Raw,23,5374,340
Raw,14,5374,340
Raw,15,5394,340
Raw,54,5407,340
Raw,13,5418,340
Raw,56,5421,340
Raw,19,5424,340
Raw,15,5424,340
Raw,36,5429,340
Raw,7,5438,340
Raw,60,5439,340
Raw,22,5443,340
Raw,36,5445,340
Raw,20,5458,340
Raw,20,5458,340
Raw,16,5458,340
Raw,18,5459,340
Raw,23,5461,340
Raw,25,5465,340
Raw,17,5465,340
Raw,21,5465,340
Raw,34,5483,340
Raw,14,5489,340
Raw,16,5489,340
Raw,26,5498,340
Raw,10,5498,340
Raw,18,5499,340
Raw,20,5500,340
Raw,25,5502,340
Raw,28,5504,340
Raw,37,5506,340
Raw,42,5507,340
Raw,9,5507,340
Raw,25,5515,340
Raw,21,5522,340
Raw,61,5525,340
Raw,29,5526,340
Raw,34,5532,340
Raw,50,5538,340
Raw,23,5542,340
Raw,11,5543,340
Raw,25,5577,340
Raw,23,5579,340
Raw,26,5583,340
Raw,23,5587,340
Raw,14,5588,340
Raw,18,5592,340
Raw,56,5603,340
Raw,23,5610,340
Raw,28,5617,340
Raw,29,5617,340
Raw,15,5621,340
Raw,14,5625,340
Raw,16,5625,340
Raw,26,5630,340
Raw,25,5630,340
Raw,24,5630,340
Raw,35,5631,340
Raw,16,5635,340
Raw,18,5635,340
Raw,6,5637,340
Raw,9,5639,340
Raw,15,5644,340
Raw,16,5655,340
Raw,14,5660,340
Raw,14,5660,340
Raw,16,5662,340
Raw,6,5663,340
Raw,27,5665,340
Raw,12,5666,340
Raw,12,5666,340
Raw,45,5672,340
Raw,28,5674,340
Raw,19,5676,340
Raw,16,5684,340
Raw,19,5689,340
Raw,48,5689,340
Raw,25,5702,340
Raw,31,5709,340
Raw,20,5711,340
Raw,13,5712,340
Raw,33,5712,340
Raw,28,5712,340
Raw,14,5718,340
Raw,21,5723,340
Raw,50,5726,340
Raw,32,5729,340
Raw,26,5734,340
Raw,20,5737,340
Raw,20,5746,340
Raw,18,5747,340
Raw,14,5747,340
Raw,25,5748,340
Raw,34,5755,340
Raw,19,5757,340
Raw,26,5775,340
Raw,11,5777,340
Raw,12,5779,340
Raw,19,5790,340
Raw,36,5798,340
Raw,5,5811,340
Raw,36,5813,340
Raw,6,5814,340
Raw,27,5824,340
Raw,24,5854,340
Raw,17,5873,340
Raw,60,5876,340
Raw,17,5876,340
Raw,21,5877,340
Raw,21,5877,340
Raw,19,5879,340
Raw,23,5879,340
Raw,19,5894,340
Raw,12,5897,340
Raw,39,5899,340
Raw,19,5904,340
Raw,12,5917,340
Raw,20,5918,340
Raw,57,5942,340
Raw,37,5947,340
Raw,18,5953,340
Raw,28,5957,340
Raw,7,5959,340
Raw,23,5962,340
Raw,24,5965,340
Raw,17,5975,340
Raw,19,5979,340
Raw,38,5992,340
Raw,23,5999,340
Raw,32,5999,340
Raw,23,6017,340
Raw,17,6018,340
Raw,20,6022,340
Raw,9,6022,340
Raw,44,6026,340
Raw,23,6030,340
Raw,17,6038,340
Raw,14,6052,340
Raw,27,6053,340
Raw,13,6053,340
Raw,19,6057,340
Raw,33,6057,340
Raw,50,6069,340
Raw,33,6078,340
Raw,7,6078,340
Raw,22,6081,340
Raw,29,6081,340
Raw,10,6086,340
Raw,58,6102,340
Raw,56,6106,340
Raw,23,6118,340
Raw,23,6121,340
Raw,18,6122,340
Raw,15,6124,340
Raw,42,6124,340
Raw,21,6126,340
Raw,16,6134,340
Raw,23,6144,340
Raw,62,6149,340
Raw,24,6150,340
Raw,16,6150,340
Raw,43,6155,340
Raw,58,6160,340
Raw,14,6164,340
Raw,12,6176,340
Raw,21,6176,340
Raw,13,6176,340
Raw,34,6179,340
Raw,32,6180,340
Raw,23,6182,340
Raw,49,6184,340
Raw,21,6201,340
Raw,15,6201,340
Raw,33,6213,340
Raw,24,6217,340
Raw,23,6222,340
Raw,33,6228,340
Raw,14,6228,340
Raw,15,6230,340
Raw,3,6230,340
Raw,28,6236,340
Raw,6,6236,340
Raw,26,6237,340
Raw,18,6246,340
Raw,61,6254,340
Raw,16,6255,340
Raw,39,6260,340
Raw,25,6263,340
Raw,17,6268,340
Raw,40,6271,340
Raw,38,6283,340
Raw,41,6290,340
Raw,21,6292,340
Raw,34,6305,340
Raw,16,6307,340
Raw,3,6310,340
Raw,42,6312,340
Raw,22,6317,340
Raw,13,6318,340
Raw,18,6318,340
Raw,40,6328,340
Raw,10,6328,340
Raw,4,6335,340
Raw,10,6343,340
Raw,57,6346,340
Raw,15,6355,340
Raw,8,6355,340
Raw,25,6357,340
Raw,14,6357,340
Raw,54,6360,340
Raw,37,6362,340
Raw,19,6363,340
Raw,28,6369,340
Raw,41,6370,340
Raw,27,6380,340
Raw,26,6382,340
Raw,45,6392,340
Raw,24,6405,340
Raw,18,6420,340
Raw,17,6422,340
Raw,44,6430,340
Raw,28,6432,340
Raw,10,6433,340
Raw,29,6448,340
Raw,13,6451,340
Raw,12,6457,340
Raw,22,6461,340
Raw,20,6470,340
Raw,26,6490,340
Raw,13,6490,340
Raw,21,6500,340
Raw,17,6500,340
Raw,26,6519,340
Raw,11,6524,340
Raw,49,6526,340
Raw,52,6530,340
Raw,20,6532,340
Raw,12,6532,340
Raw,16,6535,340
Raw,39,6540,340
Raw,21,6545,340
Raw,31,6549,340
Raw,26,6554,340
Raw,20,6557,340
Raw,16,6557,340
Raw,19,6559,340
Raw,4,6563,340
Raw,15,6568,340
Raw,16,6570,340
Raw,24,6576,340
Raw,47,6586,340
Raw,21,6588,340
Raw,8,6592,340
Raw,18,6594,340
Raw,13,6595,340
Raw,8,6597,340
Raw,29,6597,340
Raw,17,6597,340
Raw,11,6604,340
Raw,13,6604,340
Raw,21,6604,340
Raw,17,6606,340
Raw,11,6609,340
Raw,11,6609,340
Raw,5,6614,340
Raw,15,6620,340
Raw,14,6623,340
Raw,29,6625,340
Raw,31,6625,340
Raw,32,6627,340
Raw,16,6628,340
Raw,20,6636,340
Raw,17,6643,340
Raw,18,6652,340
Raw,13,6655,340
Raw,15,6662,340
Raw,23,6668,340
Raw,14,6668,340
Raw,51,6671,340
Raw,21,6673,340
Raw,12,6673,340
Raw,16,6675,340
Raw,25,6675,340
Raw,24,6677,340
Raw,23,6681,340
Raw,37,6681,340
Raw,9,6684,340
Raw,12,6684,340
Raw,29,6701,340
Raw,13,6701,340
Raw,8,6701,340
Raw,22,6706,340
Raw,21,6709,340
Raw,14,6714,340
Raw,19,6718,340
Raw,18,6722,340
Raw,21,6723,340
Raw,20,6723,340
Raw,30,6753,340
Raw,7,6753,340
Raw,51,6762,340
Raw,49,6764,340
Raw,18,6767,340
Raw,30,6768,340
Raw,22,6770,340
Raw,25,6770,340
Raw,21,6771,340
Raw,9,6771,340
Raw,31,6777,340
Raw,34,6778,340
Raw,8,6780,340
Raw,27,6781,340
Raw,33,6782,340
Raw,54,6783,340
Raw,24,6784,340
Raw,20,6789,340
Raw,28,6791,340
Raw,56,6796,340
Raw,20,6807,340
Raw,28,6807,340
Raw,31,6811,340
Raw,10,6813,340
Raw,29,6815,340
Raw,34,6818,340
Raw,34,6824,340
Raw,9,6827,340
Raw,57,6831,340
Raw,24,6837,340
Raw,19,6849,340
Raw,63,6849,340
Raw,17,6853,340
Raw,22,6858,340
Raw,45,6862,340
Raw,15,6867,340
Raw,39,6868,340
Raw,13,6873,340
Raw,15,6873,340
Raw,18,6878,340
Raw,12,6878,340
Raw,38,6879,340
Raw,52,6882,340
Raw,18,6883,340
Raw,20,6886,340
Raw,17,6892,340
Raw,13,6892,340
Raw,22,6896,340
Raw,26,6906,340
Raw,17,6909,340
Raw,25,6913,340
Raw,12,6913,340
Raw,25,6920,340
Raw,26,6924,340
Raw,17,6928,340
Raw,19,6938,340
Raw,34,6943,340
Raw,21,6944,340
Raw,40,6946,340
Raw,46,6957,340
Raw,9,6970,340
Raw,30,6978,340
Raw,16,6983,340
Raw,26,6983,340
Raw,17,6983,340
Raw,48,6985,340
Raw,50,6987,340
Raw,18,6993,340
Raw,49,7005,340
Raw,10,7009,340
Raw,16,7014,340
Raw,45,7015,340
Raw,14,7015,340
Raw,24,7015,340
Raw,23,7020,340
Raw,16,7021,340
Raw,19,7028,340
Raw,23,7034,340
Raw,23,7040,340
Raw,32,7046,340
Raw,37,7046,340
Raw,20,7047,340
Raw,23,7050,340
Raw,15,7056,340
Raw,11,7059,340
Raw,49,7074,340
Raw,7,7077,340
Raw,50,7085,340
Raw,18,7087,340
Raw,32,7087,340
Raw,21,7106,340
Raw,23,7109,340
Raw,19,7112,340
Raw,12,7114,340
Raw,15,7114,340
Raw,34,7118,340
Raw,9,7119,340
Raw,32,7123,340
Raw,18,7125,340
Raw,23,7125,340
Raw,11,7136,340
Raw,32,7139,340
Raw,21,7153,340
Raw,23,7160,340
Raw,21,7161,340
Raw,21,7165,340
Raw,22,7166,340
Raw,19,7166,340
Raw,22,7168,340
Raw,43,7168,340
Raw,18,7170,340
Raw,14,7174,340
Raw,31,7177,340
Raw,20,7177,340
Raw,52,7187,340
Raw,6,7187,340
Raw,21,7190,340
Raw,33,7195,340
Raw,33,7201,340
Raw,12,7201,340
Raw,9,7214,340
Raw,25,7218,340
Raw,51,7221,340
Raw,49,7225,340
Raw,22,7232,340
Raw,15,7233,340
Raw,11,7238,340
Raw,37,7238,340
Raw,25,7240,340
Raw,29,7240,340
Raw,23,7244,340
Raw,23,7245,340
Raw,19,7248,340
Raw,26,7256,340
Raw,39,7268,340
Raw,17,7287,340
Raw,28,7288,340
Raw,22,7291,340
Raw,43,7299,340
Raw,36,7304,340
Raw,30,7307,340
Raw,16,7307,340
Raw,9,7310,340
Raw,20,7313,340
Raw,17,7313,340
Raw,20,7323,340
Raw,34,7325,340
Raw,12,7325,340
Raw,24,7332,340
Raw,19,7332,340
Raw,38,7334,340
Raw,24,7342,340
Raw,11,7372,340
Raw,33,7381,340
Raw,23,7390,340
Raw,17,7393,340
Raw,28,7395,340
Raw,14,7395,340
Raw,20,7396,340
Raw,12,7397,340
Raw,16,7405,340
Raw,55,7410,340
Raw,23,7414,340
Raw,35,7414,340
Raw,32,7418,340
Raw,20,7420,340
Raw,32,7423,340
Raw,28,7425,340
Raw,14,7436,340
Raw,42,7440,340
Raw,11,7440,340
Raw,21,7443,340
Raw,7,7443,340
Raw,36,7444,340
Raw,16,7444,340
Raw,28,7445,340
Raw,20,7454,340
Raw,23,7459,340
Raw,26,7468,340
Raw,24,7468,340
Raw,39,7469,340
Raw,51,7470,340
Raw,45,7474,340
Raw,15,7478,340
Raw,28,7478,340
Raw,53,7482,340
Raw,13,7482,340
Raw,22,7485,340
Raw,23,7485,340
Raw,40,7486,340
Raw,24,7487,340
Raw,20,7489,340
Raw,50,7493,340
Raw,17,7496,340
Raw,24,7497,340
Raw,10,7497,340
Raw,36,7507,340
Raw,41,7513,340
Raw,38,7514,340
Raw,14,7520,340
Raw,22,7521,340
Raw,16,7533,340
Raw,28,7537,340
Raw,46,7546,340
Raw,15,7548,340
Raw,13,7550,340
Raw,43,7550,340
Raw,33,7554,340
Raw,44,7561,340
Raw,21,7570,340
Raw,31,7592,340
Raw,33,7595,340
Raw,15,7601,340
Raw,19,7606,340
Raw,17,7609,340
Raw,39,7620,340
Raw,19,7624,340
Raw,18,7635,340
Raw,16,7640,340
Raw,24,7644,340
Raw,38,7651,340
Raw,48,7659,340
Raw,27,7668,340
Raw,45,7686,340
Raw,28,7696,340
Raw,26,7702,340
Raw,26,7707,340
Raw,30,7717,340
Raw,26,7722,340
Raw,12,7731,340
Raw,31,7731,340
Raw,43,7741,340
Raw,15,7745,340
Raw,16,7745,340
Raw,21,7745,340
Raw,14,7750,340
Raw,27,7760,340
Raw,39,7761,340
Raw,22,7765,340
Raw,59,7765,340
Raw,27,7771,340
Raw,28,7772,340
Raw,12,7778,340
Raw,18,7778,340
Raw,25,7779,340
Raw,46,7779,340
Raw,16,7782,340
Raw,52,7803,340
Raw,56,7809,340
Raw,40,7811,340
Raw,23,7828,340
Raw,29,7836,340
Raw,33,7839,340
Raw,32,7839,340
Raw,53,7845,340
Raw,27,7848,340
Raw,7,7857,340
Raw,49,7861,340
Raw,29,7863,340
Raw,23,7880,340
Raw,16,7880,340
Raw,34,7886,340
Raw,19,7886,340
Raw,10,7887,340
Raw,18,7893,340
Raw,23,7914,340
Raw,22,7914,340
Raw,33,7918,340
Raw,17,7927,340
Raw,25,7930,340
Raw,38,7933,340
Raw,19,7935,340
Raw,15,7935,340
Raw,18,7936,340
Raw,18,7941,340
Raw,18,7942,340
Raw,22,7945,340
Raw,36,7945,340
Raw,24,7952,340
Raw,17,7967,340
Raw,29,7974,340
Raw,17,7976,340
Raw,17,7976,340
Raw,45,7979,340
Raw,8,7983,340
Raw,21,7996,340
Raw,26,7999,340
Raw,43,8001,340
Raw,12,8006,340
Raw,15,8012,340
Raw,12,8013,340
Raw,27,8017,340
Raw,25,8019,340
Raw,52,8027,340
Raw,20,8032,340
Raw,21,8032,340
Raw,16,8035,340
Raw,32,8060,340
Raw,28,8062,340
Raw,15,8066,340
Raw,9,8072,340
Raw,34,8075,340
Raw,14,8087,340
Raw,20,8089,340
Raw,59,8089,340
Raw,15,8093,340
Raw,3,8093,340
Raw,10,8105,340
Raw,26,8110,340
Raw,23,8114,340
Raw,20,8114,340
Raw,32,8125,340
Raw,39,8133,340
Raw,19,8141,340
Raw,28,8141,340
Raw,16,8149,340
Raw,17,8152,340
Raw,19,8155,340
Raw,15,8162,340
Raw,39,8166,340
Raw,38,8168,340
Raw,43,8186,340
Raw,36,8188,340
Raw,22,8212,340
Raw,20,8213,340
Raw,12,8213,340
Raw,5,8214,340
Raw,19,8214,340
Raw,17,8214,340
Raw,19,8220,340
Raw,15,8220,340
Raw,18,8228,340
Raw,27,8236,340
Raw,10,8240,340
Raw,38,8248,340
Raw,16,8248,340
Raw,23,8249,340
Raw,34,8249,340
Raw,30,8253,340
Raw,15,8254,340
Raw,56,8267,340
Raw,38,8275,340
Raw,8,8277,340
Raw,13,8277,340
Raw,11,8289,340
Raw,46,8290,340
Raw,19,8293,340
Raw,23,8301,340
Raw,14,8301,340
Raw,21,8304,340
Raw,27,8309,340
Raw,48,8312,340
Raw,31,8313,340
Raw,20,8314,340
Raw,30,8319,340
Raw,20,8322,340
Raw,23,8322,340
Raw,26,8327,340
Raw,11,8329,340
Raw,11,8342,340
Raw,20,8352,340
Raw,47,8363,340
Raw,39,8365,340
Raw,10,8372,340
Raw,23,8382,340
Raw,10,8382,340
Raw,12,8388,340
Raw,23,8391,340
Raw,14,8391,340
Raw,29,8392,340
Raw,8,8392,340
Raw,17,8395,340
Raw,13,8395,340
Raw,22,8404,340
Raw,27,8405,340
Raw,19,8405,340
Raw,34,8407,340
Raw,53,8412,340
Raw,3,8423,340
Raw,38,8429,340
Raw,18,8434,340
Raw,35,8434,340
Raw,51,8443,340
Raw,11,8445,340
Raw,22,8449,340
Raw,31,8459,340
Raw,56,8460,340
Raw,43,8479,340
Raw,40,8481,340
Raw,14,8494,340
Raw,60,8496,340
Raw,21,8504,340
Raw,13,8504,340
Raw,23,8506,340
Raw,21,8506,340
Raw,19,8507,340
Raw,22,8515,340
Raw,10,8515,340
Raw,20,8520,340
Raw,20,8522,340
Raw,18,8526,340
Raw,23,8530,340
Raw,50,8530,340
Raw,16,8535,340
Raw,39,8542,340
Raw,13,8546,340
Raw,3,8546,340
Raw,18,8547,340
Raw,14,8547,340
Raw,27,8553,340
Raw,36,8554,340
Raw,20,8557,340
Raw,21,8558,340
Raw,51,8565,340
Raw,38,8572,340
Raw,11,8579,340
Raw,46,8584,340
Raw,7,8585,340
Raw,15,8586,340
Raw,15,8588,340
Raw,22,8591,340
Raw,18,8602,340
Raw,10,8625,340
Raw,24,8651,340
Raw,26,8651,340
Raw,30,8656,340
Raw,14,8665,340
Raw,10,8666,340
Raw,10,8671,340
Raw,53,8673,340
Raw,34,8675,340
Raw,10,8696,340
Raw,40,8700,340
Raw,40,8706,340
Raw,17,8709,340
Raw,23,8710,340
Raw,19,8715,340
Raw,27,8719,340
Raw,28,8725,340
Raw,26,8729,340
Raw,18,8729,340
Raw,23,8744,340
Raw,29,8749,340
Raw,13,8752,340
Raw,48,8752,340
Raw,19,8771,340
Raw,8,8771,340
Raw,18,8779,340
Raw,11,8788,340
Raw,26,8789,340
Raw,61,8790,340
Raw,42,8793,340
Raw,52,8800,340
Raw,5,8802,340
Raw,43,8806,340
Raw,49,8825,340
Raw,17,8833,340
Raw,14,8834,340
Raw,13,8834,340
Raw,16,8836,340
Raw,22,8839,340
Raw,18,8845,340
Raw,10,8845,340
Raw,12,8846,340
Raw,19,8846,340
Raw,19,8847,340
Raw,16,8849,340
Raw,17,8857,340
Raw,16,8876,340
Raw,24,8877,340
Raw,40,8882,340
Raw,18,8883,340
Raw,16,8890,340
Raw,25,8894,340
Raw,17,8898,340
Raw,21,8901,340
Raw,12,8905,340
Raw,20,8905,340
Raw,19,8909,340
Raw,19,8911,340
Raw,18,8938,340
Raw,17,8938,340
Raw,8,8940,340
Raw,19,8940,340
Raw,8,8945,340
Raw,25,8948,340
Raw,11,8955,340
Raw,26,8955,340
Raw,27,8956,340
Raw,23,8958,340
Raw,18,8969,340
Raw,11,8972,340
Raw,49,8973,340
Raw,23,8986,340
Raw,12,8987,340
Raw,17,8987,340
Raw,23,8996,340
Raw,6,8996,340
Raw,22,9002,340
Raw,63,9010,340
Raw,30,9012,340
Raw,62,9019,340
Raw,36,9028,340
Raw,13,9046,340
Raw,16,9046,340
Raw,35,9048,340
Raw,43,9050,340
Raw,29,9059,340
Raw,14,9063,340
Raw,34,9069,340
Raw,20,9076,340
Raw,13,9080,340
Raw,52,9081,340
Raw,24,9085,340
Raw,18,9088,340
Raw,32,9096,340
Raw,14,9108,340
Raw,24,9108,340
Raw,26,9108,340
Raw,16,9113,340
Raw,19,9113,340
Raw,17,9116,340
Raw,22,9129,340
Raw,58,9150,340
Raw,24,9155,340
Raw,17,9164,340
Raw,22,9172,340
Raw,7,9181,340
Raw,35,9181,340
Raw,12,9181,340
Raw,19,9183,340
Raw,33,9200,340
Raw,22,9201,340
Raw,23,9204,340
Raw,41,9207,340
Raw,22,9210,340
Raw,16,9215,340
Raw,19,9215,340
Raw,19,9220,340
Raw,24,9220,340
Raw,54,9226,340
Raw,18,9230,340
Raw,30,9231,340
Raw,12,9234,340
Raw,11,9242,340
Raw,16,9244,340
Raw,16,9250,340
Raw,16,9250,340
Raw,10,9254,340
Raw,26,9258,340
Raw,23,9270,340
Raw,32,9270,340
Raw,13,9283,340
Raw,18,9295,340
Raw,23,9295,340
Raw,41,9298,340
Raw,14,9299,340
Raw,39,9313,340
Raw,39,9320,340
Raw,28,9321,340
Raw,31,9322,340
Raw,32,9334,340
Raw,24,9338,340
Raw,26,9344,340
Raw,18,9345,340
Raw,16,9349,340
Raw,46,9353,340
Raw,21,9357,340
Raw,33,9358,340
Raw,22,9361,340
Raw,10,9361,340
Raw,23,9364,340
Raw,29,9365,340
Raw,5,9365,340
Raw,15,9373,340
Raw,31,9378,340
Raw,19,9380,340
Raw,8,9380,340
Raw,23,9384,340
Raw,45,9386,340
Raw,30,9386,340
Raw,5,9388,340
Raw,25,9388,340
Raw,40,9388,340
Raw,34,9393,340
Raw,32,9396,340
Raw,12,9408,340
Raw,14,9426,340
Raw,10,9429,340
Raw,14,9434,340
Raw,27,9436,340
Raw,18,9445,340
Raw,14,9451,340
Raw,14,9454,340
Raw,17,9454,340
Raw,23,9455,340
Raw,23,9461,340
Raw,15,9464,340
Raw,24,9471,340
Raw,35,9472,340
Raw,28,9473,340
Raw,50,9479,340
Raw,49,9484,340
Raw,23,9492,340
Raw,25,9493,340
Raw,27,9503,340
Raw,13,9510,340
Raw,29,9513,340
Raw,29,9528,340
Raw,54,9533,340
Raw,44,9538,340
Raw,17,9543,340
Raw,7,9548,340
Raw,19,9548,340
Raw,18,9555,340
Raw,49,9563,340
Raw,20,9577,340
Raw,22,9577,340
Raw,35,9588,340
Raw,11,9590,340
Raw,18,9592,340
Raw,27,9594,340
Raw,24,9596,340
Raw,16,9597,340
Raw,37,9597,340
Raw,55,9607,340
Raw,15,9610,340
Raw,13,9611,340
Raw,48,9611,340
Raw,17,9614,340
Raw,9,9623,340
Raw,5,9625,340
Raw,14,9626,340
Raw,29,9637,340
Raw,16,9645,340
Raw,43,9646,340
Raw,18,9647,340
Raw,13,9651,340
Raw,22,9655,340
Raw,18,9660,340
Raw,18,9660,340
Raw,59,9661,340
Raw,8,9662,340
Raw,39,9667,340
Raw,18,9674,340
Raw,5,9674,340
Raw,21,9674,340
Raw,17,9680,340
Raw,25,9680,340
Raw,21,9681,340
Raw,60,9682,340
Raw,25,9689,340
Raw,59,9691,340
Raw,19,9694,340
Raw,23,9695,340
Raw,46,9707,340
Raw,19,9708,340
Raw,22,9708,340
Raw,18,9717,340
Raw,21,9725,340
Raw,20,9726,340
Raw,12,9726,340
Raw,17,9726,340
Raw,21,9729,340
Raw,15,9737,340
Raw,21,9744,340
Raw,13,9744,340
Raw,21,9751,340
Raw,48,9766,340
Raw,16,9767,340
Raw,44,9767,340
Raw,8,9771,340
Raw,28,9772,340
Raw,45,9773,340
Raw,30,9778,340
Raw,9,9785,340
Raw,20,9788,340
Raw,24,9791,340
Raw,9,9791,340
Raw,24,9794,340
Raw,27,9794,340
Raw,27,9802,340
Raw,36,9806,340
Raw,40,9815,340
Raw,16,9815,340
Raw,10,9816,340
Raw,45,9818,340
Raw,34,9822,340
Raw,22,9829,340
Raw,28,9829,340
Raw,27,9830,340
Raw,33,9831,340
Raw,15,9831,340
Raw,18,9837,340
Raw,13,9838,340
Raw,11,9851,340
Raw,13,9859,340
Raw,26,9872,340
Raw,12,9872,340
Raw,15,9874,340
Raw,15,9877,340
Raw,42,9883,340
Raw,61,9885,340
Raw,30,9885,340
Raw,24,9894,340
Raw,29,9902,340
Raw,18,9903,340
Raw,39,9904,340
Raw,17,9905,340
Raw,61,9905,340
Raw,25,9906,340
Raw,24,9923,340
Raw,21,9924,340
Raw,15,9924,340
Raw,13,9925,340
Raw,6,9928,340
Raw,18,9930,340
Raw,18,9937,340
Raw,26,9938,340
Raw,19,9940,340
Raw,51,9940,340
Raw,26,9942,340
Raw,13,9951,340
Raw,15,9953,340
Raw,10,9968,340
Raw,36,9974,340
Raw,24,9980,340
Raw,23,9987,340
Raw,12,9987,340
Raw,14,10000,340
Raw,13,10003,340
Raw,43,10004,340
Raw,27,10008,340
Raw,8,10008,340
Raw,26,10037,340
Raw,21,10043,340
Raw,13,10049,340
Raw,4,10051,340
Raw,17,10055,340
Raw,14,10055,340
Raw,8,10055,340
Raw,54,10065,340
Raw,20,10065,340
Raw,29,10068,340
Raw,16,10068,340
Raw,25,10070,340
Raw,29,10074,340
Raw,40,10075,340
Raw,56,10078,340
Raw,34,10088,340
Raw,15,10088,340
Raw,50,10091,340
Raw,19,10102,340
Raw,25,10104,340
Raw,18,10105,340
Raw,28,10105,340
Raw,20,10108,340
Raw,4,10123,340
Raw,14,10135,340
Raw,33,10141,340
Raw,21,10141,340
Raw,45,10144,340
Raw,9,10144,340
Raw,13,10146,340
Raw,53,10149,340
Raw,22,10159,340
Raw,16,10159,340
Raw,51,10164,340
Raw,20,10168,340
Raw,21,10171,340
Raw,52,10174,340
Raw,20,10176,340
Raw,46,10176,340
Raw,12,10183,340
Raw,28,10185,340
Raw,40,10188,340
Raw,13,10191,340
Raw,15,10191,340
Raw,12,10194,340
Raw,21,10198,340
Raw,41,10204,340
Raw,6,10208,340
Raw,34,10215,340
Raw,25,10217,340
Raw,19,10217,340
Raw,27,10222,340
Raw,48,10222,340
Raw,21,10223,340
Raw,27,10233,340
Raw,35,10239,340
Raw,13,10247,340
Raw,15,10248,340
Raw,20,10251,340
Raw,28,10265,340
Raw,23,10265,340
Raw,26,10267,340
Raw,18,10267,340
Raw,21,10271,340
Raw,21,10277,340
Raw,29,10284,340
Raw,34,10285,340
Raw,57,10286,340
Raw,21,10287,340
Raw,57,10288,340
Raw,30,10289,340
Raw,31,10289,340
Raw,26,10293,340
Raw,17,10294,340
Raw,8,10297,340
Raw,44,10297,340
Raw,24,10307,340
Raw,15,10307,340
Raw,41,10324,340
Raw,57,10328,340
Raw,10,10333,340
Raw,19,10333,340
Raw,24,10335,340
Raw,46,10337,340
Raw,20,10343,340
Raw,34,10348,340
Raw,21,10354,340
Raw,16,10355,340
Raw,14,10374,340
Raw,15,10379,340
Raw,46,10383,340
Raw,23,10384,340
Raw,15,10384,340
Raw,6,10385,340
Raw,39,10388,340
Raw,24,10391,340
Raw,45,10394,340
Raw,28,10395,340
Raw,12,10395,340
Raw,61,10396,340
Raw,13,10396,340
Raw,24,10397,340
Raw,16,10397,340
Raw,63,10399,340
Raw,63,10409,340
Raw,21,10415,340
Raw,20,10415,340
Raw,17,10425,340
Raw,11,10426,340
Raw,19,10427,340
Raw,24,10432,340
Raw,24,10433,340
Raw,46,10434,340
Raw,58,10444,340
Raw,24,10446,340
Raw,14,10453,340
Raw,23,10454,340
Raw,24,10456,340
Raw,21,10464,340
Raw,4,10464,340
Raw,26,10467,340
Raw,24,10477,340
Raw,19,10477,340
Raw,7,10477,340
Raw,14,10480,340
Raw,13,10480,340
Raw,22,10485,340
Raw,16,10485,340
Raw,16,10486,340
Raw,63,10490,340
Raw,22,10496,340
Raw,21,10502,340
Raw,6,10502,340
Raw,17,10516,340
Raw,14,10516,340
Raw,29,10519,340
Raw,16,10524,340
Raw,26,10525,340
Raw,14,10532,340
Raw,30,10535,340
Raw,13,10535,340
Raw,27,10540,340
Raw,36,10540,340
Raw,29,10542,340
Raw,21,10548,340
Raw,17,10548,340
Raw,13,10557,340
Raw,15,10557,340
Raw,22,10557,340
Raw,13,10562,340
Raw,18,10562,340
Raw,11,10562,340
Raw,4,10570,340
Raw,14,10577,340
Raw,14,10577,340
Raw,57,10589,340
Raw,29,10589,340
Raw,54,10621,340
Raw,21,10623,340
Raw,14,10623,340
Raw,12,10624,340
Raw,41,10630,340
Raw,32,10632,340
Raw,5,10632,340
Raw,56,10636,340
Raw,17,10642,340
Raw,54,10654,340
Raw,16,10660,340
Raw,11,10660,340
Raw,21,10667,340
Raw,21,10667,340
Raw,29,10672,340
Raw,52,10679,340
Raw,21,10680,340
Raw,23,10680,340
Raw,14,10683,340
Raw,21,10689,340
Raw,31,10695,340
Raw,20,10700,340
Raw,39,10711,340
Raw,23,10711,340
Raw,31,10712,340
Raw,16,10712,340
Raw,60,10716,340
Raw,8,10725,340
Raw,40,10727,340
Raw,30,10735,340
Raw,22,10740,340
Raw,15,10745,340
Raw,53,10750,340
Raw,31,10751,340
Raw,25,10751,340
Raw,36,10753,340
Raw,19,10754,340
Raw,25,10755,340
Raw,10,10756,340
Raw,33,10756,340
Raw,16,10756,340
Raw,37,10764,340
Raw,21,10764,340
Raw,16,10765,340
Raw,56,10767,340
Raw,24,10769,340
Raw,29,10772,340
Raw,21,10782,340
Raw,11,10788,340
Raw,22,10790,340
Raw,21,10800,340
Raw,26,10804,340
Raw,27,10807,340
Raw,24,10807,340
Raw,13,10815,340
Raw,16,10819,340
Raw,15,10820,340
Raw,28,10820,340
Raw,18,10821,340
Raw,17,10824,340
Raw,21,10827,340
Raw,12,10827,340
Raw,48,10836,340
Raw,31,10844,340
Raw,21,10853,340
Raw,22,10854,340
Raw,34,10855,340
Raw,12,10867,340
Raw,22,10868,340
Raw,25,10872,340
Raw,29,10872,340
Raw,33,10879,340
Raw,35,10881,340
Raw,16,10885,340
Raw,25,10889,340
Raw,39,10889,340
Raw,29,10898,340
Raw,48,10898,340
Raw,19,10898,340
Raw,7,10900,340
Raw,27,10905,340
Raw,11,10906,340
Raw,14,10908,340
Raw,17,10908,340
Raw,11,10911,340
Raw,34,10920,340
Raw,18,10922,340
Raw,10,10925,340
Raw,47,10930,340
Raw,33,10933,340
Raw,28,10959,340
Raw,27,10960,340
Raw,53,10966,340
Raw,25,10974,340
Raw,27,10977,340
Raw,13,10977,340
Raw,31,10979,340
Raw,51,10981,340
Raw,14,10981,340
Raw,16,10987,340
Raw,13,10996,340
Raw,21,11000,340
Raw,20,11003,340
Raw,15,11005,340
Raw,23,11005,340
Raw,28,11005,340
Raw,17,11009,340
Raw,16,11009,340
Raw,21,11015,340
Raw,19,11017,340
Raw,7,11025,340
Raw,14,11042,340
Raw,56,11043,340
Raw,33,11043,340
Raw,34,11046,340
Raw,32,11062,340
Raw,17,11062,340
Raw,16,11064,340
Raw,36,11072,340
Raw,39,11074,340
Raw,19,11077,340
Raw,32,11080,340
Raw,15,11083,340
Raw,48,11084,340
Raw,22,11106,340
Raw,17,11108,340
Raw,40,11118,340
Raw,21,11118,340
Raw,15,11118,340
Raw,16,11120,340
Raw,21,11127,340
Raw,16,11132,340
Raw,25,11139,340
Raw,19,11139,340
Raw,22,11146,340
Raw,25,11149,340
Raw,22,11149,340
Raw,16,11161,340
Raw,30,11169,340
Raw,18,11171,340
Raw,20,11177,340
Raw,53,11182,340
Raw,16,11185,340
Raw,20,11193,340
Raw,12,11195,340
Raw,29,11195,340
Raw,16,11206,340
Raw,22,11207,340
Raw,19,11209,340
Raw,22,11210,340
Raw,6,11218,340
Raw,18,11218,340
Raw,3,11223,340
Raw,27,11227,340
Raw,23,11227,340
Raw,10,11245,340
Raw,5,11255,340
Raw,4,11259,340
Raw,49,11271,340
Raw,46,11273,340
Raw,24,11279,340
Raw,22,11281,340
Raw,22,11284,340
Raw,44,11291,340
Raw,16,11295,340
Raw,16,11297,340
Raw,27,11297,340
Raw,15,11309,340
Raw,21,11314,340
Raw,43,11321,340
Raw,20,11321,340
Raw,29,11322,340
Raw,21,11329,340
Raw,24,11331,340
Raw,25,11332,340
Raw,30,11333,340
Raw,19,11335,340
Raw,38,11336,340
Raw,28,11341,340
Raw,13,11345,340
Raw,15,11349,340
Raw,14,11349,340
Raw,14,11351,340
Raw,16,11351,340
Raw,8,11353,340
Raw,28,11365,340
Raw,7,11365,340
Raw,41,11370,340
Raw,18,11375,340
Raw,18,11376,340
Raw,27,11379,340
Raw,10,11381,340
Raw,51,11383,340
Raw,46,11383,340
Raw,19,11385,340
Raw,45,11391,340
Raw,18,11400,340
Raw,12,11404,340
Raw,15,11417,340
Raw,21,11429,340
Raw,50,11437,340
Raw,17,11439,340
Raw,28,11444,340
Raw,12,11444,340
Raw,3,11447,340
Raw,24,11449,340
Raw,57,11452,340
Raw,17,11466,340
Raw,52,11483,340
Raw,17,11493,340
Raw,20,11499,340
Raw,21,11499,340
Raw,14,11520,340
Raw,19,11528,340
Raw,28,11528,340
Raw,29,11529,340
Raw,10,11530,340
Raw,33,11535,340
Raw,19,11537,340
Raw,12,11537,340
Raw,27,11555,340
Raw,17,11555,340
Raw,36,11559,340
Raw,24,11563,340
Raw,17,11566,340
Raw,24,11570,340
Raw,41,11573,340
Raw,38,11574,340
Raw,53,11585,340
Raw,31,11589,340
Raw,18,11589,340
Raw,20,11594,340
Raw,15,11596,340
Raw,20,11604,340
Raw,18,11615,340
Raw,17,11615,340
Raw,19,11616,340
Raw,23,11618,340
Raw,33,11621,340
Raw,26,11626,340
Raw,61,11635,340
Raw,8,11639,340
Raw,22,11644,340
Raw,14,11644,340
Raw,27,11648,340
Raw,14,11648,340
Raw,20,11650,340
Raw,12,11650,340
Raw,49,11651,340
Raw,42,11657,340
Raw,30,11665,340
Raw,23,11666,340
Raw,48,11677,340
Raw,33,11688,340
Raw,35,11692,340
Raw,19,11706,340
Raw,26,11706,340
Raw,16,11713,340
Raw,17,11718,340
Raw,18,11721,340
Raw,29,11722,340
Raw,24,11723,340
Raw,48,11729,340
Raw,10,11737,340
Raw,17,11745,340
Raw,51,11749,340
Raw,25,11751,340
Raw,10,11752,340
Raw,21,11756,340
Raw,15,11766,340
Raw,23,11775,340
Raw,26,11777,340
Raw,16,11793,340
Raw,25,11793,340
Raw,25,11797,340
Raw,12,11799,340
Raw,18,11801,340
Raw,19,11802,340
Raw,19,11808,340
Raw,57,11811,340
Raw,31,11824,340
Raw,60,11825,340
Raw,14,11826,340
Raw,12,11827,340
Raw,23,11832,340
Raw,28,11845,340
Raw,13,11845,340
Raw,42,11848,340
Raw,29,11880,340
Raw,32,11887,340
Raw,22,11897,340
Raw,42,11899,340
Raw,31,11901,340
Raw,6,11901,340
Raw,26,11917,340
Raw,16,11918,340
Raw,40,11934,340
Raw,61,11935,340
Raw,47,11938,340
Raw,34,11940,340
Raw,13,11956,340
Raw,54,11965,340
Raw,25,11980,340
Raw,59,11986,340
Raw,26,11988,340
Raw,17,11989,340
Raw,26,11989,340
Raw,48,12000,340
Raw,26,12008,340
Raw,50,12019,340
Raw,61,12027,340
Raw,36,12034,340
Raw,22,12035,340
Raw,12,12041,340
Raw,29,12041,340
Raw,21,12043,340
Raw,23,12046,340
Raw,58,12047,340
Raw,17,12048,340
Raw,6,12066,340
Raw,20,12067,340
Raw,34,12068,340
Raw,24,12068,340
Raw,49,12072,340
Raw,14,12077,340
Raw,21,12079,340
Raw,23,12079,340
Raw,21,12081,340
Raw,40,12087,340
Raw,20,12091,340
Raw,30,12091,340
Raw,12,12092,340
Raw,17,12093,340
Raw,33,12093,340
Raw,15,12094,340
Raw,37,12094,340
Raw,28,12102,340
Raw,9,12114,340
Raw,12,12116,340
Raw,34,12118,340
Raw,13,12118,340
Raw,43,12131,340
Raw,13,12133,340
Raw,17,12136,340
Raw,17,12136,340
Raw,42,12149,340
Raw,57,12154,340
Raw,36,12155,340
Raw,45,12156,340
Raw,14,12162,340
Raw,39,12163,340
Raw,25,12171,340
Raw,8,12172,340
Raw,20,12186,340
Raw,26,12191,340
Raw,33,12197,340
Raw,25,12198,340
Raw,22,12200,340
Raw,4,12200,340
Raw,18,12200,340
Raw,33,12201,340
Raw,6,12201,340
Raw,23,12211,340
Raw,18,12229,340
Raw,15,12229,340
Raw,8,12230,340
Raw,5,12244,340
Raw,18,12244,340
Raw,17,12245,340
Raw,14,12249,340
Raw,16,12249,340
Raw,6,12255,340
Raw,15,12266,340
Raw,29,12268,340
Raw,29,12309,340
Raw,21,12312,340
Raw,17,12312,340
Raw,20,12321,340
Raw,49,12325,340
Raw,16,12326,340
Raw,25,12326,340
Raw,37,12329,340
Raw,20,12334,340
Raw,16,12334,340
Raw,14,12343,340
Raw,9,12345,340
Raw,35,12358,340
Raw,21,12361,340
Raw,31,12366,340
Raw,18,12366,340
Raw,34,12379,340
Raw,21,12379,340
Raw,34,12380,340
Raw,22,12386,340
Raw,19,12387,340
Raw,15,12390,340
Raw,9,12396,340
Raw,22,12398,340
Raw,38,12398,340
Raw,12,12400,340
Raw,18,12404,340
Raw,53,12408,340
Raw,28,12425,340
Raw,33,12429,340
Raw,25,12429,340
Raw,40,12430,340
Raw,34,12431,340
Raw,37,12431,340
Raw,11,12443,340
Raw,53,12444,340
Raw,37,12449,340
Raw,26,12463,340
Raw,36,12466,340
Raw,26,12469,340
Raw,20,12470,340
Raw,60,12480,340
Raw,15,12482,340
Raw,17,12483,340
Raw,26,12486,340
Raw,26,12489,340
Raw,26,12495,340
Raw,26,12498,340
Raw,7,12513,340
Raw,37,12513,340
Raw,22,12516,340
Raw,56,12517,340
Raw,42,12527,340
Raw,38,12528,340
Raw,17,12531,340
Raw,21,12537,340
Raw,18,12546,340
Raw,15,12546,340
Raw,31,12558,340
Raw,38,12559,340
Raw,17,12579,340
Raw,17,12582,340
Raw,39,12583,340
Raw,48,12589,340
Raw,24,12589,340
Raw,42,12590,340
Raw,27,12593,340
Raw,8,12593,340
Raw,27,12600,340
Raw,34,12600,340
Raw,17,12601,340
Raw,21,12606,340
Raw,40,12615,340
Raw,3,12617,340
Raw,43,12627,340
Raw,9,12631,340
Raw,7,12631,340
Raw,24,12638,340
Raw,18,12641,340
Raw,7,12641,340
Raw,18,12642,340
Raw,28,12647,340
Raw,30,12649,340
Raw,14,12649,340
Raw,27,12650,340
Raw,48,12651,340
Raw,7,12661,340
Raw,36,12668,340
Raw,7,12679,340
Raw,19,12683,340
Raw,19,12694,340
Raw,17,12703,340
Raw,19,12703,340
Raw,34,12713,340
Raw,28,12713,340
Raw,21,12717,340
Raw,27,12722,340
Raw,19,12739,340
Raw,18,12745,340
Raw,27,12747,340
Raw,30,12750,340
Raw,43,12756,340
Raw,18,12769,340
Raw,15,12780,340
Raw,9,12781,340
Raw,22,12783,340
Raw,11,12788,340
Raw,30,12788,340
Raw,15,12793,340
Raw,13,12797,340
Raw,35,12797,340
Raw,32,12798,340
Raw,46,12800,340
Raw,21,12802,340
Raw,18,12803,340
Raw,42,12803,340
Raw,15,12805,340
Raw,22,12813,340
Raw,20,12813,340
Raw,17,12815,340
Raw,22,12817,340
Raw,55,12828,340
Raw,19,12844,340
Raw,53,12849,340
Raw,11,12851,340
Raw,29,12852,340
Raw,25,12855,340
Raw,5,12865,340
Raw,11,12867,340
Raw,12,12886,340
Raw,18,12900,340
Raw,18,12902,340
Raw,58,12912,340
Raw,18,12921,340
Raw,16,12929,340
Raw,12,12935,340
Raw,23,12936,340
Raw,17,12939,340
Raw,35,12943,340
Raw,26,12946,340
Raw,20,12948,340
Raw,19,12948,340
Raw,20,12972,340
Raw,27,12972,340
Raw,18,12973,340
Raw,29,12975,340
Raw,21,12975,340
Raw,19,12981,340
Raw,8,12981,340
Raw,39,12987,340
Raw,18,13005,340
Raw,18,13013,340
Raw,34,13013,340
Raw,7,13016,340
Raw,33,13023,340
Raw,16,13028,340
Raw,22,13033,340
Raw,9,13033,340
Raw,53,13049,340
Raw,12,13055,340
Raw,21,13058,340
Raw,16,13074,340
Raw,19,13076,340
Raw,55,13077,340
Raw,27,13083,340
Raw,16,13089,340
Raw,27,13089,340
Raw,18,13090,340
Raw,16,13095,340
Raw,30,13098,340
Raw,9,13100,340
Raw,12,13105,340
Raw,5,13105,340
Raw,23,13107,340
Raw,11,13111,340
Raw,15,13114,340
Raw,43,13120,340
Raw,52,13124,340
Raw,21,13126,340
Raw,15,13126,340
Raw,18,13128,340
Raw,24,13128,340
Raw,28,13129,340
Raw,23,13135,340
Raw,21,13141,340
Raw,12,13146,340
Raw,14,13156,340
Raw,15,13160,340
Raw,25,13171,340
Raw,38,13173,340
Raw,20,13178,340
Raw,35,13181,340
Raw,5,13188,340
Raw,26,13195,340
Raw,16,13197,340
Raw,18,13197,340
Raw,40,13206,340
Raw,39,13211,340
Raw,54,13215,340
Raw,6,13219,340
Raw,27,13221,340
Raw,20,13221,340
Raw,15,13229,340
Raw,43,13232,340
Raw,12,13233,340
Raw,10,13235,340
Raw,31,13235,340
Raw,61,13237,340
Raw,31,13245,340
Raw,28,13246,340
Raw,20,13247,340
Raw,25,13251,340
Raw,19,13251,340
Raw,13,13254,340
Raw,58,13256,340
Raw,15,13257,340
Raw,22,13258,340
Raw,23,13262,340
Raw,11,13262,340
Raw,23,13266,340
Raw,14,13280,340
Raw,42,13282,340
Raw,21,13283,340
Raw,29,13290,340
Raw,27,13290,340
Raw,57,13294,340
Raw,19,13295,340
Raw,24,13295,340
Raw,29,13299,340
Raw,22,13309,340
Raw,51,13321,340
Raw,16,13322,340
Raw,20,13323,340
Raw,11,13336,340
Raw,16,13336,340
Raw,27,13339,340
Raw,43,13346,340
Raw,24,13346,340
Raw,17,13350,340
Raw,18,13350,340
Raw,15,13353,340
Raw,46,13356,340
Raw,40,13361,340
Raw,17,13365,340
Raw,39,13367,340
Raw,31,13367,340
Raw,20,13367,340
Raw,19,13376,340
Raw,55,13376,340
Raw,50,13381,340
Raw,19,13382,340
Raw,16,13398,340
Raw,53,13401,340
Raw,21,13402,340
Raw,16,13402,340
Raw,31,13406,340
Raw,54,13414,340
Raw,12,13414,340
Raw,6,13415,340
Raw,29,13419,340
Raw,17,13423,340
Raw,44,13429,340
Raw,18,13430,340
Raw,18,13431,340
Raw,44,13436,340
Raw,30,13437,340
Raw,16,13443,340
Raw,17,13444,340
Raw,8,13452,340
Raw,37,13461,340
Raw,48,13461,340
Raw,22,13462,340
Raw,17,13466,340
Raw,6,13466,340
Raw,15,13471,340
Raw,22,13480,340
Raw,22,13481,340
Raw,11,13481,340
Raw,62,13491,340
Raw,28,13493,340
Raw,42,13493,340
Raw,39,13498,340
Raw,45,13508,340
Raw,19,13524,340
Raw,15,13530,340
Raw,22,13535,340
Raw,53,13552,340
Raw,34,13553,340
Raw,22,13553,340
Raw,28,13556,340
Raw,22,13558,340
Raw,21,13562,340
Raw,42,13564,340
Raw,6,13588,340
Raw,50,13591,340
Raw,33,13599,340
Raw,25,13608,340
Raw,18,13608,340
Raw,25,13612,340
Raw,41,13617,340
Raw,12,13617,340
Raw,27,13621,340
Raw,4,13627,340
Raw,16,13629,340
Raw,21,13631,340
Raw,40,13632,340
Raw,44,13633,340
Raw,42,13639,340
Raw,63,13642,340
Raw,49,13643,340
Raw,33,13661,340
Raw,42,13666,340
Raw,8,13666,340
Raw,20,13668,340
Raw,15,13669,340
Raw,44,13670,340
Raw,28,13673,340
Raw,47,13691,340
Raw,38,13695,340
Raw,26,13696,340
Raw,39,13696,340
Raw,18,13700,340
Raw,16,13700,340
Raw,26,13701,340
Raw,23,13701,340
Raw,19,13702,340
Raw,23,13703,340
Raw,41,13703,340
Raw,33,13704,340
Raw,48,13711,340
Raw,46,13719,340
Raw,22,13721,340
Raw,20,13722,340
Raw,16,13724,340
Raw,31,13726,340
Raw,18,13730,340
Raw,37,13731,340
Raw,21,13735,340
Raw,7,13740,340
Raw,36,13748,340
Raw,18,13759,340
Raw,17,13761,340
Raw,36,13767,340
Raw,18,13780,340
Raw,27,13783,340
Raw,32,13804,340
Raw,21,13804,340
Raw,8,13806,340
Raw,20,13821,340
Raw,15,13822,340
Raw,18,13822,340
Raw,27,13824,340
Raw,14,13825,340
Raw,32,13827,340
Raw,9,13830,340
Raw,48,13835,340
Raw,59,13837,340
Raw,27,13839,340
Raw,33,13841,340
Raw,25,13842,340
Raw,19,13842,340
Raw,9,13851,340
Raw,39,13851,340
Raw,49,13859,340
Raw,23,13860,340
Raw,14,13872,340
Raw,31,13873,340
Raw,52,13875,340
Raw,14,13875,340
Raw,16,13875,340
Raw,29,13876,340
Raw,53,13879,340
Raw,22,13879,340
Raw,50,13886,340
Raw,17,13888,340
Raw,18,13888,340
Raw,5,13893,340
Raw,18,13893,340
Raw,12,13901,340
Raw,14,13901,340
Raw,14,13911,340
Raw,12,13911,340
Raw,46,13913,340
Raw,10,13924,340
Raw,21,13936,340
Raw,7,13937,340
Raw,32,13939,340
Raw,30,13942,340
Raw,13,13955,340
Raw,15,13962,340
Raw,26,13962,340
Raw,22,13964,340
Raw,35,13969,340
Raw,16,13977,340
Raw,13,13979,340
Raw,12,13979,340
Raw,25,13981,340
Raw,43,13985,340
Raw,19,13986,340
Raw,14,13986,340
Raw,19,13988,340
Raw,20,13995,340
Raw,9,14001,340
Raw,13,14006,340
Raw,33,14026,340
Raw,14,14027,340
Raw,31,14029,340
Raw,17,14039,340
Raw,33,14040,340
Raw,51,14042,340
Raw,21,14048,340
Raw,21,14055,340
Raw,12,14055,340
Raw,13,14057,340
Raw,28,14058,340
Raw,6,14059,340
Raw,19,14060,340
Raw,26,14060,340
Raw,32,14064,340
Raw,18,14074,340
Raw,16,14074,340
Raw,11,14075,340
Raw,34,14075,340
Raw,18,14086,340
Raw,24,14086,340
Raw,58,14092,340
Raw,40,14096,340
Raw,21,14106,340
Raw,24,14106,340
Raw,20,14117,340
Raw,43,14127,340
Raw,36,14132,340
Raw,47,14135,340
Raw,29,14140,340
Raw,22,14142,340
Raw,20,14145,340
Raw,21,14145,340
Raw,13,14149,340
Raw,23,14153,340
Raw,14,14155,340
Raw,11,14158,340
Raw,26,14162,340
Raw,19,14170,340
Raw,17,14173,340
Raw,6,14177,340
Raw,29,14191,340
Raw,55,14192,340
Raw,28,14195,340
Raw,25,14198,340
Raw,36,14204,340
Raw,54,14212,340
Raw,54,14214,340
Raw,22,14219,340
Raw,17,14220,340
Raw,34,14223,340
Raw,10,14231,340
Raw,19,14231,340
Raw,60,14238,340
Raw,30,14244,340
Raw,43,14244,340
Raw,62,14248,340
Raw,39,14254,340
Raw,22,14259,340
Raw,30,14259,340
Raw,21,14264,340
Raw,9,14271,340
Raw,10,14271,340
Raw,55,14290,340
Raw,19,14297,340
Raw,13,14298,340
Raw,8,14301,340
Raw,40,14301,340
Raw,20,14303,340
Raw,19,14307,340
Raw,11,14316,340
Raw,30,14316,340
Raw,12,14317,340
Raw,34,14334,340
Raw,20,14334,340
Raw,24,14335,340
Raw,17,14343,340
Raw,21,14345,340
Raw,22,14345,340
Raw,15,14347,340
Raw,21,14347,340
Raw,19,14364,340
Raw,12,14371,340
Raw,15,14383,340
Raw,16,14394,340
Raw,58,14398,340
Raw,33,14411,340
Raw,16,14412,340
Raw,33,14415,340
Raw,23,14415,340
Raw,11,14416,340
Raw,62,14419,340
Raw,20,14424,340
Raw,27,14430,340
Raw,32,14454,340
Raw,42,14457,340
Raw,22,14457,340
Raw,54,14459,340
Raw,49,14462,340
Raw,23,14477,340
Raw,18,14478,340
Raw,9,14479,340
Raw,39,14481,340
Raw,17,14482,340
Raw,19,14482,340
Raw,55,14491,340
Raw,33,14491,340
Raw,14,14507,340
Raw,17,14507,340
Raw,21,14507,340
Raw,27,14513,340
Raw,33,14516,340
Raw,16,14517,340
Raw,26,14519,340
Raw,28,14519,340
Raw,13,14522,340
Raw,33,14533,340
Raw,17,14540,340
Raw,14,14541,340
Raw,12,14541,340
Raw,16,14554,340
Raw,29,14556,340
Raw,31,14557,340
Raw,16,14560,340
Raw,24,14574,340
Raw,35,14575,340
Raw,24,14579,340
Raw,56,14581,340
Raw,27,14587,340
Raw,21,14589,340
Raw,3,14589,340
Raw,20,14594,340
Raw,20,14594,340
Raw,13,14594,340
Raw,10,14595,340
Raw,53,14595,340
Raw,27,14598,340
Raw,15,14602,340
Raw,16,14607,340
Raw,35,14610,340
Raw,62,14615,340
Raw,22,14616,340
Raw,9,14629,340
Raw,22,14636,340
Raw,28,14636,340
Raw,17,14642,340
Raw,30,14643,340
Raw,32,14644,340
Raw,8,14646,340
Raw,19,14659,340
Raw,31,14661,340
Raw,30,14662,340
Raw,40,14668,340
Raw,22,14686,340
Raw,16,14692,340
Raw,17,14697,340
Raw,5,14697,340
Raw,15,14699,340
Raw,14,14699,340
Raw,29,14700,340
Raw,11,14705,340
Raw,20,14705,340
Raw,6,14706,340
Raw,53,14707,340
Raw,38,14707,340
Raw,42,14719,340
Raw,21,14719,340
Raw,16,14725,340
Raw,28,14725,340
Raw,42,14727,340
Raw,17,14734,340
Raw,7,14734,340
Raw,23,14735,340
Raw,6,14752,340
Raw,18,14758,340
Raw,14,14769,340
Raw,16,14775,340
Raw,20,14777,340
Raw,20,14777,340
Raw,27,14781,340
Raw,30,14781,340
Raw,19,14781,340
Raw,25,14782,340
Raw,21,14783,340
Raw,35,14787,340
Raw,29,14790,340
Raw,23,14814,340
Raw,19,14815,340
Raw,10,14815,340
Raw,44,14824,340
Raw,40,14829,340
Raw,26,14832,340
Raw,16,14844,340
Raw,54,14848,340
Raw,11,14859,340
Raw,19,14859,340
Raw,16,14861,340
Raw,20,14866,340
Raw,18,14872,340
Raw,23,14888,340
Raw,15,14891,340
Raw,24,14898,340
Raw,38,14905,340
Raw,55,14913,340
Raw,31,14915,340
Raw,31,14916,340
Raw,5,14921,340
Raw,29,14922,340
Raw,39,14928,340
Raw,3,14933,340
Raw,19,14934,340
Raw,56,14935,340
Raw,40,14938,340
Raw,21,14942,340
Raw,47,14942,340
Raw,11,14948,340
Raw,63,14949,340
Raw,9,14953,340
Raw,4,14955,340
Raw,27,14959,340
Raw,20,14959,340
Raw,21,14960,340
Raw,24,14961,340
Raw,18,14969,340
Raw,19,14971,340
Raw,30,14972,340
Raw,27,14982,340
Raw,29,14982,340
Raw,21,14992,340
Raw,23,14995,340
Raw,24,15008,340
Raw,19,15010,340
Raw,23,15011,340
Raw,26,15015,340
Raw,20,15015,340
Raw,24,15017,340
Raw,23,15017,340
Raw,27,15022,340
Raw,23,15026,340
Raw,7,15031,340
Raw,10,15034,340
Raw,12,15034,340
Raw,21,15039,340
Raw,20,15039,340
Raw,15,15048,340
Raw,27,15050,340
Raw,4,15050,340
Raw,15,15055,340
Raw,41,15057,340
Raw,23,15065,340
Raw,26,15074,340
Raw,18,15081,340
Raw,29,15082,340
Raw,7,15084,340
Raw,13,15085,340
Raw,15,15094,340
Raw,34,15109,340
Raw,17,15112,340
Raw,9,15113,340
Raw,18,15114,340
Raw,36,15114,340
Raw,12,15115,340
Raw,26,15115,340
Raw,3,15115,340
Raw,13,15122,340
Raw,29,15130,340
Raw,6,15130,340
Raw,15,15134,340
Raw,21,15135,340
Raw,37,15150,340
Raw,11,15161,340
Raw,15,15162,340
Raw,54,15163,340
Raw,36,15166,340
Raw,19,15172,340
Raw,27,15176,340
Raw,53,15177,340
Raw,62,15179,340
Raw,24,15181,340
Raw,24,15181,340
Raw,23,15184,340
Raw,12,15197,340
Raw,25,15202,340
Raw,18,15211,340
Raw,14,15217,340
Raw,15,15225,340
Raw,14,15225,340
Raw,22,15240,340
Raw,29,15242,340
Raw,23,15249,340
Raw,35,15258,340
Raw,26,15260,340
Raw,4,15262,340
Raw,8,15263,340
Raw,4,15263,340
Raw,40,15266,340
Raw,15,15266,340
Raw,35,15270,340
Raw,19,15270,340
Raw,34,15271,340
Raw,24,15287,340
Raw,29,15314,340
Raw,21,15317,340
Raw,51,15320,340
Raw,22,15321,340
Raw,42,15327,340
Raw,23,15334,340
Raw,11,15334,340
Raw,50,15341,340
Raw,8,15346,340
Raw,27,15348,340
Raw,27,15348,340
Raw,33,15356,340
Raw,23,15363,340
Raw,6,15363,340
Raw,23,15367,340
Raw,27,15383,340
Raw,57,15387,340
Raw,45,15392,340
Raw,20,15398,340
Raw,12,15408,340
Raw,21,15412,340
Raw,40,15415,340
Raw,31,15426,340
Raw,26,15437,340
Raw,18,15438,340
Raw,31,15441,340
Raw,50,15443,340
Raw,20,15443,340
Raw,13,15446,340
Raw,20,15446,340
Raw,23,15448,340
Raw,10,15451,340
Raw,20,15451,340
Raw,42,15476,340
Raw,12,15476,340
Raw,19,15478,340
Raw,20,15494,340
Raw,13,15494,340
Raw,27,15498,340
Raw,3,15498,340
Raw,16,15508,340
Raw,37,15511,340
Raw,20,15522,340
Raw,30,15523,340
Raw,10,15533,340
Raw,45,15544,340
Raw,53,15552,340
Raw,29,15555,340
Raw,16,15559,340
Raw,35,15564,340
Raw,27,15565,340
Raw,37,15571,340
Raw,15,15576,340
Raw,14,15587,340
Raw,51,15590,340
Raw,22,15606,340
Raw,23,15607,340
Raw,24,15630,340
Raw,22,15632,340
Raw,46,15634,340
Raw,44,15637,340
Raw,22,15644,340
Raw,16,15647,340
Raw,15,15647,340
Raw,21,15651,340
Raw,22,15658,340
Raw,13,15658,340
Raw,16,15680,340
Raw,27,15681,340
Raw,13,15681,340
Raw,30,15684,340
Raw,15,15691,340
Raw,19,15694,340
Raw,24,15702,340
Raw,14,15709,340
Raw,29,15713,340
Raw,51,15714,340
Raw,44,15726,340
Raw,22,15735,340
Raw,10,15735,340
Raw,12,15736,340
Raw,42,15742,340
Raw,18,15743,340
Raw,21,15757,340
Raw,24,15760,340
Raw,52,15771,340
Raw,13,15774,340
Raw,10,15782,340
Raw,19,15783,340
Raw,32,15783,340
Raw,26,15786,340
Raw,14,15787,340
Raw,26,15789,340
Raw,10,15789,340
Raw,24,15796,340
Raw,7,15803,340
Raw,33,15812,340
Raw,15,15812,340
Raw,51,15818,340
Raw,21,15819,340
Raw,17,15822,340
Raw,10,15825,340
Raw,58,15835,340
Raw,19,15838,340
Raw,15,15840,340
Raw,31,15844,340
Raw,37,15851,340
Raw,15,15877,340
Raw,21,15882,340
Raw,14,15882,340
Raw,21,15888,340
Raw,22,15888,340
Raw,4,15896,340
Raw,44,15896,340
Raw,20,15901,340
Raw,63,15903,340
Raw,50,15904,340
Raw,20,15927,340
Raw,42,15929,340
Raw,19,15933,340
Raw,27,15936,340
Raw,18,15936,340
Raw,17,15938,340
Raw,16,15938,340
Raw,29,15947,340
Raw,27,15959,340
Raw,13,15968,340
Raw,14,15969,340
Raw,39,15969,340
Raw,13,15973,340
Raw,32,15974,340
Raw,21,15986,340
Raw,28,15987,340
Raw,39,15997,340
Raw,20,16002,340
Raw,13,16002,340
Raw,58,16014,340
Raw,25,16018,340
Raw,27,16021,340
Raw,28,16044,340
Raw,58,16056,340
Raw,62,16073,340
Raw,29,16078,340
Raw,23,16086,340
Raw,61,16093,340
Raw,23,16103,340
Raw,13,16103,340
Raw,20,16105,340
Raw,48,16115,340
Raw,15,16115,340
Raw,21,16120,340
Raw,32,16120,340
Raw,43,16127,340
Raw,19,16133,340
Raw,27,16133,340
Raw,10,16135,340
Raw,45,16135,340
Raw,18,16141,340
Raw,14,16142,340
Raw,31,16147,340
Raw,18,16156,340
Raw,28,16160,340
Raw,12,16164,340
Raw,24,16169,340
Raw,19,16176,340
Raw,43,16186,340
Raw,16,16190,340
Raw,49,16194,340
Raw,30,16199,340
Raw,15,16202,340
Raw,34,16202,340
Raw,18,16204,340
Raw,7,16204,340
Raw,33,16209,340
Raw,19,16215,340
Raw,9,16232,340
Raw,15,16233,340
Raw,23,16243,340
Raw,17,16247,340
Raw,21,16259,340
Raw,13,16261,340
Raw,25,16279,340
Raw,27,16279,340
Raw,62,16282,340
Raw,25,16291,340
Raw,40,16310,340
Raw,17,16313,340
Raw,17,16314,340
Raw,4,16318,340
Raw,12,16329,340
Raw,54,16330,340
Raw,16,16331,340
Raw,23,16336,340
Raw,20,16341,340
