Cut?,Counts,eventNumber,runNumber
Raw,71,5,337
Raw,76,9,337
Raw,6,11,337
Raw,40,13,337
Raw,27,14,337
Raw,67,17,337
Raw,33,19,337
Raw,16,20,337
Raw,16,39,337
Raw,34,39,337
Raw,47,40,337
Raw,17,43,337
Raw,67,45,337
Raw,73,48,337
Raw,37,55,337
Raw,27,56,337
Raw,43,56,337
Raw,34,63,337
Raw,27,65,337
Raw,71,66,337
Raw,67,66,337
Raw,26,67,337
Raw,46,70,337
Raw,56,79,337
Raw,33,82,337
Raw,19,84,337
Raw,38,88,337
Raw,21,88,337
Raw,14,89,337
Raw,8,94,337
Raw,59,95,337
Raw,20,98,337
Raw,39,101,337
Raw,69,105,337
Raw,42,108,337
Raw,44,109,337
Raw,62,112,337
Raw,42,112,337
Raw,32,114,337
Raw,46,120,337
Raw,10,121,337
Raw,28,125,337
Raw,31,130,337
Raw,36,133,337
Raw,17,136,337
Raw,41,138,337
Raw,41,139,337
Raw,38,140,337
Raw,40,141,337
Raw,80,142,337
Raw,34,145,337
Raw,30,151,337
Raw,56,151,337
Raw,28,157,337
Raw,13,164,337
Raw,34,173,337
Raw,57,176,337
Raw,28,177,337
Raw,45,182,337
Raw,11,185,337
Raw,29,187,337
Raw,12,188,337
Raw,36,188,337
Raw,19,188,337
Raw,60,189,337
Raw,23,190,337
Raw,44,191,337
Raw,14,192,337
Raw,67,200,337
Raw,27,201,337
Raw,45,201,337
Raw,37,206,337
Raw,81,208,337
Raw,28,211,337
Raw,28,220,337
Raw,35,221,337
Raw,28,221,337
Raw,33,222,337
Raw,18,222,337
Raw,31,224,337
Raw,21,224,337
Raw,31,225,337
Raw,42,229,337
Raw,40,229,337
Raw,10,232,337
Raw,36,233,337
Raw,33,240,337
Raw,60,244,337
Raw,29,251,337
Raw,29,252,337
Raw,15,253,337
Raw,35,259,337
Raw,21,267,337
Raw,63,275,337
Raw,14,279,337
Raw,45,284,337
Raw,65,286,337
Raw,40,288,337
Raw,17,290,337
Raw,39,291,337
Raw,43,291,337
Raw,50,298,337
Raw,39,298,337
Raw,56,300,337
Raw,39,301,337
Raw,60,303,337
Raw,16,303,337
Raw,41,309,337
Raw,57,310,337
Raw,48,314,337
Raw,85,316,337
Raw,61,317,337
Raw,33,326,337
Raw,33,330,337
Raw,24,331,337
Raw,76,333,337
Raw,43,336,337
Raw,34,339,337
Raw,24,339,337
Raw,26,341,337
Raw,38,346,337
Raw,64,352,337
Raw,42,361,337
Raw,16,361,337
Raw,52,362,337
Raw,16,363,337
Raw,51,365,337
Raw,49,369,337
Raw,15,378,337
Raw,42,387,337
Raw,23,389,337
Raw,12,392,337
Raw,31,395,337
Raw,37,395,337
Raw,25,396,337
Raw,35,397,337
Raw,21,398,337
Raw,46,399,337
Raw,33,400,337
Raw,21,401,337
Raw,23,409,337
Raw,40,410,337
Raw,35,415,337
Raw,28,421,337
Raw,38,429,337
Raw,55,430,337
Raw,69,436,337
Raw,11,440,337
Raw,61,442,337
Raw,16,446,337
Raw,90,453,337
Raw,27,465,337
Raw,39,467,337
Raw,28,469,337
Raw,29,471,337
Raw,70,472,337
Raw,61,482,337
Raw,3,482,337
Raw,34,483,337
Raw,81,484,337
Raw,37,489,337
Raw,51,490,337
Raw,51,494,337
Raw,21,504,337
Raw,31,509,337
Raw,28,510,337
Raw,14,513,337
Raw,38,514,337
Raw,18,515,337
Raw,15,518,337
Raw,30,526,337
Raw,50,529,337
Raw,13,535,337
Raw,37,535,337
Raw,11,538,337
Raw,13,542,337
Raw,24,549,337
Raw,49,562,337
Raw,15,566,337
Raw,31,571,337
Raw,16,578,337
Raw,35,579,337
Raw,99,583,337
Raw,36,583,337
Raw,20,585,337
Raw,27,585,337
Raw,26,587,337
Raw,36,588,337
Raw,30,589,337
Raw,41,589,337
Raw,21,589,337
Raw,45,596,337
Raw,30,596,337
Raw,78,598,337
Raw,28,600,337
Raw,11,602,337
Raw,31,608,337
Raw,22,609,337
Raw,49,611,337
Raw,55,613,337
Raw,12,614,337
Raw,14,617,337
Raw,20,619,337
Raw,62,621,337
Raw,37,627,337
Raw,22,628,337
Raw,15,631,337
Raw,62,635,337
Raw,24,636,337
Raw,34,646,337
Raw,25,650,337
Raw,11,650,337
Raw,9,651,337
Raw,76,653,337
Raw,22,656,337
Raw,79,657,337
Raw,19,664,337
Raw,36,667,337
Raw,26,667,337
Raw,14,668,337
Raw,14,670,337
Raw,65,675,337
Raw,41,676,337
Raw,40,680,337
Raw,74,683,337
Raw,30,683,337
Raw,87,692,337
Raw,52,693,337
Raw,45,698,337
Raw,40,704,337
Raw,67,705,337
Raw,48,708,337
Raw,73,711,337
Raw,53,711,337
Raw,36,712,337
Raw,10,715,337
Raw,62,716,337
Raw,36,720,337
Raw,30,728,337
Raw,32,732,337
Raw,40,734,337
Raw,10,737,337
Raw,54,758,337
Raw,39,758,337
Raw,34,760,337
Raw,38,768,337
Raw,45,769,337
Raw,38,771,337
Raw,84,773,337
Raw,28,774,337
Raw,50,775,337
Raw,7,778,337
Raw,31,788,337
Raw,18,788,337
Raw,17,792,337
Raw,36,793,337
Raw,60,796,337
Raw,36,800,337
Raw,55,803,337
Raw,26,803,337
Raw,28,804,337
Raw,76,808,337
Raw,72,809,337
Raw,59,812,337
Raw,50,813,337
Raw,13,813,337
Raw,21,814,337
Raw,56,815,337
Raw,63,818,337
Raw,43,820,337
Raw,79,826,337
Raw,49,829,337
Raw,44,836,337
Raw,26,849,337
Raw,16,849,337
Raw,36,851,337
Raw,34,852,337
Raw,73,854,337
Raw,4,855,337
Raw,63,862,337
Raw,6,862,337
Raw,36,864,337
Raw,18,867,337
Raw,80,871,337
Raw,55,875,337
Raw,26,877,337
Raw,26,878,337
Raw,66,881,337
Raw,46,881,337
Raw,56,888,337
Raw,27,895,337
Raw,49,897,337
Raw,9,898,337
Raw,48,902,337
Raw,16,903,337
Raw,25,905,337
Raw,32,907,337
Raw,6,915,337
Raw,65,916,337
Raw,28,918,337
Raw,34,921,337
Raw,35,924,337
Raw,56,925,337
Raw,16,926,337
Raw,25,926,337
Raw,31,931,337
Raw,33,942,337
Raw,24,942,337
Raw,43,945,337
Raw,78,948,337
Raw,57,949,337
Raw,67,950,337
Raw,19,950,337
Raw,36,964,337
Raw,15,965,337
Raw,36,965,337
Raw,16,973,337
Raw,37,974,337
Raw,90,979,337
Raw,38,980,337
Raw,29,981,337
Raw,36,984,337
Raw,15,986,337
Raw,29,993,337
Raw,23,994,337
Raw,37,997,337
Raw,12,1007,337
Raw,43,1008,337
Raw,18,1009,337
Raw,28,1017,337
Raw,60,1021,337
Raw,37,1022,337
Raw,21,1026,337
Raw,46,1027,337
Raw,23,1031,337
Raw,44,1032,337
Raw,67,1034,337
Raw,41,1040,337
Raw,16,1041,337
Raw,30,1041,337
Raw,47,1047,337
Raw,26,1047,337
Raw,33,1049,337
Raw,26,1053,337
Raw,17,1055,337
Raw,45,1061,337
Raw,83,1062,337
Raw,25,1064,337
Raw,72,1066,337
Raw,12,1066,337
Raw,18,1076,337
Raw,58,1080,337
Raw,34,1081,337
Raw,26,1082,337
Raw,75,1082,337
Raw,44,1083,337
Raw,14,1084,337
Raw,14,1087,337
Raw,29,1090,337
Raw,34,1094,337
Raw,23,1098,337
Raw,15,1098,337
Raw,26,1100,337
Raw,29,1115,337
Raw,66,1118,337
Raw,20,1120,337
Raw,47,1126,337
Raw,52,1127,337
Raw,19,1129,337
Raw,21,1130,337
Raw,32,1133,337
Raw,33,1135,337
Raw,19,1137,337
Raw,10,1139,337
Raw,13,1142,337
Raw,23,1144,337
Raw,35,1144,337
Raw,37,1150,337
Raw,31,1152,337
Raw,62,1160,337
Raw,37,1162,337
Raw,40,1162,337
Raw,22,1167,337
Raw,72,1168,337
Raw,51,1173,337
Raw,38,1177,337
Raw,23,1177,337
Raw,74,1178,337
Raw,40,1179,337
Raw,50,1183,337
Raw,43,1189,337
Raw,42,1190,337
Raw,34,1193,337
Raw,81,1195,337
Raw,82,1196,337
Raw,37,1197,337
Raw,59,1197,337
Raw,15,1214,337
Raw,38,1215,337
Raw,23,1218,337
Raw,23,1219,337
Raw,57,1226,337
Raw,11,1227,337
Raw,7,1228,337
Raw,13,1233,337
Raw,34,1236,337
Raw,20,1236,337
Raw,21,1238,337
Raw,35,1241,337
Raw,25,1241,337
Raw,32,1243,337
Raw,16,1251,337
Raw,82,1251,337
Raw,12,1256,337
Raw,18,1257,337
Raw,62,1259,337
Raw,23,1259,337
Raw,33,1261,337
Raw,15,1261,337
Raw,65,1262,337
Raw,32,1266,337
Raw,15,1267,337
Raw,90,1270,337
Raw,20,1270,337
Raw,44,1275,337
Raw,68,1276,337
Raw,18,1280,337
Raw,23,1280,337
Raw,33,1286,337
Raw,35,1287,337
Raw,28,1297,337
Raw,33,1297,337
Raw,25,1300,337
Raw,65,1303,337
Raw,61,1305,337
Raw,31,1307,337
Raw,11,1309,337
Raw,42,1309,337
Raw,42,1316,337
Raw,14,1321,337
Raw,44,1324,337
Raw,46,1329,337
Raw,41,1332,337
Raw,24,1332,337
Raw,50,1346,337
Raw,33,1348,337
Raw,40,1348,337
Raw,35,1353,337
Raw,60,1357,337
Raw,85,1367,337
Raw,41,1367,337
Raw,39,1375,337
Raw,13,1377,337
Raw,55,1381,337
Raw,17,1383,337
Raw,91,1386,337
Raw,65,1390,337
Raw,34,1395,337
Raw,21,1395,337
Raw,32,1396,337
Raw,72,1399,337
Raw,60,1400,337
Raw,62,1402,337
Raw,45,1404,337
Raw,31,1405,337
Raw,53,1408,337
Raw,45,1418,337
Raw,11,1419,337
Raw,80,1420,337
Raw,20,1424,337
Raw,37,1424,337
Raw,47,1435,337
Raw,65,1436,337
Raw,35,1438,337
Raw,32,1442,337
Raw,44,1442,337
Raw,36,1454,337
Raw,98,1456,337
Raw,90,1466,337
Raw,75,1466,337
Raw,64,1470,337
Raw,51,1473,337
Raw,28,1478,337
Raw,30,1481,337
Raw,35,1481,337
Raw,78,1482,337
Raw,45,1493,337
Raw,13,1494,337
Raw,59,1497,337
Raw,33,1498,337
Raw,35,1500,337
Raw,20,1505,337
Raw,20,1511,337
Raw,78,1519,337
Raw,72,1524,337
Raw,18,1529,337
Raw,40,1529,337
Raw,55,1530,337
Raw,31,1531,337
Raw,67,1536,337
Raw,33,1537,337
Raw,19,1537,337
Raw,40,1538,337
Raw,81,1540,337
Raw,13,1547,337
Raw,58,1548,337
Raw,61,1551,337
Raw,27,1555,337
Raw,34,1561,337
Raw,72,1564,337
Raw,39,1566,337
Raw,5,1567,337
Raw,17,1568,337
Raw,21,1571,337
Raw,15,1571,337
Raw,23,1572,337
Raw,43,1572,337
Raw,49,1575,337
Raw,26,1575,337
Raw,67,1576,337
Raw,25,1580,337
Raw,94,1582,337
Raw,35,1583,337
Raw,35,1585,337
Raw,22,1590,337
Raw,28,1593,337
Raw,34,1596,337
Raw,19,1599,337
Raw,37,1604,337
Raw,31,1605,337
Raw,33,1607,337
Raw,82,1609,337
Raw,39,1610,337
Raw,83,1613,337
Raw,37,1622,337
Raw,33,1622,337
Raw,42,1625,337
Raw,14,1626,337
Raw,40,1628,337
Raw,35,1629,337
Raw,67,1630,337
Raw,59,1634,337
Raw,20,1634,337
Raw,12,1636,337
Raw,67,1640,337
Raw,15,1641,337
Raw,26,1643,337
Raw,13,1643,337
Raw,33,1647,337
Raw,29,1650,337
Raw,36,1651,337
Raw,42,1655,337
Raw,27,1656,337
Raw,59,1661,337
Raw,41,1665,337
Raw,13,1667,337
Raw,21,1668,337
Raw,32,1669,337
Raw,28,1671,337
Raw,12,1671,337
Raw,23,1671,337
Raw,93,1673,337
Raw,58,1674,337
Raw,18,1683,337
Raw,23,1686,337
Raw,11,1686,337
Raw,20,1691,337
Raw,31,1692,337
Raw,29,1692,337
Raw,15,1694,337
Raw,39,1701,337
Raw,41,1706,337
Raw,23,1708,337
Raw,18,1709,337
Raw,21,1710,337
Raw,37,1714,337
Raw,36,1717,337
Raw,57,1719,337
Raw,32,1719,337
Raw,7,1729,337
Raw,70,1731,337
Raw,18,1733,337
Raw,69,1734,337
Raw,15,1743,337
Raw,29,1744,337
Raw,21,1745,337
Raw,36,1745,337
Raw,46,1748,337
Raw,25,1750,337
Raw,39,1752,337
Raw,19,1754,337
Raw,59,1757,337
Raw,11,1757,337
Raw,100,1759,337
Raw,76,1760,337
Raw,50,1761,337
Raw,14,1761,337
Raw,41,1764,337
Raw,34,1767,337
Raw,22,1768,337
Raw,30,1770,337
Raw,51,1772,337
Raw,26,1774,337
Raw,25,1776,337
Raw,95,1779,337
Raw,74,1780,337
Raw,78,1797,337
Raw,32,1798,337
Raw,18,1803,337
Raw,54,1805,337
Raw,30,1807,337
Raw,81,1813,337
Raw,28,1816,337
Raw,8,1818,337
Raw,38,1820,337
Raw,65,1824,337
Raw,55,1825,337
Raw,18,1826,337
Raw,13,1831,337
Raw,63,1832,337
Raw,38,1832,337
Raw,31,1840,337
Raw,18,1842,337
Raw,58,1843,337
Raw,32,1848,337
Raw,39,1850,337
Raw,79,1855,337
Raw,55,1858,337
Raw,89,1864,337
Raw,43,1874,337
Raw,8,1880,337
Raw,23,1880,337
Raw,29,1880,337
Raw,37,1881,337
Raw,25,1885,337
Raw,38,1887,337
Raw,20,1891,337
Raw,39,1892,337
Raw,83,1897,337
Raw,74,1898,337
Raw,72,1899,337
Raw,95,1900,337
Raw,20,1903,337
Raw,29,1904,337
Raw,23,1904,337
Raw,27,1908,337
Raw,10,1908,337
Raw,28,1909,337
Raw,12,1910,337
Raw,47,1910,337
Raw,36,1916,337
Raw,11,1917,337
Raw,21,1922,337
Raw,78,1925,337
Raw,36,1926,337
Raw,60,1930,337
Raw,28,1932,337
Raw,50,1933,337
Raw,41,1935,337
Raw,29,1937,337
Raw,43,1940,337
Raw,33,1941,337
Raw,47,1942,337
Raw,15,1949,337
Raw,59,1949,337
Raw,22,1952,337
Raw,34,1954,337
Raw,58,1955,337
Raw,63,1956,337
Raw,31,1956,337
Raw,27,1957,337
Raw,43,1964,337
Raw,15,1965,337
Raw,20,1970,337
Raw,32,1973,337
Raw,29,1980,337
Raw,64,1983,337
Raw,54,1987,337
Raw,59,1993,337
Raw,21,1993,337
Raw,19,1997,337
Raw,20,2008,337
Raw,63,2010,337
Raw,81,2011,337
Raw,37,2014,337
Raw,55,2015,337
Raw,36,2018,337
Raw,95,2018,337
Raw,17,2019,337
Raw,34,2021,337
Raw,49,2022,337
Raw,56,2025,337
Raw,54,2031,337
Raw,59,2034,337
Raw,20,2040,337
Raw,19,2041,337
Raw,33,2041,337
Raw,26,2043,337
Raw,79,2044,337
Raw,60,2048,337
Raw,63,2051,337
Raw,33,2061,337
Raw,73,2065,337
Raw,12,2066,337
Raw,15,2068,337
Raw,61,2068,337
Raw,24,2072,337
Raw,10,2086,337
Raw,29,2091,337
Raw,36,2094,337
Raw,30,2100,337
Raw,56,2101,337
Raw,30,2101,337
Raw,33,2104,337
Raw,21,2110,337
Raw,14,2112,337
Raw,20,2112,337
Raw,29,2113,337
Raw,100,2114,337
Raw,23,2120,337
Raw,31,2121,337
Raw,31,2122,337
Raw,16,2125,337
Raw,27,2125,337
Raw,24,2129,337
Raw,73,2135,337
Raw,53,2135,337
Raw,21,2136,337
Raw,48,2141,337
Raw,25,2141,337
Raw,15,2143,337
Raw,86,2144,337
Raw,40,2146,337
Raw,20,2151,337
Raw,30,2155,337
Raw,14,2157,337
Raw,15,2157,337
Raw,40,2159,337
Raw,39,2165,337
Raw,35,2166,337
Raw,49,2168,337
Raw,5,2174,337
Raw,14,2174,337
Raw,16,2177,337
Raw,13,2178,337
Raw,16,2182,337
Raw,15,2182,337
Raw,16,2187,337
Raw,11,2188,337
Raw,42,2190,337
Raw,25,2191,337
Raw,48,2192,337
Raw,75,2193,337
Raw,18,2194,337
Raw,53,2194,337
Raw,76,2199,337
Raw,49,2200,337
Raw,18,2201,337
Raw,19,2205,337
Raw,29,2205,337
Raw,25,2213,337
Raw,30,2218,337
Raw,40,2218,337
Raw,53,2223,337
Raw,47,2226,337
Raw,15,2227,337
Raw,61,2234,337
Raw,12,2236,337
Raw,31,2238,337
Raw,22,2239,337
Raw,23,2244,337
Raw,11,2246,337
Raw,16,2247,337
Raw,41,2248,337
Raw,56,2252,337
Raw,33,2254,337
Raw,59,2258,337
Raw,27,2263,337
Raw,41,2267,337
Raw,22,2267,337
Raw,3,2268,337
Raw,31,2271,337
Raw,56,2278,337
Raw,28,2278,337
Raw,20,2280,337
Raw,26,2281,337
Raw,22,2281,337
Raw,29,2292,337
Raw,11,2294,337
Raw,11,2300,337
Raw,40,2303,337
Raw,72,2307,337
Raw,24,2308,337
Raw,56,2315,337
Raw,41,2317,337
Raw,72,2320,337
Raw,92,2324,337
Raw,65,2326,337
Raw,21,2327,337
Raw,31,2328,337
Raw,20,2332,337
Raw,84,2333,337
Raw,70,2334,337
Raw,53,2339,337
Raw,22,2341,337
Raw,37,2347,337
Raw,41,2356,337
Raw,20,2361,337
Raw,34,2366,337
Raw,55,2367,337
Raw,29,2369,337
Raw,47,2370,337
Raw,37,2372,337
Raw,7,2377,337
Raw,23,2380,337
Raw,32,2382,337
Raw,34,2389,337
Raw,29,2390,337
Raw,60,2391,337
Raw,77,2394,337
Raw,65,2395,337
Raw,33,2401,337
Raw,35,2403,337
Raw,15,2408,337
Raw,27,2411,337
Raw,28,2412,337
Raw,17,2415,337
Raw,18,2417,337
Raw,65,2417,337
Raw,52,2419,337
Raw,46,2422,337
Raw,12,2425,337
Raw,40,2430,337
Raw,85,2432,337
Raw,19,2433,337
Raw,42,2433,337
Raw,25,2436,337
Raw,13,2436,337
Raw,20,2440,337
Raw,25,2440,337
Raw,22,2444,337
Raw,12,2445,337
Raw,46,2446,337
Raw,39,2447,337
Raw,73,2452,337
Raw,45,2453,337
Raw,59,2461,337
Raw,16,2466,337
Raw,53,2466,337
Raw,17,2468,337
Raw,42,2478,337
Raw,99,2485,337
Raw,26,2497,337
Raw,90,2500,337
Raw,50,2501,337
Raw,48,2502,337
Raw,44,2503,337
Raw,26,2504,337
Raw,26,2506,337
Raw,20,2507,337
Raw,27,2511,337
Raw,19,2515,337
Raw,49,2516,337
Raw,38,2517,337
Raw,34,2523,337
Raw,57,2524,337
Raw,17,2536,337
Raw,40,2539,337
Raw,11,2541,337
Raw,35,2541,337
Raw,9,2542,337
Raw,31,2545,337
Raw,12,2553,337
Raw,21,2554,337
Raw,11,2556,337
Raw,35,2557,337
Raw,29,2557,337
Raw,41,2558,337
Raw,41,2562,337
Raw,51,2566,337
Raw,71,2569,337
Raw,75,2579,337
Raw,38,2580,337
Raw,44,2581,337
Raw,35,2581,337
Raw,38,2582,337
Raw,19,2585,337
Raw,68,2588,337
Raw,44,2589,337
Raw,10,2590,337
Raw,31,2596,337
Raw,39,2602,337
Raw,26,2604,337
Raw,43,2606,337
Raw,23,2608,337
Raw,20,2610,337
Raw,44,2613,337
Raw,19,2626,337
Raw,19,2629,337
Raw,37,2633,337
Raw,52,2635,337
Raw,33,2636,337
Raw,86,2637,337
Raw,20,2640,337
Raw,37,2640,337
Raw,44,2640,337
Raw,21,2641,337
Raw,36,2642,337
Raw,63,2646,337
Raw,21,2649,337
Raw,61,2650,337
Raw,39,2652,337
Raw,40,2653,337
Raw,63,2655,337
Raw,23,2661,337
Raw,34,2661,337
Raw,8,2670,337
Raw,37,2671,337
Raw,55,2674,337
Raw,64,2677,337
Raw,34,2681,337
Raw,60,2682,337
Raw,56,2682,337
Raw,44,2682,337
Raw,49,2689,337
Raw,3,2690,337
Raw,58,2691,337
Raw,26,2695,337
Raw,60,2702,337
Raw,67,2706,337
Raw,27,2706,337
Raw,50,2708,337
Raw,61,2711,337
Raw,54,2714,337
Raw,7,2715,337
Raw,37,2717,337
Raw,55,2721,337
Raw,59,2722,337
Raw,40,2723,337
Raw,27,2725,337
Raw,19,2726,337
Raw,29,2729,337
Raw,44,2729,337
Raw,50,2732,337
Raw,21,2747,337
Raw,40,2748,337
Raw,37,2751,337
Raw,42,2758,337
Raw,62,2761,337
Raw,36,2765,337
Raw,100,2766,337
Raw,30,2767,337
Raw,46,2768,337
Raw,75,2773,337
Raw,26,2775,337
Raw,36,2776,337
Raw,23,2780,337
Raw,29,2783,337
Raw,18,2785,337
Raw,65,2787,337
Raw,14,2797,337
Raw,46,2804,337
Raw,37,2805,337
Raw,19,2812,337
Raw,35,2812,337
Raw,17,2818,337
Raw,22,2819,337
Raw,37,2822,337
Raw,19,2822,337
Raw,64,2823,337
Raw,62,2826,337
Raw,26,2828,337
Raw,42,2829,337
Raw,37,2830,337
Raw,76,2834,337
Raw,51,2837,337
Raw,26,2840,337
Raw,30,2848,337
Raw,13,2849,337
Raw,49,2850,337
Raw,24,2856,337
Raw,74,2858,337
Raw,60,2859,337
Raw,19,2860,337
Raw,63,2861,337
Raw,58,2866,337
Raw,18,2867,337
Raw,46,2870,337
Raw,89,2872,337
Raw,36,2874,337
Raw,12,2875,337
Raw,7,2877,337
Raw,40,2883,337
Raw,26,2886,337
Raw,45,2900,337
Raw,42,2903,337
Raw,30,2904,337
Raw,19,2908,337
Raw,53,2909,337
Raw,46,2910,337
Raw,36,2911,337
Raw,44,2916,337
Raw,17,2917,337
Raw,24,2918,337
Raw,27,2922,337
Raw,14,2925,337
Raw,48,2926,337
Raw,69,2928,337
Raw,68,2932,337
Raw,28,2933,337
Raw,17,2935,337
Raw,34,2936,337
Raw,79,2938,337
Raw,37,2945,337
Raw,44,2947,337
Raw,49,2947,337
Raw,62,2948,337
Raw,43,2952,337
Raw,31,2955,337
Raw,22,2958,337
Raw,54,2961,337
Raw,31,2962,337
Raw,31,2963,337
Raw,72,2963,337
Raw,16,2963,337
Raw,37,2964,337
Raw,25,2965,337
Raw,46,2966,337
Raw,35,2967,337
Raw,48,2968,337
Raw,34,2969,337
Raw,82,2970,337
Raw,32,2973,337
Raw,26,2973,337
Raw,40,2975,337
Raw,52,2975,337
Raw,47,2976,337
Raw,28,2977,337
Raw,17,2988,337
Raw,23,2991,337
Raw,52,2996,337
Raw,52,3006,337
Raw,62,3010,337
Raw,13,3010,337
Raw,87,3013,337
Raw,22,3015,337
Raw,32,3019,337
Raw,32,3019,337
Raw,62,3029,337
Raw,63,3033,337
Raw,31,3036,337
Raw,31,3036,337
Raw,24,3040,337
Raw,34,3041,337
Raw,56,3046,337
Raw,46,3049,337
Raw,39,3051,337
Raw,70,3052,337
Raw,28,3058,337
Raw,26,3058,337
Raw,30,3058,337
Raw,26,3062,337
Raw,40,3072,337
Raw,34,3076,337
Raw,17,3086,337
Raw,27,3105,337
Raw,67,3111,337
Raw,47,3112,337
Raw,52,3114,337
Raw,55,3116,337
Raw,54,3117,337
Raw,35,3118,337
Raw,51,3122,337
Raw,90,3127,337
Raw,36,3129,337
Raw,23,3136,337
Raw,33,3142,337
Raw,47,3145,337
Raw,21,3157,337
Raw,18,3157,337
Raw,41,3166,337
Raw,82,3178,337
Raw,54,3182,337
Raw,40,3186,337
Raw,22,3188,337
Raw,67,3190,337
Raw,29,3190,337
Raw,38,3192,337
Raw,14,3194,337
Raw,45,3195,337
Raw,19,3196,337
Raw,17,3196,337
Raw,15,3198,337
Raw,25,3199,337
Raw,23,3202,337
Raw,23,3202,337
Raw,41,3203,337
Raw,31,3207,337
Raw,25,3211,337
Raw,49,3212,337
Raw,22,3214,337
Raw,31,3223,337
Raw,59,3227,337
Raw,39,3236,337
Raw,58,3239,337
Raw,8,3240,337
Raw,32,3240,337
Raw,17,3240,337
Raw,14,3242,337
Raw,34,3244,337
Raw,57,3247,337
Raw,40,3247,337
Raw,24,3249,337
Raw,43,3249,337
Raw,39,3250,337
Raw,25,3251,337
Raw,14,3253,337
Raw,14,3256,337
Raw,54,3260,337
Raw,20,3265,337
Raw,43,3266,337
Raw,18,3267,337
Raw,49,3267,337
Raw,35,3270,337
Raw,31,3271,337
Raw,32,3273,337
Raw,26,3288,337
Raw,62,3290,337
Raw,44,3291,337
Raw,40,3291,337
Raw,38,3293,337
Raw,47,3298,337
Raw,38,3305,337
Raw,29,3308,337
Raw,15,3311,337
Raw,45,3316,337
Raw,25,3329,337
Raw,89,3331,337
Raw,23,3331,337
Raw,32,3342,337
Raw,42,3343,337
Raw,65,3346,337
Raw,25,3350,337
Raw,75,3351,337
Raw,22,3356,337
Raw,20,3358,337
Raw,93,3359,337
Raw,15,3362,337
Raw,69,3369,337
Raw,27,3370,337
Raw,71,3371,337
Raw,39,3373,337
Raw,50,3379,337
Raw,30,3390,337
Raw,25,3392,337
Raw,41,3392,337
Raw,68,3394,337
Raw,26,3398,337
Raw,86,3399,337
Raw,19,3404,337
Raw,40,3405,337
Raw,66,3406,337
Raw,22,3408,337
Raw,11,3408,337
Raw,31,3409,337
Raw,27,3409,337
Raw,25,3413,337
Raw,22,3413,337
Raw,37,3416,337
Raw,53,3419,337
Raw,20,3420,337
Raw,34,3421,337
Raw,26,3424,337
Raw,31,3427,337
Raw,38,3428,337
Raw,47,3428,337
Raw,54,3430,337
Raw,74,3436,337
Raw,25,3438,337
Raw,31,3439,337
Raw,23,3442,337
Raw,18,3448,337
Raw,14,3450,337
Raw,38,3452,337
Raw,51,3453,337
Raw,52,3454,337
Raw,22,3459,337
Raw,37,3459,337
Raw,37,3460,337
Raw,35,3463,337
Raw,27,3464,337
Raw,36,3465,337
Raw,28,3466,337
Raw,23,3469,337
Raw,33,3474,337
Raw,10,3474,337
Raw,48,3475,337
Raw,37,3478,337
Raw,27,3481,337
Raw,30,3482,337
Raw,20,3483,337
Raw,29,3486,337
Raw,15,3486,337
Raw,22,3488,337
Raw,54,3488,337
Raw,34,3500,337
Raw,30,3507,337
Raw,65,3508,337
Raw,74,3511,337
Raw,44,3511,337
Raw,42,3512,337
Raw,89,3513,337
Raw,68,3524,337
Raw,60,3525,337
Raw,29,3531,337
Raw,35,3533,337
Raw,25,3537,337
Raw,40,3537,337
Raw,33,3538,337
Raw,56,3544,337
Raw,96,3545,337
Raw,24,3547,337
Raw,66,3549,337
Raw,45,3551,337
Raw,29,3554,337
Raw,44,3558,337
Raw,85,3561,337
Raw,30,3566,337
Raw,38,3566,337
Raw,37,3577,337
Raw,33,3577,337
Raw,24,3579,337
Raw,57,3579,337
Raw,21,3580,337
Raw,10,3581,337
Raw,19,3582,337
Raw,14,3583,337
Raw,33,3585,337
Raw,28,3587,337
Raw,16,3591,337
Raw,79,3593,337
Raw,90,3594,337
Raw,33,3594,337
Raw,27,3595,337
Raw,47,3595,337
Raw,42,3599,337
Raw,14,3600,337
Raw,31,3601,337
Raw,97,3608,337
Raw,82,3609,337
Raw,64,3617,337
Raw,6,3623,337
Raw,14,3626,337
Raw,13,3627,337
Raw,31,3631,337
Raw,15,3634,337
Raw,37,3635,337
Raw,45,3636,337
Raw,63,3637,337
Raw,33,3638,337
Raw,29,3655,337
Raw,38,3656,337
Raw,43,3658,337
Raw,86,3664,337
Raw,88,3668,337
Raw,28,3674,337
Raw,81,3676,337
Raw,39,3677,337
Raw,73,3678,337
Raw,28,3681,337
Raw,32,3682,337
Raw,73,3685,337
Raw,40,3688,337
Raw,16,3689,337
Raw,58,3689,337
Raw,66,3694,337
Raw,43,3697,337
Raw,44,3698,337
Raw,30,3698,337
Raw,15,3698,337
Raw,75,3702,337
Raw,18,3703,337
Raw,57,3705,337
Raw,35,3709,337
Raw,18,3711,337
Raw,91,3713,337
Raw,47,3714,337
Raw,24,3719,337
Raw,32,3725,337
Raw,36,3728,337
Raw,12,3734,337
Raw,18,3734,337
Raw,29,3735,337
Raw,68,3740,337
Raw,88,3741,337
Raw,5,3747,337
Raw,18,3747,337
Raw,18,3748,337
Raw,36,3748,337
Raw,17,3750,337
Raw,26,3750,337
Raw,25,3752,337
Raw,12,3755,337
Raw,34,3755,337
Raw,8,3756,337
Raw,48,3757,337
Raw,40,3758,337
Raw,39,3761,337
Raw,26,3762,337
Raw,17,3763,337
Raw,35,3765,337
Raw,89,3766,337
Raw,23,3772,337
Raw,35,3778,337
Raw,32,3781,337
Raw,62,3783,337
Raw,50,3786,337
Raw,60,3790,337
Raw,29,3792,337
Raw,35,3794,337
Raw,56,3796,337
Raw,37,3801,337
Raw,26,3803,337
Raw,36,3804,337
Raw,92,3815,337
Raw,45,3816,337
Raw,72,3817,337
Raw,73,3819,337
Raw,29,3821,337
Raw,26,3824,337
Raw,38,3830,337
Raw,97,3832,337
Raw,32,3832,337
Raw,9,3838,337
Raw,39,3840,337
Raw,17,3842,337
Raw,77,3853,337
Raw,39,3854,337
Raw,23,3855,337
Raw,74,3862,337
Raw,80,3864,337
Raw,48,3870,337
Raw,59,3871,337
Raw,39,3875,337
Raw,32,3877,337
Raw,35,3889,337
Raw,33,3889,337
Raw,31,3891,337
Raw,30,3896,337
Raw,49,3901,337
Raw,74,3903,337
Raw,36,3903,337
Raw,87,3906,337
Raw,30,3916,337
Raw,34,3919,337
Raw,48,3922,337
Raw,35,3925,337
Raw,35,3929,337
Raw,28,3929,337
Raw,86,3930,337
Raw,9,3931,337
Raw,33,3933,337
Raw,20,3933,337
Raw,55,3934,337
Raw,49,3934,337
Raw,53,3935,337
Raw,23,3942,337
Raw,36,3942,337
Raw,23,3944,337
Raw,56,3948,337
Raw,35,3948,337
Raw,14,3951,337
Raw,20,3952,337
Raw,92,3954,337
Raw,75,3956,337
Raw,49,3966,337
Raw,27,3967,337
Raw,33,3972,337
Raw,22,3973,337
Raw,49,3977,337
Raw,24,3978,337
Raw,21,3981,337
Raw,20,3983,337
Raw,39,3983,337
Raw,44,3987,337
Raw,30,3987,337
Raw,28,3988,337
Raw,22,3990,337
Raw,54,3990,337
Raw,81,3992,337
Raw,27,3994,337
Raw,28,3998,337
Raw,15,3999,337
Raw,69,4003,337
Raw,21,4012,337
Raw,23,4012,337
Raw,19,4012,337
Raw,26,4014,337
Raw,16,4016,337
Raw,25,4018,337
Raw,32,4018,337
Raw,55,4019,337
Raw,26,4021,337
Raw,65,4022,337
Raw,19,4026,337
Raw,5,4027,337
Raw,54,4034,337
Raw,71,4047,337
Raw,34,4048,337
Raw,14,4048,337
Raw,36,4054,337
Raw,63,4054,337
Raw,39,4055,337
Raw,42,4057,337
Raw,92,4059,337
Raw,38,4060,337
Raw,52,4062,337
Raw,19,4062,337
Raw,14,4063,337
Raw,56,4066,337
Raw,41,4067,337
Raw,16,4067,337
Raw,31,4071,337
Raw,18,4078,337
Raw,27,4081,337
Raw,59,4082,337
Raw,69,4083,337
Raw,42,4094,337
Raw,57,4097,337
Raw,35,4097,337
Raw,30,4098,337
Raw,48,4099,337
Raw,19,4106,337
Raw,15,4113,337
Raw,55,4119,337
Raw,74,4120,337
Raw,37,4123,337
Raw,43,4128,337
Raw,63,4129,337
Raw,7,4135,337
Raw,35,4140,337
Raw,50,4140,337
Raw,31,4147,337
Raw,18,4151,337
Raw,31,4151,337
Raw,42,4152,337
Raw,45,4158,337
Raw,41,4158,337
Raw,43,4159,337
Raw,18,4165,337
Raw,30,4166,337
Raw,29,4173,337
Raw,48,4175,337
Raw,64,4182,337
Raw,10,4182,337
Raw,44,4186,337
Raw,31,4193,337
Raw,40,4200,337
Raw,36,4205,337
Raw,38,4207,337
Raw,8,4209,337
Raw,37,4209,337
Raw,33,4211,337
Raw,28,4214,337
Raw,23,4216,337
Raw,68,4222,337
Raw,22,4225,337
Raw,9,4225,337
Raw,19,4227,337
Raw,17,4242,337
Raw,46,4244,337
Raw,25,4247,337
Raw,55,4248,337
Raw,19,4252,337
Raw,32,4257,337
Raw,17,4258,337
Raw,51,4260,337
Raw,51,4261,337
Raw,64,4263,337
Raw,17,4271,337
Raw,40,4272,337
Raw,23,4274,337
Raw,31,4281,337
Raw,46,4282,337
Raw,54,4284,337
Raw,21,4285,337
Raw,87,4286,337
Raw,31,4288,337
Raw,30,4297,337
Raw,32,4297,337
Raw,24,4304,337
Raw,19,4306,337
Raw,57,4307,337
Raw,36,4309,337
Raw,99,4317,337
Raw,13,4324,337
Raw,41,4327,337
Raw,37,4334,337
Raw,37,4336,337
Raw,75,4342,337
Raw,41,4343,337
Raw,53,4344,337
Raw,29,4345,337
Raw,44,4345,337
Raw,8,4347,337
Raw,32,4348,337
Raw,51,4349,337
Raw,93,4351,337
Raw,98,4353,337
Raw,61,4357,337
Raw,26,4357,337
Raw,41,4359,337
Raw,59,4361,337
Raw,23,4362,337
Raw,17,4362,337
Raw,28,4376,337
Raw,20,4378,337
Raw,16,4378,337
Raw,21,4379,337
Raw,49,4387,337
Raw,52,4388,337
Raw,31,4394,337
Raw,67,4402,337
Raw,61,4402,337
Raw,23,4417,337
Raw,49,4429,337
Raw,20,4429,337
Raw,18,4431,337
Raw,33,4432,337
Raw,75,4440,337
Raw,39,4441,337
Raw,46,4442,337
Raw,25,4442,337
Raw,24,4449,337
Raw,58,4451,337
Raw,30,4453,337
Raw,68,4459,337
Raw,38,4460,337
Raw,47,4463,337
Raw,57,4464,337
Raw,25,4480,337
Raw,29,4494,337
Raw,19,4496,337
Raw,61,4498,337
Raw,29,4504,337
Raw,45,4515,337
Raw,49,4516,337
Raw,4,4516,337
Raw,23,4523,337
Raw,20,4523,337
Raw,8,4525,337
Raw,14,4525,337
Raw,33,4528,337
Raw,39,4530,337
Raw,45,4534,337
Raw,20,4535,337
Raw,19,4547,337
Raw,9,4547,337
Raw,19,4548,337
Raw,98,4550,337
Raw,26,4554,337
Raw,41,4558,337
Raw,52,4563,337
Raw,17,4573,337
Raw,47,4575,337
Raw,55,4580,337
Raw,41,4584,337
Raw,26,4586,337
Raw,26,4588,337
Raw,28,4590,337
Raw,79,4593,337
Raw,23,4595,337
Raw,31,4596,337
Raw,19,4599,337
Raw,38,4602,337
Raw,39,4603,337
Raw,60,4603,337
Raw,14,4607,337
Raw,42,4609,337
Raw,16,4609,337
Raw,30,4610,337
Raw,33,4611,337
Raw,12,4613,337
Raw,7,4618,337
Raw,14,4618,337
Raw,15,4618,337
Raw,64,4619,337
Raw,44,4619,337
Raw,25,4626,337
Raw,63,4631,337
Raw,34,4632,337
Raw,55,4637,337
Raw,68,4637,337
Raw,29,4640,337
Raw,14,4640,337
Raw,25,4642,337
Raw,38,4643,337
Raw,36,4643,337
Raw,77,4644,337
Raw,32,4644,337
Raw,41,4647,337
Raw,66,4658,337
Raw,62,4659,337
Raw,57,4665,337
Raw,88,4673,337
Raw,27,4678,337
Raw,7,4682,337
Raw,24,4685,337
Raw,57,4686,337
Raw,23,4687,337
Raw,44,4688,337
Raw,34,4691,337
Raw,29,4691,337
Raw,23,4700,337
Raw,24,4702,337
Raw,30,4702,337
Raw,28,4704,337
Raw,67,4709,337
Raw,25,4714,337
Raw,38,4714,337
Raw,11,4717,337
Raw,46,4718,337
Raw,23,4719,337
Raw,26,4723,337
Raw,18,4727,337
Raw,47,4731,337
Raw,30,4733,337
Raw,51,4735,337
Raw,18,4742,337
Raw,69,4759,337
Raw,29,4763,337
Raw,21,4765,337
Raw,32,4769,337
Raw,33,4771,337
Raw,20,4773,337
Raw,21,4777,337
Raw,38,4786,337
Raw,59,4795,337
Raw,25,4797,337
Raw,27,4802,337
Raw,31,4804,337
Raw,95,4806,337
Raw,38,4810,337
Raw,64,4811,337
Raw,9,4811,337
Raw,17,4813,337
Raw,25,4814,337
Raw,14,4817,337
Raw,40,4819,337
Raw,40,4820,337
Raw,35,4822,337
Raw,24,4826,337
Raw,35,4826,337
Raw,8,4826,337
Raw,17,4831,337
Raw,48,4837,337
Raw,48,4840,337
Raw,21,4843,337
Raw,30,4844,337
Raw,33,4850,337
Raw,29,4855,337
Raw,34,4855,337
Raw,31,4857,337
Raw,41,4857,337
Raw,21,4867,337
Raw,74,4868,337
Raw,27,4871,337
Raw,19,4875,337
Raw,93,4876,337
Raw,81,4883,337
Raw,43,4885,337
Raw,90,4891,337
Raw,16,4900,337
Raw,63,4901,337
Raw,31,4902,337
Raw,19,4906,337
Raw,25,4911,337
Raw,50,4913,337
Raw,29,4918,337
Raw,18,4925,337
Raw,24,4929,337
Raw,20,4936,337
Raw,33,4937,337
Raw,42,4937,337
Raw,55,4941,337
Raw,36,4944,337
Raw,31,4944,337
Raw,24,4945,337
Raw,69,4949,337
Raw,27,4952,337
Raw,17,4955,337
Raw,47,4958,337
Raw,13,4964,337
Raw,67,4964,337
Raw,45,4967,337
Raw,26,4970,337
Raw,75,4971,337
Raw,26,4974,337
Raw,45,4975,337
Raw,26,4983,337
Raw,32,4984,337
Raw,28,4986,337
Raw,17,4987,337
Raw,32,4990,337
Raw,42,4996,337
Raw,77,4999,337
Raw,37,5000,337
Raw,33,5000,337
Raw,31,5006,337
Raw,42,5008,337
Raw,63,5022,337
Raw,42,5028,337
Raw,38,5036,337
Raw,38,5037,337
Raw,5,5037,337
Raw,24,5039,337
Raw,44,5042,337
Raw,21,5045,337
Raw,40,5048,337
Raw,58,5050,337
Raw,67,5054,337
Raw,23,5058,337
Raw,28,5063,337
Raw,34,5077,337
Raw,42,5080,337
Raw,18,5082,337
Raw,79,5085,337
Raw,39,5088,337
Raw,16,5095,337
Raw,31,5097,337
Raw,91,5098,337
Raw,12,5098,337
Raw,34,5100,337
Raw,12,5108,337
Raw,30,5108,337
Raw,46,5110,337
Raw,49,5111,337
Raw,30,5123,337
Raw,23,5123,337
Raw,61,5125,337
Raw,39,5128,337
Raw,11,5135,337
Raw,62,5145,337
Raw,45,5146,337
Raw,35,5148,337
Raw,62,5153,337
Raw,30,5154,337
Raw,28,5158,337
Raw,21,5158,337
Raw,35,5159,337
Raw,21,5159,337
Raw,38,5160,337
Raw,30,5162,337
Raw,56,5165,337
Raw,30,5166,337
Raw,35,5166,337
Raw,16,5169,337
Raw,32,5169,337
Raw,30,5170,337
Raw,26,5170,337
Raw,18,5174,337
Raw,41,5175,337
Raw,11,5175,337
Raw,41,5176,337
Raw,20,5176,337
Raw,46,5177,337
Raw,56,5177,337
Raw,29,5180,337
Raw,94,5182,337
Raw,22,5182,337
Raw,39,5183,337
Raw,56,5187,337
Raw,34,5188,337
Raw,45,5189,337
Raw,46,5195,337
Raw,15,5196,337
Raw,35,5197,337
Raw,47,5199,337
Raw,24,5200,337
Raw,19,5202,337
Raw,51,5203,337
Raw,25,5203,337
Raw,10,5203,337
Raw,20,5209,337
Raw,79,5219,337
Raw,71,5225,337
Raw,21,5225,337
Raw,58,5227,337
Raw,35,5227,337
Raw,68,5233,337
Raw,3,5233,337
Raw,28,5239,337
Raw,38,5240,337
Raw,71,5240,337
Raw,26,5240,337
Raw,35,5242,337
Raw,20,5248,337
Raw,54,5250,337
Raw,24,5252,337
Raw,15,5252,337
Raw,13,5254,337
Raw,28,5254,337
Raw,44,5262,337
Raw,62,5264,337
Raw,57,5267,337
Raw,10,5269,337
Raw,22,5270,337
Raw,62,5272,337
Raw,32,5273,337
Raw,24,5276,337
Raw,58,5276,337
Raw,57,5277,337
Raw,27,5280,337
Raw,22,5282,337
Raw,56,5283,337
Raw,16,5303,337
Raw,25,5303,337
Raw,35,5307,337
Raw,27,5316,337
Raw,82,5318,337
Raw,28,5319,337
Raw,63,5335,337
Raw,33,5338,337
Raw,41,5344,337
Raw,92,5357,337
Raw,8,5358,337
Raw,27,5366,337
Raw,45,5369,337
Raw,29,5373,337
Raw,56,5374,337
Raw,48,5378,337
Raw,26,5384,337
Raw,41,5387,337
Raw,26,5387,337
Raw,21,5390,337
Raw,24,5391,337
Raw,67,5392,337
Raw,26,5396,337
Raw,24,5397,337
Raw,33,5409,337
Raw,40,5409,337
Raw,25,5417,337
Raw,54,5418,337
Raw,75,5421,337
Raw,27,5422,337
Raw,34,5430,337
Raw,24,5431,337
Raw,44,5434,337
Raw,19,5438,337
Raw,18,5444,337
Raw,55,5445,337
Raw,29,5448,337
Raw,62,5453,337
Raw,39,5459,337
Raw,44,5461,337
Raw,63,5463,337
Raw,22,5464,337
Raw,39,5470,337
Raw,34,5472,337
Raw,37,5477,337
Raw,14,5480,337
Raw,90,5483,337
Raw,12,5484,337
Raw,63,5487,337
Raw,92,5492,337
Raw,31,5498,337
Raw,32,5502,337
Raw,98,5506,337
Raw,35,5507,337
Raw,36,5508,337
Raw,46,5514,337
Raw,19,5515,337
Raw,19,5515,337
Raw,42,5517,337
Raw,18,5518,337
Raw,66,5522,337
Raw,96,5532,337
Raw,11,5538,337
Raw,7,5541,337
Raw,45,5542,337
Raw,39,5545,337
Raw,28,5547,337
Raw,52,5565,337
Raw,8,5571,337
Raw,60,5577,337
Raw,14,5579,337
Raw,24,5581,337
Raw,16,5583,337
Raw,73,5584,337
Raw,56,5584,337
Raw,19,5588,337
Raw,60,5588,337
Raw,16,5590,337
Raw,29,5590,337
Raw,22,5592,337
Raw,58,5595,337
Raw,17,5600,337
Raw,25,5606,337
Raw,3,5606,337
Raw,45,5607,337
Raw,71,5610,337
Raw,29,5617,337
Raw,84,5621,337
Raw,28,5623,337
Raw,38,5625,337
Raw,58,5627,337
Raw,35,5627,337
Raw,46,5630,337
Raw,93,5631,337
Raw,31,5635,337
Raw,11,5637,337
Raw,37,5639,337
Raw,46,5644,337
Raw,27,5644,337
Raw,71,5645,337
Raw,37,5647,337
Raw,16,5652,337
Raw,37,5655,337
Raw,40,5659,337
Raw,33,5660,337
Raw,24,5661,337
Raw,28,5661,337
Raw,72,5662,337
Raw,36,5665,337
Raw,15,5666,337
Raw,42,5667,337
Raw,31,5670,337
Raw,15,5671,337
Raw,35,5672,337
Raw,21,5673,337
Raw,45,5676,337
Raw,25,5682,337
Raw,34,5684,337
Raw,10,5686,337
Raw,23,5688,337
Raw,31,5695,337
Raw,36,5702,337
Raw,37,5703,337
Raw,34,5705,337
Raw,26,5709,337
Raw,65,5711,337
Raw,93,5712,337
Raw,28,5715,337
Raw,7,5721,337
Raw,92,5728,337
Raw,4,5737,337
Raw,28,5741,337
Raw,85,5746,337
Raw,74,5747,337
Raw,33,5747,337
Raw,32,5748,337
Raw,31,5750,337
Raw,25,5752,337
Raw,97,5755,337
Raw,52,5756,337
Raw,32,5766,337
Raw,49,5768,337
Raw,22,5770,337
Raw,41,5770,337
Raw,27,5772,337
Raw,52,5775,337
Raw,43,5777,337
Raw,22,5779,337
Raw,46,5782,337
Raw,40,5784,337
Raw,21,5786,337
Raw,18,5787,337
Raw,33,5791,337
Raw,33,5791,337
Raw,49,5795,337
Raw,30,5797,337
Raw,37,5798,337
Raw,84,5800,337
Raw,67,5814,337
Raw,61,5817,337
Raw,24,5821,337
Raw,62,5822,337
Raw,90,5840,337
Raw,27,5846,337
Raw,35,5847,337
Raw,26,5849,337
Raw,11,5854,337
Raw,43,5857,337
Raw,21,5857,337
Raw,41,5859,337
Raw,30,5859,337
Raw,21,5859,337
Raw,24,5861,337
Raw,33,5870,337
Raw,25,5871,337
Raw,35,5877,337
Raw,37,5879,337
Raw,20,5880,337
Raw,50,5880,337
Raw,12,5881,337
Raw,20,5884,337
Raw,34,5885,337
Raw,64,5886,337
Raw,21,5892,337
Raw,29,5894,337
Raw,18,5894,337
Raw,32,5899,337
Raw,19,5901,337
Raw,52,5902,337
Raw,76,5903,337
Raw,94,5908,337
Raw,9,5911,337
Raw,37,5912,337
Raw,35,5913,337
Raw,27,5920,337
Raw,40,5920,337
Raw,31,5921,337
Raw,28,5924,337
Raw,31,5933,337
Raw,26,5934,337
Raw,17,5938,337
Raw,33,5943,337
Raw,64,5946,337
Raw,24,5946,337
Raw,56,5947,337
Raw,31,5948,337
Raw,43,5953,337
Raw,47,5954,337
Raw,30,5957,337
Raw,70,5962,337
Raw,20,5965,337
Raw,34,5970,337
Raw,27,5971,337
Raw,62,5975,337
Raw,22,5979,337
Raw,15,5980,337
Raw,27,5980,337
Raw,40,5986,337
Raw,38,5986,337
Raw,67,5990,337
Raw,31,5992,337
Raw,19,5992,337
Raw,30,5997,337
Raw,53,5999,337
Raw,38,6006,337
Raw,31,6008,337
Raw,74,6012,337
Raw,24,6017,337
Raw,17,6017,337
Raw,64,6018,337
Raw,22,6018,337
Raw,18,6022,337
Raw,28,6032,337
Raw,23,6034,337
Raw,27,6036,337
Raw,92,6038,337
Raw,24,6042,337
Raw,53,6052,337
Raw,37,6057,337
Raw,64,6058,337
Raw,28,6064,337
Raw,47,6065,337
Raw,41,6076,337
Raw,45,6077,337
Raw,12,6078,337
Raw,40,6080,337
Raw,59,6086,337
Raw,33,6095,337
Raw,35,6101,337
Raw,10,6102,337
Raw,58,6113,337
Raw,28,6116,337
Raw,27,6121,337
Raw,54,6123,337
Raw,41,6126,337
Raw,80,6134,337
Raw,46,6137,337
Raw,50,6141,337
Raw,36,6144,337
Raw,11,6144,337
Raw,100,6150,337
Raw,40,6151,337
Raw,35,6154,337
Raw,35,6155,337
Raw,19,6156,337
Raw,40,6171,337
Raw,44,6171,337
Raw,62,6173,337
Raw,60,6174,337
Raw,17,6176,337
Raw,46,6182,337
Raw,34,6184,337
Raw,87,6185,337
Raw,16,6187,337
Raw,20,6193,337
Raw,12,6209,337
Raw,90,6216,337
Raw,33,6216,337
Raw,39,6222,337
Raw,20,6227,337
Raw,4,6236,337
Raw,88,6242,337
Raw,24,6248,337
Raw,42,6255,337
Raw,46,6259,337
Raw,30,6260,337
Raw,37,6260,337
Raw,4,6260,337
Raw,23,6262,337
Raw,52,6265,337
Raw,67,6267,337
Raw,17,6269,337
Raw,33,6271,337
Raw,40,6276,337
Raw,62,6280,337
Raw,42,6281,337
Raw,31,6285,337
Raw,35,6288,337
Raw,75,6289,337
Raw,92,6291,337
Raw,38,6298,337
Raw,30,6302,337
Raw,27,6303,337
Raw,61,6306,337
Raw,26,6307,337
Raw,73,6308,337
Raw,25,6318,337
Raw,69,6321,337
Raw,34,6328,337
Raw,31,6331,337
Raw,41,6335,337
Raw,42,6335,337
Raw,37,6338,337
Raw,37,6340,337
Raw,21,6343,337
Raw,54,6343,337
Raw,22,6346,337
Raw,33,6350,337
Raw,63,6353,337
Raw,49,6355,337
Raw,29,6357,337
Raw,20,6358,337
Raw,30,6360,337
Raw,18,6361,337
Raw,37,6364,337
Raw,95,6368,337
Raw,41,6370,337
Raw,17,6371,337
Raw,15,6372,337
Raw,40,6372,337
Raw,30,6375,337
Raw,24,6375,337
Raw,27,6380,337
Raw,26,6381,337
Raw,37,6382,337
Raw,75,6382,337
Raw,19,6385,337
Raw,21,6387,337
Raw,16,6390,337
Raw,37,6392,337
Raw,50,6403,337
Raw,42,6403,337
Raw,38,6420,337
Raw,26,6420,337
Raw,70,6421,337
Raw,30,6422,337
Raw,14,6422,337
Raw,35,6426,337
Raw,46,6429,337
Raw,70,6430,337
Raw,63,6433,337
Raw,23,6437,337
Raw,60,6440,337
Raw,24,6448,337
Raw,77,6453,337
Raw,26,6457,337
Raw,22,6461,337
Raw,62,6468,337
Raw,93,6471,337
Raw,28,6475,337
Raw,75,6478,337
Raw,9,6478,337
Raw,13,6484,337
Raw,40,6484,337
Raw,60,6490,337
Raw,64,6496,337
Raw,77,6498,337
Raw,24,6502,337
Raw,37,6514,337
Raw,35,6514,337
Raw,56,6518,337
Raw,46,6520,337
Raw,29,6520,337
Raw,20,6520,337
Raw,28,6524,337
Raw,8,6524,337
Raw,27,6526,337
Raw,56,6532,337
Raw,49,6535,337
Raw,22,6539,337
Raw,27,6540,337
Raw,32,6540,337
Raw,49,6541,337
Raw,16,6542,337
Raw,40,6547,337
Raw,19,6550,337
Raw,49,6554,337
Raw,85,6555,337
Raw,17,6557,337
Raw,37,6563,337
Raw,10,6567,337
Raw,37,6567,337
Raw,34,6568,337
Raw,41,6570,337
Raw,15,6575,337
Raw,88,6576,337
Raw,37,6578,337
Raw,21,6586,337
Raw,41,6588,337
Raw,62,6592,337
Raw,37,6595,337
Raw,38,6602,337
Raw,23,6609,337
Raw,38,6610,337
Raw,38,6611,337
Raw,15,6612,337
Raw,90,6620,337
Raw,21,6621,337
Raw,36,6625,337
Raw,33,6626,337
Raw,30,6627,337
Raw,37,6631,337
Raw,75,6632,337
Raw,30,6642,337
Raw,51,6642,337
Raw,33,6643,337
Raw,55,6644,337
Raw,28,6644,337
Raw,31,6647,337
Raw,33,6655,337
Raw,26,6668,337
Raw,50,6670,337
Raw,46,6671,337
Raw,15,6675,337
Raw,21,6679,337
Raw,85,6680,337
Raw,22,6681,337
Raw,29,6682,337
Raw,40,6689,337
Raw,54,6694,337
Raw,51,6696,337
Raw,38,6698,337
Raw,7,6701,337
Raw,60,6705,337
Raw,24,6705,337
Raw,38,6711,337
Raw,52,6714,337
Raw,24,6715,337
Raw,22,6717,337
Raw,32,6718,337
Raw,36,6718,337
Raw,32,6723,337
Raw,30,6723,337
Raw,30,6724,337
Raw,23,6731,337
Raw,74,6735,337
Raw,27,6739,337
Raw,65,6748,337
Raw,19,6748,337
Raw,20,6753,337
Raw,82,6755,337
Raw,21,6758,337
Raw,53,6759,337
Raw,30,6764,337
Raw,31,6766,337
Raw,71,6766,337
Raw,4,6767,337
Raw,40,6768,337
Raw,28,6771,337
Raw,33,6777,337
Raw,48,6778,337
Raw,65,6778,337
Raw,30,6782,337
Raw,20,6783,337
Raw,37,6795,337
Raw,25,6796,337
Raw,52,6800,337
Raw,33,6803,337
Raw,77,6811,337
Raw,39,6813,337
Raw,21,6814,337
Raw,47,6821,337
Raw,68,6822,337
Raw,13,6824,337
Raw,71,6827,337
Raw,47,6831,337
Raw,38,6832,337
Raw,48,6837,337
Raw,17,6838,337
Raw,35,6843,337
Raw,26,6844,337
Raw,22,6849,337
Raw,30,6853,337
Raw,56,6859,337
Raw,7,6862,337
Raw,36,6862,337
Raw,37,6867,337
Raw,18,6868,337
Raw,52,6868,337
Raw,34,6870,337
Raw,16,6876,337
Raw,40,6876,337
Raw,31,6878,337
Raw,14,6878,337
Raw,30,6888,337
Raw,37,6890,337
Raw,25,6896,337
Raw,33,6901,337
Raw,60,6902,337
Raw,68,6904,337
Raw,23,6905,337
Raw,32,6906,337
Raw,69,6909,337
Raw,40,6909,337
Raw,30,6915,337
Raw,44,6915,337
Raw,27,6919,337
Raw,42,6920,337
Raw,20,6922,337
Raw,68,6928,337
Raw,43,6928,337
Raw,52,6929,337
Raw,25,6930,337
Raw,24,6930,337
Raw,18,6931,337
Raw,64,6935,337
Raw,38,6938,337
Raw,78,6943,337
Raw,33,6943,337
Raw,46,6946,337
Raw,79,6947,337
Raw,16,6953,337
Raw,67,6955,337
Raw,37,6959,337
Raw,40,6960,337
Raw,42,6960,337
Raw,8,6960,337
Raw,30,6963,337
Raw,65,6970,337
Raw,73,6974,337
Raw,88,6979,337
Raw,37,6983,337
Raw,31,6985,337
Raw,27,6986,337
Raw,34,6987,337
Raw,33,6988,337
Raw,52,6990,337
Raw,39,6991,337
Raw,41,7005,337
Raw,11,7009,337
Raw,35,7009,337
Raw,57,7012,337
Raw,44,7015,337
Raw,53,7018,337
Raw,35,7020,337
Raw,16,7020,337
Raw,43,7022,337
Raw,12,7028,337
Raw,33,7028,337
Raw,23,7030,337
Raw,31,7032,337
Raw,26,7034,337
Raw,31,7034,337
Raw,43,7037,337
Raw,92,7044,337
Raw,63,7046,337
Raw,22,7048,337
Raw,37,7056,337
Raw,48,7056,337
Raw,40,7060,337
Raw,37,7066,337
Raw,40,7068,337
Raw,38,7068,337
Raw,15,7070,337
Raw,44,7070,337
Raw,28,7071,337
Raw,22,7077,337
Raw,9,7077,337
Raw,43,7081,337
Raw,49,7082,337
Raw,61,7084,337
Raw,11,7085,337
Raw,41,7085,337
Raw,67,7096,337
Raw,7,7107,337
Raw,15,7114,337
Raw,38,7118,337
Raw,38,7120,337
Raw,33,7123,337
Raw,17,7123,337
Raw,42,7128,337
Raw,31,7129,337
Raw,16,7131,337
Raw,23,7137,337
Raw,21,7140,337
Raw,27,7147,337
Raw,38,7157,337
Raw,32,7165,337
Raw,38,7166,337
Raw,59,7167,337
Raw,25,7167,337
Raw,76,7168,337
Raw,4,7168,337
Raw,37,7170,337
Raw,9,7170,337
Raw,17,7174,337
Raw,58,7176,337
Raw,43,7176,337
Raw,31,7179,337
Raw,18,7184,337
Raw,8,7184,337
Raw,42,7187,337
Raw,27,7189,337
Raw,28,7193,337
Raw,38,7195,337
Raw,43,7196,337
Raw,20,7199,337
Raw,29,7199,337
Raw,22,7200,337
Raw,52,7200,337
Raw,34,7202,337
Raw,67,7214,337
Raw,33,7223,337
Raw,24,7229,337
Raw,41,7233,337
Raw,43,7237,337
Raw,39,7239,337
Raw,19,7244,337
Raw,23,7248,337
Raw,39,7253,337
Raw,21,7253,337
Raw,89,7254,337
Raw,23,7256,337
Raw,47,7258,337
Raw,19,7260,337
Raw,95,7272,337
Raw,17,7273,337
Raw,44,7279,337
Raw,23,7282,337
Raw,14,7287,337
Raw,40,7288,337
Raw,69,7289,337
Raw,50,7291,337
Raw,41,7299,337
Raw,35,7300,337
Raw,27,7300,337
Raw,27,7303,337
Raw,49,7310,337
Raw,62,7314,337
Raw,30,7315,337
Raw,41,7317,337
Raw,31,7318,337
Raw,33,7318,337
Raw,34,7323,337
Raw,34,7325,337
Raw,18,7330,337
Raw,28,7332,337
Raw,9,7336,337
Raw,25,7337,337
Raw,33,7344,337
Raw,10,7348,337
Raw,34,7350,337
Raw,37,7357,337
Raw,52,7360,337
Raw,20,7362,337
Raw,42,7367,337
Raw,37,7370,337
Raw,93,7376,337
Raw,14,7378,337
Raw,31,7384,337
Raw,13,7386,337
Raw,75,7390,337
Raw,52,7393,337
Raw,32,7394,337
Raw,78,7395,337
Raw,92,7396,337
Raw,24,7397,337
Raw,18,7405,337
Raw,35,7405,337
Raw,24,7406,337
Raw,39,7408,337
Raw,26,7408,337
Raw,24,7408,337
Raw,46,7410,337
Raw,36,7413,337
Raw,70,7414,337
Raw,40,7415,337
Raw,44,7416,337
Raw,38,7419,337
Raw,35,7420,337
Raw,41,7422,337
Raw,34,7422,337
Raw,56,7423,337
Raw,23,7425,337
Raw,35,7430,337
Raw,30,7435,337
Raw,33,7436,337
Raw,28,7441,337
Raw,23,7441,337
Raw,68,7443,337
Raw,22,7443,337
Raw,21,7444,337
Raw,31,7444,337
Raw,26,7445,337
Raw,37,7453,337
Raw,17,7454,337
Raw,12,7454,337
Raw,22,7458,337
Raw,46,7459,337
Raw,43,7462,337
Raw,37,7464,337
Raw,70,7472,337
Raw,21,7473,337
Raw,93,7474,337
Raw,78,7477,337
Raw,94,7487,337
Raw,25,7489,337
Raw,32,7493,337
Raw,36,7496,337
Raw,23,7507,337
Raw,35,7513,337
Raw,78,7521,337
Raw,93,7535,337
Raw,32,7535,337
Raw,29,7536,337
Raw,32,7536,337
Raw,65,7545,337
Raw,37,7545,337
Raw,17,7547,337
Raw,17,7554,337
Raw,45,7555,337
Raw,27,7555,337
Raw,48,7559,337
Raw,31,7559,337
Raw,27,7560,337
Raw,98,7567,337
Raw,31,7569,337
Raw,17,7570,337
Raw,6,7583,337
Raw,28,7592,337
Raw,22,7595,337
Raw,55,7597,337
Raw,21,7598,337
Raw,64,7606,337
Raw,21,7610,337
Raw,67,7611,337
Raw,18,7612,337
Raw,29,7612,337
Raw,23,7615,337
Raw,44,7616,337
Raw,18,7617,337
Raw,23,7619,337
Raw,19,7621,337
Raw,54,7624,337
Raw,31,7633,337
Raw,33,7635,337
Raw,58,7640,337
Raw,88,7645,337
Raw,29,7649,337
Raw,46,7649,337
Raw,87,7653,337
Raw,45,7656,337
Raw,51,7659,337
Raw,10,7660,337
Raw,54,7664,337
Raw,19,7664,337
Raw,67,7677,337
Raw,23,7677,337
Raw,80,7680,337
Raw,34,7684,337
Raw,39,7686,337
Raw,24,7688,337
Raw,61,7689,337
Raw,72,7692,337
Raw,23,7696,337
Raw,72,7700,337
Raw,16,7702,337
Raw,24,7708,337
Raw,39,7709,337
Raw,22,7710,337
Raw,34,7712,337
Raw,37,7717,337
Raw,37,7718,337
Raw,15,7722,337
Raw,43,7726,337
Raw,93,7727,337
Raw,38,7729,337
Raw,14,7730,337
Raw,45,7730,337
Raw,40,7743,337
Raw,56,7744,337
Raw,28,7745,337
Raw,11,7755,337
Raw,23,7758,337
Raw,40,7760,337
Raw,63,7766,337
Raw,74,7767,337
Raw,25,7768,337
Raw,12,7768,337
Raw,10,7770,337
Raw,31,7772,337
Raw,23,7775,337
Raw,33,7778,337
Raw,5,7778,337
Raw,60,7779,337
Raw,35,7782,337
Raw,21,7791,337
Raw,65,7793,337
Raw,30,7799,337
Raw,91,7800,337
Raw,18,7807,337
Raw,4,7808,337
Raw,13,7809,337
Raw,29,7810,337
Raw,19,7810,337
Raw,58,7811,337
Raw,35,7813,337
Raw,22,7815,337
Raw,28,7816,337
Raw,39,7817,337
Raw,19,7822,337
Raw,13,7824,337
Raw,17,7833,337
Raw,48,7833,337
Raw,31,7835,337
Raw,49,7836,337
Raw,37,7836,337
Raw,40,7841,337
Raw,77,7845,337
Raw,17,7846,337
Raw,72,7848,337
Raw,24,7852,337
Raw,19,7858,337
Raw,25,7861,337
Raw,36,7862,337
Raw,22,7865,337
Raw,65,7870,337
Raw,12,7871,337
Raw,8,7872,337
Raw,31,7875,337
Raw,40,7886,337
Raw,32,7899,337
Raw,21,7899,337
Raw,46,7907,337
Raw,48,7910,337
Raw,49,7918,337
Raw,39,7920,337
Raw,48,7921,337
Raw,19,7929,337
Raw,38,7931,337
Raw,39,7941,337
Raw,25,7941,337
Raw,13,7942,337
Raw,66,7942,337
Raw,55,7945,337
Raw,96,7946,337
Raw,39,7948,337
Raw,62,7948,337
Raw,32,7952,337
Raw,71,7955,337
Raw,94,7957,337
Raw,16,7959,337
Raw,63,7959,337
Raw,43,7963,337
Raw,31,7965,337
Raw,17,7967,337
Raw,17,7967,337
Raw,52,7972,337
Raw,33,7973,337
Raw,38,7976,337
Raw,80,7977,337
Raw,14,7979,337
Raw,33,7979,337
Raw,29,7980,337
Raw,19,7982,337
Raw,37,7983,337
Raw,19,7984,337
Raw,51,7994,337
Raw,41,7996,337
Raw,17,7998,337
Raw,29,7998,337
Raw,8,7998,337
Raw,23,7999,337
Raw,35,8003,337
Raw,36,8006,337
Raw,33,8007,337
Raw,37,8007,337
Raw,30,8008,337
Raw,67,8015,337
Raw,29,8017,337
Raw,47,8018,337
Raw,19,8019,337
Raw,58,8020,337
Raw,21,8027,337
Raw,41,8027,337
Raw,31,8031,337
Raw,17,8032,337
Raw,42,8034,337
Raw,21,8035,337
Raw,56,8048,337
Raw,17,8049,337
Raw,19,8061,337
Raw,73,8063,337
Raw,83,8070,337
Raw,100,8071,337
Raw,56,8072,337
Raw,38,8075,337
Raw,69,8084,337
Raw,66,8087,337
Raw,27,8089,337
Raw,19,8090,337
Raw,35,8091,337
Raw,27,8096,337
Raw,40,8101,337
Raw,29,8107,337
Raw,48,8109,337
Raw,24,8110,337
Raw,52,8113,337
Raw,74,8121,337
Raw,72,8125,337
Raw,19,8125,337
Raw,11,8126,337
Raw,43,8136,337
Raw,47,8136,337
Raw,26,8140,337
Raw,58,8141,337
Raw,50,8150,337
Raw,52,8152,337
Raw,31,8155,337
Raw,97,8158,337
Raw,29,8162,337
Raw,45,8166,337
Raw,35,8172,337
Raw,23,8183,337
Raw,33,8188,337
Raw,17,8189,337
Raw,18,8198,337
Raw,34,8198,337
Raw,58,8212,337
Raw,88,8213,337
Raw,74,8215,337
Raw,34,8228,337
Raw,28,8231,337
Raw,70,8235,337
Raw,47,8236,337
Raw,100,8239,337
Raw,65,8251,337
Raw,87,8253,337
Raw,24,8257,337
Raw,58,8257,337
Raw,58,8258,337
Raw,36,8259,337
Raw,37,8260,337
Raw,13,8265,337
Raw,42,8265,337
Raw,31,8266,337
Raw,12,8267,337
Raw,40,8270,337
Raw,33,8271,337
Raw,35,8271,337
Raw,78,8274,337
Raw,63,8276,337
Raw,40,8277,337
Raw,57,8281,337
Raw,99,8284,337
Raw,42,8286,337
Raw,25,8287,337
Raw,22,8287,337
Raw,44,8288,337
Raw,40,8289,337
Raw,38,8290,337
Raw,74,8294,337
Raw,25,8296,337
Raw,38,8296,337
Raw,34,8297,337
Raw,22,8301,337
Raw,53,8303,337
Raw,48,8306,337
Raw,43,8307,337
Raw,42,8309,337
Raw,77,8310,337
Raw,14,8311,337
Raw,46,8316,337
Raw,24,8318,337
Raw,14,8318,337
Raw,33,8320,337
Raw,31,8322,337
Raw,14,8327,337
Raw,75,8329,337
Raw,47,8330,337
Raw,21,8336,337
Raw,34,8336,337
Raw,27,8339,337
Raw,35,8339,337
Raw,32,8340,337
Raw,34,8342,337
Raw,20,8344,337
Raw,14,8349,337
Raw,32,8352,337
Raw,3,8361,337
Raw,27,8363,337
Raw,54,8365,337
Raw,68,8366,337
Raw,72,8372,337
Raw,16,8373,337
Raw,55,8373,337
Raw,92,8377,337
Raw,63,8378,337
Raw,34,8380,337
Raw,43,8388,337
Raw,16,8391,337
Raw,45,8394,337
Raw,30,8394,337
Raw,43,8398,337
Raw,62,8399,337
Raw,62,8404,337
Raw,31,8405,337
Raw,40,8407,337
Raw,27,8411,337
Raw,27,8412,337
Raw,61,8414,337
Raw,25,8415,337
Raw,62,8425,337
Raw,76,8425,337
Raw,42,8427,337
Raw,38,8429,337
Raw,55,8433,337
Raw,67,8434,337
Raw,23,8435,337
Raw,52,8436,337
Raw,18,8442,337
Raw,31,8443,337
Raw,15,8443,337
Raw,37,8445,337
Raw,21,8445,337
Raw,53,8450,337
Raw,53,8452,337
Raw,40,8457,337
Raw,76,8460,337
Raw,20,8462,337
Raw,16,8469,337
Raw,29,8473,337
Raw,72,8474,337
Raw,56,8478,337
Raw,37,8479,337
Raw,31,8480,337
Raw,45,8486,337
Raw,26,8488,337
Raw,62,8491,337
Raw,16,8491,337
Raw,26,8498,337
Raw,17,8500,337
Raw,33,8501,337
Raw,58,8504,337
Raw,19,8506,337
Raw,74,8507,337
Raw,25,8507,337
Raw,57,8515,337
Raw,15,8516,337
Raw,7,8519,337
Raw,43,8520,337
Raw,44,8520,337
Raw,17,8522,337
Raw,85,8524,337
Raw,80,8525,337
Raw,35,8525,337
Raw,41,8526,337
Raw,40,8526,337
Raw,66,8530,337
Raw,10,8536,337
Raw,17,8539,337
Raw,33,8540,337
Raw,15,8540,337
Raw,86,8542,337
Raw,84,8544,337
Raw,19,8555,337
Raw,7,8555,337
Raw,28,8557,337
Raw,26,8559,337
Raw,69,8562,337
Raw,74,8570,337
Raw,68,8572,337
Raw,35,8572,337
Raw,23,8577,337
Raw,36,8578,337
Raw,25,8578,337
Raw,42,8579,337
Raw,81,8583,337
Raw,17,8584,337
Raw,33,8585,337
Raw,9,8587,337
Raw,57,8587,337
Raw,67,8588,337
Raw,39,8589,337
Raw,5,8592,337
Raw,60,8594,337
Raw,34,8599,337
Raw,38,8600,337
Raw,36,8608,337
Raw,38,8614,337
Raw,14,8618,337
Raw,22,8623,337
Raw,21,8628,337
Raw,39,8636,337
Raw,23,8637,337
Raw,24,8637,337
Raw,70,8643,337
Raw,10,8645,337
Raw,20,8652,337
Raw,30,8652,337
Raw,36,8656,337
Raw,24,8657,337
Raw,85,8660,337
Raw,73,8663,337
Raw,17,8663,337
Raw,62,8664,337
Raw,100,8665,337
Raw,37,8666,337
Raw,25,8669,337
Raw,21,8670,337
Raw,28,8671,337
Raw,29,8676,337
Raw,81,8683,337
Raw,34,8685,337
Raw,6,8685,337
Raw,60,8688,337
Raw,52,8692,337
Raw,21,8697,337
Raw,40,8699,337
Raw,51,8700,337
Raw,26,8706,337
Raw,38,8709,337
Raw,34,8709,337
Raw,53,8710,337
Raw,13,8715,337
Raw,30,8720,337
Raw,36,8725,337
Raw,53,8728,337
Raw,52,8729,337
Raw,38,8731,337
Raw,25,8737,337
Raw,47,8738,337
Raw,34,8742,337
Raw,66,8744,337
Raw,18,8752,337
Raw,65,8752,337
Raw,47,8754,337
Raw,21,8755,337
Raw,39,8762,337
Raw,98,8763,337
Raw,46,8764,337
Raw,33,8765,337
Raw,71,8769,337
Raw,63,8771,337
Raw,40,8775,337
Raw,26,8779,337
Raw,19,8780,337
Raw,31,8784,337
Raw,29,8789,337
Raw,17,8790,337
Raw,41,8791,337
Raw,31,8793,337
Raw,16,8797,337
Raw,32,8797,337
Raw,57,8799,337
Raw,29,8802,337
Raw,19,8813,337
Raw,33,8818,337
Raw,9,8824,337
Raw,72,8832,337
Raw,23,8837,337
Raw,18,8838,337
Raw,58,8839,337
Raw,39,8841,337
Raw,33,8843,337
Raw,47,8844,337
Raw,27,8846,337
Raw,22,8847,337
Raw,38,8848,337
Raw,23,8848,337
Raw,32,8849,337
Raw,44,8852,337
Raw,31,8867,337
Raw,26,8867,337
Raw,54,8871,337
Raw,73,8876,337
Raw,36,8877,337
Raw,37,8877,337
Raw,56,8882,337
Raw,63,8887,337
Raw,92,8889,337
Raw,21,8890,337
Raw,93,8900,337
Raw,26,8903,337
Raw,21,8903,337
Raw,23,8908,337
Raw,12,8908,337
Raw,75,8909,337
Raw,15,8914,337
Raw,46,8915,337
Raw,26,8926,337
Raw,57,8931,337
Raw,88,8934,337
Raw,48,8935,337
Raw,40,8945,337
Raw,31,8950,337
Raw,21,8950,337
Raw,57,8951,337
Raw,48,8955,337
Raw,36,8958,337
Raw,22,8962,337
Raw,63,8964,337
Raw,79,8968,337
Raw,41,8969,337
Raw,5,8970,337
Raw,21,8972,337
Raw,19,8973,337
Raw,61,8974,337
Raw,75,8977,337
Raw,17,8978,337
Raw,50,8979,337
Raw,32,8980,337
Raw,78,8987,337
Raw,29,8988,337
Raw,18,8993,337
Raw,14,8993,337
Raw,25,8995,337
Raw,27,8995,337
Raw,14,9002,337
Raw,43,9006,337
Raw,15,9006,337
Raw,58,9012,337
Raw,51,9014,337
Raw,16,9019,337
Raw,23,9021,337
Raw,12,9021,337
Raw,48,9026,337
Raw,21,9035,337
Raw,49,9035,337
Raw,43,9038,337
Raw,55,9044,337
Raw,89,9045,337
Raw,73,9046,337
Raw,38,9049,337
Raw,18,9058,337
Raw,73,9059,337
Raw,42,9063,337
Raw,74,9067,337
Raw,26,9078,337
Raw,42,9080,337
Raw,39,9080,337
Raw,21,9084,337
Raw,26,9085,337
Raw,20,9088,337
Raw,16,9089,337
Raw,48,9094,337
Raw,32,9094,337
Raw,61,9096,337
Raw,22,9102,337
Raw,13,9102,337
Raw,14,9103,337
Raw,4,9108,337
Raw,86,9110,337
Raw,25,9112,337
Raw,8,9113,337
Raw,23,9128,337
Raw,88,9134,337
Raw,27,9136,337
Raw,17,9136,337
Raw,64,9144,337
Raw,44,9149,337
Raw,22,9149,337
Raw,56,9150,337
Raw,45,9155,337
Raw,17,9161,337
Raw,24,9161,337
Raw,32,9174,337
Raw,21,9180,337
Raw,14,9180,337
Raw,67,9181,337
Raw,42,9182,337
Raw,32,9182,337
Raw,34,9186,337
Raw,20,9187,337
Raw,23,9187,337
Raw,21,9193,337
Raw,35,9196,337
Raw,38,9204,337
Raw,75,9207,337
Raw,70,9208,337
Raw,17,9208,337
Raw,32,9210,337
Raw,38,9214,337
Raw,37,9214,337
Raw,7,9215,337
Raw,16,9220,337
Raw,59,9221,337
Raw,22,9226,337
Raw,47,9228,337
Raw,17,9228,337
Raw,16,9231,337
Raw,36,9232,337
Raw,34,9234,337
Raw,39,9234,337
Raw,43,9236,337
Raw,38,9240,337
Raw,7,9244,337
Raw,58,9244,337
Raw,27,9245,337
Raw,26,9247,337
Raw,40,9250,337
Raw,44,9253,337
Raw,86,9254,337
Raw,17,9256,337
Raw,31,9260,337
Raw,25,9264,337
Raw,41,9266,337
Raw,24,9272,337
Raw,42,9275,337
Raw,34,9278,337
Raw,37,9278,337
Raw,56,9279,337
Raw,48,9283,337
Raw,20,9286,337
Raw,31,9289,337
Raw,9,9290,337
Raw,41,9290,337
Raw,38,9294,337
Raw,34,9301,337
Raw,21,9305,337
Raw,26,9306,337
Raw,23,9309,337
Raw,32,9309,337
Raw,39,9313,337
Raw,94,9320,337
Raw,35,9327,337
Raw,34,9328,337
Raw,62,9332,337
Raw,10,9334,337
Raw,36,9336,337
Raw,23,9337,337
Raw,36,9339,337
Raw,18,9343,337
Raw,35,9347,337
Raw,24,9347,337
Raw,21,9348,337
Raw,35,9348,337
Raw,47,9349,337
Raw,21,9352,337
Raw,27,9353,337
Raw,28,9355,337
Raw,72,9357,337
Raw,43,9358,337
Raw,41,9364,337
Raw,18,9365,337
Raw,26,9373,337
Raw,80,9377,337
Raw,18,9377,337
Raw,23,9378,337
Raw,74,9379,337
Raw,50,9381,337
Raw,38,9386,337
Raw,24,9390,337
Raw,22,9393,337
Raw,12,9396,337
Raw,19,9397,337
Raw,21,9400,337
Raw,31,9402,337
Raw,54,9402,337
Raw,12,9406,337
Raw,31,9407,337
Raw,27,9408,337
Raw,71,9414,337
Raw,39,9416,337
Raw,21,9426,337
Raw,38,9428,337
Raw,63,9429,337
Raw,33,9430,337
Raw,39,9436,337
Raw,66,9438,337
Raw,86,9441,337
Raw,71,9441,337
Raw,30,9443,337
Raw,35,9444,337
Raw,22,9448,337
Raw,38,9453,337
Raw,40,9458,337
Raw,68,9461,337
Raw,77,9464,337
Raw,28,9466,337
Raw,54,9468,337
Raw,23,9469,337
Raw,14,9469,337
Raw,27,9469,337
Raw,80,9470,337
Raw,50,9471,337
Raw,37,9472,337
Raw,37,9473,337
Raw,19,9476,337
Raw,34,9476,337
Raw,35,9479,337
Raw,37,9482,337
Raw,25,9484,337
Raw,37,9488,337
Raw,35,9496,337
Raw,21,9500,337
Raw,13,9503,337
Raw,21,9509,337
Raw,15,9512,337
Raw,36,9513,337
Raw,24,9513,337
Raw,38,9513,337
Raw,36,9519,337
Raw,32,9519,337
Raw,79,9520,337
Raw,21,9520,337
Raw,18,9521,337
Raw,45,9531,337
Raw,69,9537,337
Raw,58,9540,337
Raw,31,9542,337
Raw,39,9543,337
Raw,21,9547,337
Raw,26,9554,337
Raw,18,9555,337
Raw,27,9556,337
Raw,29,9557,337
Raw,75,9565,337
Raw,17,9566,337
Raw,37,9574,337
Raw,34,9577,337
Raw,17,9580,337
Raw,25,9581,337
Raw,92,9583,337
Raw,91,9584,337
Raw,60,9587,337
Raw,50,9597,337
Raw,15,9602,337
Raw,44,9605,337
Raw,52,9610,337
Raw,23,9614,337
Raw,62,9618,337
Raw,36,9623,337
Raw,79,9626,337
Raw,10,9630,337
Raw,60,9630,337
Raw,64,9631,337
Raw,66,9636,337
Raw,42,9637,337
Raw,38,9640,337
Raw,70,9641,337
Raw,27,9645,337
Raw,10,9645,337
Raw,35,9646,337
Raw,11,9647,337
Raw,20,9651,337
Raw,17,9655,337
Raw,20,9661,337
Raw,54,9662,337
Raw,31,9674,337
Raw,40,9677,337
Raw,39,9678,337
Raw,29,9682,337
Raw,34,9685,337
Raw,99,9686,337
Raw,38,9689,337
Raw,64,9691,337
Raw,16,9707,337
Raw,8,9709,337
Raw,53,9711,337
Raw,18,9712,337
Raw,36,9717,337
Raw,30,9719,337
Raw,69,9720,337
Raw,34,9725,337
Raw,49,9726,337
Raw,45,9732,337
Raw,21,9735,337
Raw,70,9736,337
Raw,98,9737,337
Raw,21,9741,337
Raw,53,9741,337
Raw,20,9741,337
Raw,26,9746,337
Raw,17,9751,337
Raw,80,9752,337
Raw,33,9758,337
Raw,47,9758,337
Raw,34,9767,337
Raw,42,9769,337
Raw,34,9771,337
Raw,69,9772,337
Raw,39,9775,337
Raw,19,9776,337
Raw,26,9777,337
Raw,28,9777,337
Raw,39,9778,337
Raw,68,9784,337
Raw,33,9785,337
Raw,21,9788,337
Raw,25,9788,337
Raw,32,9789,337
Raw,27,9789,337
Raw,16,9790,337
Raw,28,9792,337
Raw,30,9793,337
Raw,54,9793,337
Raw,18,9802,337
Raw,33,9805,337
Raw,3,9808,337
Raw,21,9812,337
Raw,61,9816,337
Raw,20,9817,337
Raw,85,9820,337
Raw,39,9828,337
Raw,22,9829,337
Raw,32,9830,337
Raw,25,9832,337
Raw,24,9833,337
Raw,37,9837,337
Raw,45,9839,337
Raw,37,9845,337
Raw,30,9851,337
Raw,48,9855,337
Raw,40,9861,337
Raw,38,9865,337
Raw,79,9874,337
Raw,16,9874,337
Raw,33,9879,337
Raw,20,9883,337
Raw,16,9884,337
Raw,36,9885,337
Raw,29,9888,337
Raw,6,9893,337
Raw,50,9895,337
Raw,37,9899,337
Raw,41,9902,337
Raw,26,9903,337
Raw,52,9903,337
Raw,35,9904,337
Raw,58,9906,337
Raw,39,9918,337
Raw,69,9922,337
Raw,54,9923,337
Raw,76,9924,337
Raw,71,9925,337
Raw,48,9929,337
Raw,19,9930,337
Raw,11,9930,337
Raw,74,9936,337
Raw,33,9938,337
Raw,38,9940,337
Raw,16,9942,337
Raw,36,9942,337
Raw,53,9950,337
Raw,27,9951,337
Raw,49,9954,337
Raw,25,9955,337
Raw,20,9957,337
Raw,63,9957,337
Raw,64,9964,337
Raw,31,9964,337
Raw,14,9965,337
Raw,56,9968,337
Raw,24,9969,337
Raw,45,9970,337
Raw,12,9972,337
Raw,25,9976,337
Raw,41,9979,337
Raw,54,9979,337
Raw,30,9980,337
Raw,33,9986,337
Raw,11,9988,337
Raw,33,9989,337
Raw,38,9989,337
Raw,5,9993,337
Raw,19,9994,337
Raw,39,9996,337
Raw,47,10000,337
Raw,3,10002,337
Raw,39,10003,337
Raw,29,10008,337
Raw,58,10012,337
Raw,29,10012,337
Raw,7,10017,337
Raw,29,10019,337
Raw,30,10020,337
Raw,30,10028,337
Raw,30,10030,337
Raw,98,10031,337
Raw,31,10031,337
Raw,23,10041,337
Raw,30,10043,337
Raw,67,10044,337
Raw,36,10051,337
Raw,23,10052,337
Raw,76,10054,337
Raw,34,10055,337
Raw,44,10062,337
Raw,28,10062,337
Raw,37,10064,337
Raw,11,10066,337
Raw,90,10067,337
Raw,16,10068,337
Raw,36,10070,337
Raw,72,10074,337
Raw,81,10078,337
Raw,46,10081,337
Raw,19,10082,337
Raw,28,10085,337
Raw,23,10091,337
Raw,19,10099,337
Raw,20,10104,337
Raw,19,10104,337
Raw,24,10105,337
Raw,34,10105,337
Raw,34,10108,337
Raw,35,10117,337
Raw,30,10117,337
Raw,38,10119,337
Raw,49,10124,337
Raw,39,10127,337
Raw,30,10128,337
Raw,18,10131,337
Raw,19,10141,337
Raw,14,10142,337
Raw,85,10143,337
Raw,17,10144,337
Raw,36,10144,337
Raw,11,10146,337
Raw,17,10146,337
Raw,33,10149,337
Raw,34,10150,337
Raw,57,10150,337
Raw,25,10156,337
Raw,50,10163,337
Raw,32,10164,337
Raw,18,10168,337
Raw,40,10169,337
Raw,34,10174,337
Raw,33,10176,337
Raw,62,10178,337
Raw,27,10179,337
Raw,56,10185,337
Raw,21,10188,337
Raw,45,10189,337
Raw,25,10192,337
Raw,74,10200,337
Raw,3,10210,337
Raw,68,10214,337
Raw,25,10214,337
Raw,59,10215,337
Raw,13,10222,337
Raw,37,10224,337
Raw,37,10224,337
Raw,69,10231,337
Raw,27,10233,337
Raw,31,10236,337
Raw,31,10237,337
Raw,12,10237,337
Raw,39,10239,337
Raw,27,10242,337
Raw,35,10242,337
Raw,54,10247,337
Raw,34,10248,337
Raw,33,10248,337
Raw,56,10253,337
Raw,90,10263,337
Raw,5,10263,337
Raw,93,10266,337
Raw,98,10267,337
Raw,23,10267,337
Raw,69,10270,337
Raw,43,10277,337
Raw,88,10280,337
Raw,47,10282,337
Raw,34,10282,337
Raw,61,10289,337
Raw,29,10293,337
Raw,49,10293,337
Raw,72,10297,337
Raw,26,10298,337
Raw,44,10303,337
Raw,22,10307,337
Raw,47,10311,337
Raw,23,10322,337
Raw,16,10324,337
Raw,16,10325,337
Raw,61,10326,337
Raw,24,10326,337
Raw,46,10327,337
Raw,45,10328,337
Raw,66,10337,337
Raw,42,10340,337
Raw,33,10347,337
Raw,5,10347,337
Raw,23,10352,337
Raw,31,10355,337
Raw,26,10356,337
Raw,36,10360,337
Raw,33,10360,337
Raw,27,10362,337
Raw,45,10364,337
Raw,78,10374,337
Raw,14,10379,337
Raw,38,10381,337
Raw,46,10382,337
Raw,36,10383,337
Raw,47,10383,337
Raw,20,10388,337
Raw,31,10391,337
Raw,27,10394,337
Raw,73,10396,337
Raw,29,10398,337
Raw,54,10409,337
Raw,28,10413,337
Raw,22,10417,337
Raw,46,10417,337
Raw,26,10425,337
Raw,97,10425,337
Raw,21,10427,337
Raw,55,10433,337
Raw,56,10439,337
Raw,6,10444,337
Raw,37,10445,337
Raw,23,10447,337
Raw,54,10449,337
Raw,70,10450,337
Raw,27,10452,337
Raw,19,10454,337
Raw,63,10456,337
Raw,28,10457,337
Raw,40,10459,337
Raw,40,10460,337
Raw,48,10464,337
Raw,15,10467,337
Raw,20,10474,337
Raw,46,10475,337
Raw,84,10478,337
Raw,31,10483,337
Raw,33,10485,337
Raw,18,10485,337
Raw,34,10489,337
Raw,37,10490,337
Raw,42,10495,337
Raw,23,10498,337
Raw,14,10501,337
Raw,47,10502,337
Raw,15,10507,337
Raw,22,10508,337
Raw,23,10510,337
Raw,18,10514,337
Raw,20,10514,337
Raw,34,10515,337
Raw,35,10520,337
Raw,37,10524,337
Raw,26,10524,337
Raw,21,10535,337
Raw,45,10537,337
Raw,22,10538,337
Raw,20,10539,337
Raw,31,10540,337
Raw,57,10542,337
Raw,25,10542,337
Raw,70,10547,337
Raw,38,10550,337
Raw,37,10550,337
Raw,52,10552,337
Raw,57,10555,337
Raw,47,10560,337
Raw,38,10562,337
Raw,19,10564,337
Raw,80,10566,337
Raw,57,10566,337
Raw,32,10567,337
Raw,49,10572,337
Raw,15,10574,337
Raw,54,10575,337
Raw,15,10575,337
Raw,31,10580,337
Raw,42,10581,337
Raw,70,10591,337
Raw,29,10597,337
Raw,99,10600,337
Raw,69,10601,337
Raw,40,10603,337
Raw,38,10606,337
Raw,22,10614,337
Raw,63,10616,337
Raw,18,10616,337
Raw,16,10620,337
Raw,36,10621,337
Raw,19,10632,337
Raw,26,10633,337
Raw,34,10635,337
Raw,23,10644,337
Raw,27,10644,337
Raw,60,10647,337
Raw,80,10648,337
Raw,10,10651,337
Raw,31,10651,337
Raw,8,10663,337
Raw,33,10663,337
Raw,36,10665,337
Raw,32,10665,337
Raw,37,10666,337
Raw,51,10667,337
Raw,13,10667,337
Raw,38,10672,337
Raw,29,10681,337
Raw,18,10683,337
Raw,42,10687,337
Raw,75,10692,337
Raw,35,10706,337
Raw,80,10707,337
Raw,45,10710,337
Raw,35,10711,337
Raw,95,10716,337
Raw,37,10717,337
Raw,42,10724,337
Raw,24,10727,337
Raw,33,10727,337
Raw,48,10728,337
Raw,41,10729,337
Raw,98,10733,337
Raw,49,10739,337
Raw,19,10739,337
Raw,46,10740,337
Raw,24,10743,337
Raw,19,10745,337
Raw,21,10749,337
Raw,97,10750,337
Raw,16,10751,337
Raw,15,10753,337
Raw,28,10754,337
Raw,8,10755,337
Raw,69,10755,337
Raw,60,10764,337
Raw,63,10766,337
Raw,94,10767,337
Raw,48,10769,337
Raw,54,10770,337
Raw,79,10771,337
Raw,18,10774,337
Raw,3,10774,337
Raw,18,10778,337
Raw,23,10779,337
Raw,52,10782,337
Raw,68,10790,337
Raw,32,10800,337
Raw,40,10804,337
Raw,14,10807,337
Raw,14,10807,337
Raw,29,10810,337
Raw,55,10812,337
Raw,44,10815,337
Raw,30,10816,337
Raw,23,10819,337
Raw,70,10820,337
Raw,32,10821,337
Raw,23,10822,337
Raw,17,10827,337
Raw,40,10827,337
Raw,32,10831,337
Raw,83,10833,337
Raw,36,10839,337
Raw,13,10840,337
Raw,74,10844,337
Raw,24,10848,337
Raw,31,10848,337
Raw,76,10850,337
Raw,61,10852,337
Raw,40,10861,337
Raw,11,10863,337
Raw,87,10871,337
Raw,30,10872,337
Raw,19,10873,337
Raw,37,10873,337
Raw,47,10876,337
Raw,23,10877,337
Raw,32,10879,337
Raw,38,10881,337
Raw,22,10885,337
Raw,40,10889,337
Raw,19,10890,337
Raw,15,10894,337
Raw,82,10896,337
Raw,10,10905,337
Raw,5,10905,337
Raw,47,10906,337
Raw,57,10908,337
Raw,23,10909,337
Raw,50,10911,337
Raw,30,10918,337
Raw,36,10922,337
Raw,84,10924,337
Raw,17,10925,337
Raw,51,10928,337
Raw,83,10929,337
Raw,11,10935,337
Raw,39,10936,337
Raw,42,10938,337
Raw,59,10944,337
Raw,19,10944,337
Raw,46,10948,337
Raw,55,10951,337
Raw,66,10952,337
Raw,32,10960,337
Raw,36,10967,337
Raw,12,10974,337
Raw,21,10975,337
Raw,78,10979,337
Raw,10,10981,337
Raw,90,10986,337
Raw,44,10988,337
Raw,25,10988,337
Raw,31,10989,337
Raw,13,10989,337
Raw,27,10996,337
Raw,39,11000,337
Raw,34,11001,337
Raw,5,11003,337
Raw,45,11007,337
Raw,32,11008,337
Raw,49,11008,337
Raw,27,11009,337
Raw,22,11009,337
Raw,42,11010,337
Raw,34,11011,337
Raw,19,11011,337
Raw,46,11012,337
Raw,30,11015,337
Raw,16,11015,337
Raw,60,11018,337
Raw,51,11023,337
Raw,61,11023,337
Raw,23,11025,337
Raw,51,11037,337
Raw,36,11038,337
Raw,36,11040,337
Raw,23,11041,337
Raw,39,11041,337
Raw,64,11043,337
Raw,48,11045,337
Raw,48,11045,337
Raw,44,11046,337
Raw,27,11047,337
