Cut?,Counts,eventNumber,runNumber
Raw,27,0,335
Raw,31,1,335
Raw,31,2,335
Raw,23,3,335
Raw,44,4,335
Raw,28,5,335
Raw,18,5,335
Raw,14,6,335
Raw,30,6,335
Raw,28,7,335
Raw,17,8,335
Raw,28,8,335
Raw,47,9,335
Raw,40,10,335
Raw,59,11,335
Raw,58,12,335
Raw,35,13,335
Raw,66,13,335
Raw,37,14,335
Raw,34,15,335
Raw,42,16,335
Raw,42,17,335
Raw,59,19,335
Raw,30,21,335
Raw,30,22,335
Raw,39,23,335
Raw,3,23,335
Raw,34,24,335
Raw,56,25,335
Raw,29,26,335
Raw,34,27,335
Raw,40,28,335
Raw,58,29,335
Raw,50,30,335
Raw,39,32,335
Raw,27,33,335
Raw,33,34,335
Raw,17,35,335
Raw,51,35,335
Raw,37,36,335
Raw,31,37,335
Raw,58,38,335
Raw,46,39,335
Raw,101,41,335
Raw,48,42,335
Raw,39,43,335
Raw,30,44,335
Raw,58,45,335
Raw,34,47,335
Raw,19,47,335
Raw,59,48,335
Raw,61,49,335
Raw,28,50,335
Raw,58,51,335
Raw,19,52,335
Raw,34,53,335
Raw,34,54,335
Raw,47,55,335
Raw,71,56,335
Raw,54,58,335
Raw,10,59,335
Raw,40,59,335
Raw,36,60,335
Raw,46,62,335
Raw,37,63,335
Raw,33,64,335
Raw,25,65,335
Raw,26,66,335
Raw,67,67,335
Raw,32,68,335
Raw,43,70,335
Raw,48,71,335
Raw,19,71,335
Raw,57,72,335
Raw,44,73,335
Raw,31,74,335
Raw,46,75,335
Raw,38,76,335
Raw,29,77,335
Raw,38,78,335
Raw,83,79,335
Raw,53,80,335
Raw,56,81,335
Raw,40,82,335
Raw,28,83,335
Raw,58,84,335
Raw,78,85,335
Raw,37,86,335
Raw,15,86,335
Raw,34,87,335
Raw,34,88,335
Raw,66,89,335
Raw,24,90,335
Raw,45,90,335
Raw,49,91,335
Raw,38,92,335
Raw,54,93,335
Raw,36,94,335
Raw,45,95,335
Raw,29,96,335
Raw,20,97,335
Raw,40,97,335
Raw,39,98,335
Raw,30,99,335
Raw,21,99,335
Raw,34,100,335
Raw,48,101,335
Raw,59,102,335
Raw,82,103,335
Raw,39,104,335
Raw,26,105,335
Raw,71,106,335
Raw,35,107,335
Raw,49,108,335
Raw,35,109,335
Raw,39,110,335
Raw,52,111,335
Raw,34,112,335
Raw,27,113,335
Raw,34,114,335
Raw,27,115,335
Raw,51,116,335
Raw,60,117,335
Raw,33,118,335
Raw,33,119,335
Raw,25,120,335
Raw,13,120,335
Raw,20,121,335
Raw,13,121,335
Raw,86,122,335
Raw,39,123,335
Raw,15,123,335
Raw,56,124,335
Raw,32,125,335
Raw,88,127,335
Raw,28,128,335
Raw,30,129,335
Raw,43,130,335
Raw,34,131,335
Raw,72,132,335
Raw,30,133,335
Raw,36,134,335
Raw,23,136,335
Raw,63,138,335
Raw,17,138,335
Raw,33,139,335
Raw,22,140,335
Raw,37,140,335
Raw,38,141,335
Raw,33,144,335
Raw,54,145,335
Raw,25,146,335
Raw,16,146,335
Raw,59,147,335
Raw,36,148,335
Raw,5,148,335
Raw,32,149,335
Raw,43,150,335
Raw,31,151,335
Raw,21,151,335
Raw,16,152,335
Raw,51,152,335
Raw,66,153,335
Raw,16,153,335
Raw,39,154,335
Raw,66,155,335
Raw,32,156,335
Raw,83,157,335
Raw,23,158,335
Raw,33,159,335
Raw,33,160,335
Raw,38,161,335
Raw,42,162,335
Raw,47,164,335
Raw,28,165,335
Raw,32,166,335
Raw,41,167,335
Raw,61,168,335
Raw,72,169,335
Raw,23,169,335
Raw,28,170,335
Raw,41,171,335
Raw,77,172,335
Raw,103,174,335
Raw,19,174,335
Raw,32,176,335
Raw,41,178,335
Raw,60,179,335
Raw,70,180,335
Raw,30,182,335
Raw,33,183,335
Raw,43,184,335
Raw,10,184,335
Raw,20,184,335
Raw,41,185,335
Raw,33,186,335
Raw,62,188,335
Raw,25,189,335
Raw,34,190,335
Raw,30,191,335
Raw,33,192,335
Raw,21,193,335
Raw,11,194,335
Raw,72,194,335
Raw,72,195,335
Raw,59,196,335
Raw,19,197,335
Raw,25,197,335
Raw,45,198,335
Raw,13,198,335
Raw,59,199,335
Raw,43,200,335
Raw,38,201,335
Raw,67,202,335
Raw,32,203,335
Raw,25,204,335
Raw,31,205,335
Raw,35,206,335
Raw,49,207,335
Raw,30,208,335
Raw,35,209,335
Raw,31,210,335
Raw,63,211,335
Raw,42,212,335
Raw,42,213,335
Raw,73,214,335
Raw,48,216,335
Raw,46,217,335
Raw,28,218,335
Raw,65,219,335
Raw,30,220,335
Raw,37,221,335
Raw,36,222,335
Raw,54,223,335
Raw,46,224,335
Raw,38,225,335
Raw,26,226,335
Raw,40,227,335
Raw,53,228,335
Raw,63,230,335
Raw,28,231,335
Raw,41,232,335
Raw,32,232,335
Raw,35,233,335
Raw,33,234,335
Raw,63,235,335
Raw,26,235,335
Raw,54,236,335
Raw,35,237,335
Raw,24,238,335
Raw,41,239,335
Raw,28,240,335
Raw,39,241,335
Raw,64,242,335
Raw,63,243,335
Raw,38,244,335
Raw,62,245,335
Raw,21,245,335
Raw,35,246,335
Raw,30,247,335
Raw,42,248,335
Raw,29,249,335
Raw,46,250,335
Raw,71,251,335
Raw,26,252,335
Raw,57,253,335
Raw,23,253,335
Raw,24,254,335
Raw,60,255,335
Raw,48,256,335
Raw,24,257,335
Raw,14,257,335
Raw,44,258,335
Raw,5,258,335
Raw,3,258,335
Raw,34,259,335
Raw,31,260,335
Raw,44,261,335
Raw,59,262,335
Raw,40,263,335
Raw,27,264,335
Raw,30,265,335
Raw,62,266,335
Raw,16,266,335
Raw,55,267,335
Raw,47,268,335
Raw,27,269,335
Raw,41,270,335
Raw,26,271,335
Raw,13,271,335
Raw,32,272,335
Raw,30,273,335
Raw,34,274,335
Raw,37,275,335
Raw,43,276,335
Raw,83,277,335
Raw,35,278,335
Raw,42,280,335
Raw,31,282,335
Raw,34,283,335
Raw,38,284,335
Raw,53,285,335
Raw,32,286,335
Raw,33,287,335
Raw,28,288,335
Raw,26,289,335
Raw,23,290,335
Raw,14,290,335
Raw,38,291,335
Raw,34,292,335
Raw,85,293,335
Raw,15,293,335
Raw,31,294,335
Raw,48,295,335
Raw,61,296,335
Raw,45,297,335
Raw,22,298,335
Raw,33,298,335
Raw,4,299,335
Raw,30,299,335
Raw,25,300,335
Raw,19,301,335
Raw,44,301,335
Raw,71,302,335
Raw,34,303,335
Raw,36,304,335
Raw,25,305,335
Raw,38,306,335
Raw,56,307,335
Raw,47,308,335
Raw,41,310,335
Raw,38,311,335
Raw,41,312,335
Raw,33,313,335
Raw,24,315,335
Raw,48,316,335
Raw,54,318,335
Raw,25,320,335
Raw,32,321,335
Raw,73,322,335
Raw,19,322,335
Raw,51,324,335
Raw,33,325,335
Raw,28,326,335
Raw,35,327,335
Raw,28,328,335
Raw,20,329,335
Raw,63,329,335
Raw,85,330,335
Raw,21,330,335
Raw,33,331,335
Raw,34,332,335
Raw,13,332,335
Raw,63,333,335
Raw,29,334,335
Raw,33,336,335
Raw,24,339,335
Raw,32,339,335
Raw,31,340,335
Raw,37,341,335
Raw,30,342,335
Raw,37,343,335
Raw,27,344,335
Raw,40,345,335
Raw,43,346,335
Raw,30,347,335
Raw,59,348,335
Raw,36,349,335
Raw,37,350,335
Raw,49,352,335
Raw,35,354,335
Raw,25,356,335
Raw,91,357,335
Raw,42,358,335
Raw,55,359,335
Raw,40,360,335
Raw,40,361,335
Raw,40,364,335
Raw,46,365,335
Raw,46,366,335
Raw,36,368,335
Raw,13,368,335
Raw,63,369,335
Raw,94,370,335
Raw,28,371,335
Raw,24,372,335
Raw,40,373,335
Raw,44,374,335
Raw,36,375,335
Raw,25,376,335
Raw,51,376,335
Raw,35,377,335
Raw,27,378,335
Raw,5,378,335
Raw,32,379,335
Raw,88,380,335
Raw,49,381,335
Raw,31,382,335
Raw,31,383,335
Raw,65,384,335
Raw,24,384,335
Raw,47,386,335
Raw,54,387,335
Raw,86,389,335
Raw,29,390,335
Raw,27,392,335
Raw,40,393,335
Raw,57,394,335
Raw,41,395,335
Raw,11,396,335
Raw,67,396,335
Raw,81,397,335
Raw,39,398,335
Raw,35,399,335
Raw,18,400,335
Raw,49,401,335
Raw,41,403,335
Raw,73,404,335
Raw,34,405,335
Raw,39,406,335
Raw,29,407,335
Raw,33,408,335
Raw,45,409,335
Raw,16,410,335
Raw,29,410,335
Raw,27,411,335
Raw,34,413,335
Raw,55,414,335
Raw,30,415,335
Raw,59,416,335
Raw,29,418,335
Raw,56,419,335
Raw,60,420,335
Raw,31,421,335
Raw,52,422,335
Raw,49,423,335
Raw,28,424,335
Raw,44,425,335
Raw,62,426,335
Raw,35,427,335
Raw,23,427,335
Raw,31,428,335
Raw,83,429,335
Raw,18,430,335
Raw,61,431,335
Raw,55,432,335
Raw,41,433,335
Raw,27,434,335
Raw,31,435,335
Raw,34,436,335
Raw,28,437,335
Raw,56,440,335
Raw,7,440,335
Raw,53,441,335
Raw,28,442,335
Raw,38,443,335
Raw,26,445,335
Raw,69,446,335
Raw,30,447,335
Raw,70,448,335
Raw,49,449,335
Raw,8,450,335
Raw,44,450,335
Raw,25,451,335
Raw,69,453,335
Raw,22,454,335
Raw,65,455,335
Raw,69,456,335
Raw,32,457,335
Raw,15,458,335
Raw,62,458,335
Raw,34,459,335
Raw,48,460,335
Raw,69,461,335
Raw,26,462,335
Raw,52,463,335
Raw,34,464,335
Raw,41,465,335
Raw,14,466,335
Raw,62,466,335
Raw,36,467,335
Raw,25,468,335
Raw,66,469,335
Raw,20,470,335
Raw,52,470,335
Raw,34,471,335
Raw,3,471,335
Raw,38,472,335
Raw,33,473,335
Raw,49,474,335
Raw,35,475,335
Raw,39,476,335
Raw,31,477,335
Raw,32,478,335
Raw,13,478,335
Raw,41,479,335
Raw,46,481,335
Raw,24,482,335
Raw,58,483,335
Raw,43,485,335
Raw,34,486,335
Raw,20,486,335
Raw,38,487,335
Raw,9,488,335
Raw,34,488,335
Raw,89,489,335
Raw,29,490,335
Raw,10,490,335
Raw,36,491,335
Raw,41,492,335
Raw,34,493,335
Raw,43,496,335
Raw,34,497,335
Raw,39,498,335
Raw,27,499,335
Raw,38,500,335
Raw,26,500,335
Raw,92,501,335
Raw,31,502,335
Raw,32,503,335
Raw,22,504,335
Raw,71,505,335
Raw,28,506,335
Raw,40,507,335
Raw,61,508,335
Raw,72,508,335
Raw,32,511,335
Raw,55,512,335
Raw,49,513,335
Raw,34,514,335
Raw,39,515,335
Raw,17,515,335
Raw,25,516,335
Raw,38,517,335
Raw,35,518,335
Raw,71,519,335
Raw,62,520,335
Raw,14,520,335
Raw,42,522,335
Raw,45,523,335
Raw,9,524,335
Raw,20,524,335
Raw,30,525,335
Raw,57,526,335
Raw,27,527,335
Raw,49,528,335
Raw,37,529,335
Raw,66,530,335
Raw,65,531,335
Raw,38,532,335
Raw,14,533,335
Raw,21,535,335
Raw,76,536,335
Raw,21,537,335
Raw,31,538,335
Raw,21,539,335
Raw,24,539,335
Raw,44,540,335
Raw,59,541,335
Raw,37,542,335
Raw,34,543,335
Raw,42,544,335
Raw,35,545,335
Raw,24,545,335
Raw,34,546,335
Raw,28,547,335
Raw,28,548,335
Raw,51,549,335
Raw,19,549,335
Raw,30,550,335
Raw,35,551,335
Raw,45,552,335
Raw,37,554,335
Raw,32,555,335
Raw,59,556,335
Raw,41,557,335
Raw,27,558,335
Raw,23,560,335
Raw,27,560,335
Raw,15,561,335
Raw,29,561,335
Raw,42,562,335
Raw,53,564,335
Raw,32,565,335
Raw,6,566,335
Raw,35,566,335
Raw,10,566,335
Raw,30,567,335
Raw,36,568,335
Raw,41,570,335
Raw,55,571,335
Raw,37,572,335
Raw,36,573,335
Raw,32,574,335
Raw,34,575,335
Raw,33,576,335
Raw,61,577,335
Raw,11,577,335
Raw,39,578,335
Raw,28,579,335
Raw,38,580,335
Raw,34,581,335
Raw,37,582,335
Raw,47,584,335
Raw,21,585,335
Raw,34,586,335
Raw,52,587,335
Raw,31,588,335
Raw,41,589,335
Raw,37,590,335
Raw,29,591,335
Raw,30,592,335
Raw,43,593,335
Raw,37,594,335
Raw,66,595,335
Raw,33,596,335
Raw,42,597,335
Raw,32,598,335
Raw,63,599,335
Raw,29,600,335
Raw,43,601,335
Raw,11,602,335
Raw,43,602,335
Raw,31,603,335
Raw,24,604,335
Raw,50,606,335
Raw,35,608,335
Raw,31,609,335
Raw,30,610,335
Raw,81,611,335
Raw,32,611,335
Raw,26,612,335
Raw,41,613,335
Raw,31,614,335
Raw,51,615,335
Raw,67,616,335
Raw,45,618,335
Raw,39,619,335
Raw,54,620,335
Raw,33,621,335
Raw,56,622,335
Raw,31,623,335
Raw,57,624,335
Raw,70,625,335
Raw,51,626,335
Raw,65,627,335
Raw,31,629,335
Raw,79,630,335
Raw,22,631,335
Raw,29,631,335
Raw,58,632,335
Raw,9,633,335
Raw,34,633,335
Raw,43,634,335
Raw,21,634,335
Raw,42,635,335
Raw,60,636,335
Raw,60,637,335
Raw,51,638,335
Raw,46,640,335
Raw,87,641,335
Raw,41,642,335
Raw,33,644,335
Raw,84,645,335
Raw,52,646,335
Raw,34,647,335
Raw,32,648,335
Raw,32,649,335
Raw,50,650,335
Raw,50,651,335
Raw,38,652,335
Raw,34,653,335
Raw,30,654,335
Raw,25,655,335
Raw,15,656,335
Raw,27,656,335
Raw,29,657,335
Raw,33,658,335
Raw,22,658,335
Raw,33,659,335
Raw,29,660,335
Raw,49,661,335
Raw,36,662,335
Raw,39,663,335
Raw,56,664,335
Raw,25,665,335
Raw,48,666,335
Raw,37,667,335
Raw,32,669,335
Raw,43,670,335
Raw,36,671,335
Raw,36,673,335
Raw,90,674,335
Raw,31,675,335
Raw,44,676,335
Raw,29,677,335
Raw,28,678,335
Raw,33,678,335
Raw,86,679,335
Raw,31,680,335
Raw,33,681,335
Raw,49,682,335
Raw,39,683,335
Raw,38,684,335
Raw,29,685,335
Raw,35,686,335
Raw,41,687,335
Raw,10,687,335
Raw,19,688,335
Raw,30,689,335
Raw,53,690,335
Raw,24,692,335
Raw,41,693,335
Raw,59,694,335
Raw,27,695,335
Raw,47,696,335
Raw,48,697,335
Raw,32,698,335
Raw,50,699,335
Raw,58,700,335
Raw,55,701,335
Raw,48,702,335
Raw,58,703,335
Raw,30,704,335
Raw,104,705,335
Raw,53,706,335
Raw,15,706,335
Raw,46,707,335
Raw,54,708,335
Raw,58,709,335
Raw,48,712,335
Raw,32,714,335
Raw,31,715,335
Raw,43,716,335
Raw,32,717,335
Raw,37,718,335
Raw,24,719,335
Raw,35,719,335
Raw,75,721,335
Raw,16,722,335
Raw,36,722,335
Raw,32,723,335
Raw,30,724,335
Raw,27,725,335
Raw,40,726,335
Raw,31,728,335
Raw,52,729,335
Raw,35,730,335
Raw,80,731,335
Raw,68,732,335
Raw,43,733,335
Raw,42,734,335
Raw,23,734,335
Raw,28,735,335
Raw,16,736,335
Raw,52,736,335
Raw,30,737,335
Raw,31,738,335
Raw,3,738,335
Raw,26,739,335
Raw,33,740,335
Raw,23,741,335
Raw,63,742,335
Raw,38,743,335
Raw,30,744,335
Raw,35,745,335
Raw,46,746,335
Raw,39,747,335
Raw,78,748,335
Raw,37,749,335
Raw,49,750,335
Raw,28,751,335
Raw,19,751,335
Raw,27,752,335
Raw,7,752,335
Raw,35,754,335
Raw,40,755,335
Raw,43,756,335
Raw,25,757,335
Raw,10,757,335
Raw,30,758,335
Raw,33,759,335
Raw,37,760,335
Raw,39,761,335
Raw,29,761,335
Raw,24,762,335
Raw,40,762,335
Raw,19,762,335
Raw,20,763,335
Raw,28,763,335
Raw,23,764,335
Raw,83,765,335
Raw,92,766,335
Raw,65,767,335
Raw,54,768,335
Raw,43,770,335
Raw,35,771,335
Raw,50,772,335
Raw,23,773,335
Raw,32,774,335
Raw,20,775,335
Raw,39,776,335
Raw,42,777,335
Raw,22,778,335
Raw,30,779,335
Raw,12,779,335
Raw,33,780,335
Raw,40,781,335
Raw,56,782,335
Raw,54,783,335
Raw,106,784,335
Raw,30,785,335
Raw,71,786,335
Raw,68,787,335
Raw,51,788,335
Raw,34,789,335
Raw,51,790,335
Raw,27,791,335
Raw,36,792,335
Raw,47,793,335
Raw,8,794,335
Raw,33,794,335
Raw,35,795,335
Raw,44,796,335
Raw,44,797,335
Raw,79,798,335
Raw,28,800,335
Raw,81,801,335
Raw,54,802,335
Raw,40,803,335
Raw,35,804,335
Raw,56,805,335
Raw,56,806,335
Raw,42,807,335
Raw,15,808,335
Raw,32,808,335
Raw,58,809,335
Raw,68,810,335
Raw,34,811,335
Raw,20,812,335
Raw,65,813,335
Raw,25,814,335
Raw,25,814,335
Raw,54,815,335
Raw,40,816,335
Raw,14,817,335
Raw,69,818,335
Raw,33,819,335
Raw,33,820,335
Raw,21,820,335
Raw,37,821,335
Raw,38,822,335
Raw,50,823,335
Raw,60,824,335
Raw,24,824,335
Raw,11,825,335
Raw,37,825,335
Raw,12,827,335
Raw,26,827,335
Raw,20,827,335
Raw,42,828,335
Raw,44,829,335
Raw,28,830,335
Raw,28,831,335
Raw,60,832,335
Raw,13,833,335
Raw,52,833,335
Raw,33,834,335
Raw,30,835,335
Raw,31,836,335
Raw,25,838,335
Raw,30,839,335
Raw,35,840,335
Raw,54,841,335
Raw,40,842,335
Raw,76,843,335
Raw,42,844,335
Raw,39,845,335
Raw,35,846,335
Raw,60,847,335
Raw,26,848,335
Raw,13,849,335
Raw,23,849,335
Raw,44,849,335
Raw,33,850,335
Raw,53,851,335
Raw,85,852,335
Raw,33,853,335
Raw,39,854,335
Raw,31,855,335
Raw,38,856,335
Raw,80,857,335
Raw,24,858,335
Raw,29,859,335
Raw,23,860,335
Raw,22,861,335
Raw,23,862,335
Raw,31,863,335
Raw,15,864,335
Raw,39,864,335
Raw,36,865,335
Raw,29,866,335
Raw,24,866,335
Raw,41,867,335
Raw,54,868,335
Raw,47,869,335
Raw,54,870,335
Raw,91,872,335
Raw,49,873,335
Raw,16,875,335
Raw,47,875,335
Raw,32,876,335
Raw,8,876,335
Raw,10,877,335
Raw,9,877,335
Raw,28,877,335
Raw,68,878,335
Raw,26,878,335
Raw,51,879,335
Raw,40,880,335
Raw,25,881,335
Raw,38,882,335
Raw,36,883,335
Raw,45,886,335
Raw,36,887,335
Raw,35,888,335
Raw,31,889,335
Raw,70,890,335
Raw,61,891,335
Raw,15,891,335
Raw,29,892,335
Raw,78,894,335
Raw,44,895,335
Raw,42,896,335
Raw,20,896,335
Raw,35,897,335
Raw,42,898,335
Raw,32,898,335
Raw,45,899,335
Raw,37,900,335
Raw,27,901,335
Raw,41,901,335
Raw,37,902,335
Raw,56,903,335
Raw,62,904,335
Raw,34,905,335
Raw,14,905,335
Raw,30,906,335
Raw,26,907,335
Raw,27,908,335
Raw,46,909,335
Raw,39,910,335
Raw,76,912,335
Raw,52,913,335
Raw,67,914,335
Raw,19,915,335
Raw,55,915,335
Raw,60,916,335
Raw,20,917,335
Raw,25,917,335
Raw,39,918,335
Raw,18,918,335
Raw,39,919,335
Raw,19,920,335
Raw,38,920,335
Raw,45,921,335
Raw,49,922,335
Raw,7,922,335
Raw,78,923,335
Raw,14,923,335
Raw,18,923,335
Raw,23,924,335
Raw,43,924,335
Raw,35,925,335
Raw,41,926,335
Raw,35,927,335
Raw,28,928,335
Raw,33,929,335
Raw,54,931,335
Raw,31,932,335
Raw,30,933,335
Raw,30,934,335
Raw,31,935,335
Raw,32,936,335
Raw,26,937,335
Raw,62,938,335
Raw,30,939,335
Raw,56,940,335
Raw,14,941,335
Raw,32,941,335
Raw,36,942,335
Raw,51,943,335
Raw,40,945,335
Raw,73,946,335
Raw,41,947,335
Raw,33,948,335
Raw,39,949,335
Raw,72,950,335
Raw,32,951,335
Raw,34,952,335
Raw,48,953,335
Raw,28,954,335
Raw,39,955,335
Raw,40,956,335
Raw,34,957,335
Raw,19,958,335
Raw,42,958,335
Raw,68,959,335
Raw,26,960,335
Raw,34,961,335
Raw,25,962,335
Raw,80,963,335
Raw,40,964,335
Raw,82,965,335
Raw,64,966,335
Raw,25,967,335
Raw,24,967,335
Raw,45,968,335
Raw,41,969,335
Raw,46,970,335
Raw,54,971,335
Raw,48,972,335
Raw,102,974,335
Raw,63,975,335
Raw,39,976,335
Raw,35,977,335
Raw,39,978,335
Raw,40,979,335
Raw,33,981,335
Raw,56,982,335
Raw,91,983,335
Raw,17,983,335
Raw,32,984,335
Raw,34,985,335
Raw,9,985,335
Raw,21,985,335
Raw,37,986,335
Raw,54,987,335
Raw,46,988,335
Raw,12,990,335
Raw,45,990,335
Raw,25,991,335
Raw,29,992,335
Raw,39,993,335
Raw,59,995,335
Raw,23,995,335
Raw,71,996,335
Raw,49,997,335
Raw,14,998,335
Raw,27,998,335
Raw,43,999,335
Raw,54,1000,335
Raw,17,1000,335
Raw,37,1001,335
Raw,40,1002,335
Raw,10,1002,335
Raw,46,1003,335
Raw,52,1004,335
Raw,94,1005,335
Raw,34,1006,335
Raw,63,1007,335
Raw,54,1008,335
Raw,39,1009,335
Raw,11,1010,335
Raw,43,1010,335
Raw,51,1011,335
Raw,19,1011,335
Raw,47,1012,335
Raw,27,1013,335
Raw,39,1014,335
Raw,31,1015,335
Raw,18,1015,335
Raw,46,1016,335
Raw,39,1017,335
Raw,59,1018,335
Raw,43,1019,335
Raw,39,1020,335
Raw,42,1021,335
Raw,51,1022,335
Raw,21,1023,335
Raw,19,1023,335
Raw,40,1024,335
Raw,25,1025,335
Raw,30,1026,335
Raw,33,1027,335
Raw,39,1028,335
Raw,40,1029,335
Raw,11,1029,335
Raw,44,1030,335
Raw,58,1031,335
Raw,33,1032,335
Raw,27,1033,335
Raw,54,1034,335
Raw,37,1036,335
Raw,28,1037,335
Raw,25,1039,335
Raw,51,1040,335
Raw,27,1041,335
Raw,63,1042,335
Raw,32,1043,335
Raw,27,1044,335
Raw,63,1045,335
Raw,31,1046,335
Raw,53,1047,335
Raw,5,1047,335
Raw,25,1048,335
Raw,59,1049,335
Raw,55,1050,335
Raw,37,1051,335
Raw,36,1052,335
Raw,31,1053,335
Raw,29,1054,335
Raw,57,1055,335
Raw,45,1056,335
Raw,31,1057,335
Raw,28,1059,335
Raw,42,1060,335
Raw,37,1061,335
Raw,28,1062,335
Raw,30,1063,335
Raw,29,1064,335
Raw,44,1065,335
Raw,41,1066,335
Raw,48,1067,335
Raw,18,1069,335
Raw,42,1069,335
Raw,35,1071,335
Raw,45,1072,335
Raw,21,1073,335
Raw,46,1073,335
Raw,59,1074,335
Raw,25,1075,335
Raw,52,1076,335
Raw,33,1077,335
Raw,64,1078,335
Raw,15,1079,335
Raw,59,1079,335
Raw,80,1080,335
Raw,12,1080,335
Raw,53,1081,335
Raw,25,1082,335
Raw,70,1084,335
Raw,31,1085,335
Raw,49,1086,335
Raw,61,1087,335
Raw,14,1087,335
Raw,37,1088,335
Raw,29,1089,335
Raw,12,1091,335
Raw,37,1091,335
Raw,34,1092,335
Raw,26,1093,335
Raw,30,1094,335
Raw,47,1095,335
Raw,15,1096,335
Raw,54,1096,335
Raw,64,1097,335
Raw,18,1097,335
Raw,41,1098,335
Raw,64,1099,335
Raw,91,1100,335
Raw,19,1101,335
Raw,55,1101,335
Raw,44,1102,335
Raw,70,1103,335
Raw,43,1105,335
Raw,62,1106,335
Raw,32,1106,335
Raw,26,1107,335
Raw,41,1108,335
Raw,26,1109,335
Raw,22,1110,335
Raw,25,1111,335
Raw,86,1112,335
Raw,47,1113,335
Raw,22,1113,335
Raw,42,1114,335
Raw,27,1115,335
Raw,28,1116,335
Raw,29,1117,335
Raw,37,1118,335
Raw,22,1119,335
Raw,36,1121,335
Raw,33,1122,335
Raw,59,1123,335
Raw,24,1124,335
Raw,32,1125,335
Raw,37,1126,335
Raw,50,1127,335
Raw,59,1128,335
Raw,30,1129,335
Raw,19,1129,335
Raw,59,1130,335
Raw,31,1131,335
Raw,19,1132,335
Raw,36,1132,335
Raw,32,1133,335
Raw,25,1134,335
Raw,57,1135,335
Raw,41,1136,335
Raw,36,1137,335
Raw,56,1138,335
Raw,63,1139,335
Raw,22,1139,335
Raw,38,1140,335
Raw,35,1141,335
Raw,16,1142,335
Raw,49,1142,335
Raw,28,1143,335
Raw,40,1144,335
Raw,35,1145,335
Raw,29,1146,335
Raw,27,1147,335
Raw,86,1148,335
Raw,54,1149,335
Raw,38,1150,335
Raw,43,1151,335
Raw,31,1152,335
Raw,70,1153,335
Raw,16,1154,335
Raw,62,1154,335
Raw,43,1155,335
Raw,32,1156,335
Raw,62,1157,335
Raw,27,1157,335
Raw,45,1158,335
Raw,49,1159,335
Raw,26,1159,335
Raw,15,1159,335
Raw,54,1160,335
Raw,28,1161,335
Raw,27,1162,335
Raw,39,1164,335
Raw,48,1165,335
Raw,60,1167,335
Raw,29,1168,335
Raw,28,1169,335
Raw,10,1170,335
Raw,53,1170,335
Raw,42,1171,335
Raw,36,1172,335
Raw,49,1173,335
Raw,32,1174,335
Raw,34,1175,335
Raw,78,1176,335
Raw,51,1177,335
Raw,36,1178,335
Raw,49,1179,335
Raw,69,1180,335
Raw,31,1181,335
Raw,37,1182,335
Raw,30,1182,335
Raw,6,1182,335
Raw,30,1183,335
Raw,55,1184,335
Raw,34,1184,335
Raw,52,1186,335
Raw,52,1187,335
Raw,45,1188,335
Raw,28,1188,335
Raw,30,1189,335
Raw,22,1189,335
Raw,33,1190,335
Raw,32,1191,335
Raw,55,1192,335
Raw,35,1194,335
Raw,36,1195,335
Raw,90,1196,335
Raw,64,1197,335
Raw,42,1198,335
Raw,44,1199,335
Raw,15,1199,335
Raw,23,1200,335
Raw,19,1201,335
Raw,30,1201,335
Raw,33,1202,335
Raw,33,1203,335
Raw,24,1204,335
Raw,34,1205,335
Raw,12,1206,335
Raw,54,1206,335
Raw,34,1207,335
Raw,14,1207,335
Raw,42,1208,335
Raw,73,1209,335
Raw,31,1210,335
Raw,33,1211,335
Raw,34,1212,335
Raw,27,1214,335
Raw,46,1217,335
Raw,38,1218,335
Raw,37,1219,335
Raw,20,1219,335
Raw,70,1220,335
Raw,39,1221,335
Raw,41,1222,335
Raw,42,1223,335
Raw,39,1224,335
Raw,42,1225,335
Raw,26,1225,335
Raw,31,1226,335
Raw,37,1227,335
Raw,32,1228,335
Raw,26,1229,335
Raw,34,1230,335
Raw,49,1231,335
Raw,31,1233,335
Raw,12,1234,335
Raw,65,1234,335
Raw,47,1235,335
Raw,33,1236,335
Raw,60,1237,335
Raw,35,1238,335
Raw,37,1239,335
Raw,18,1239,335
Raw,28,1240,335
Raw,28,1241,335
Raw,37,1242,335
Raw,78,1243,335
Raw,44,1244,335
Raw,66,1245,335
Raw,30,1246,335
Raw,56,1247,335
Raw,40,1248,335
Raw,26,1249,335
Raw,28,1250,335
Raw,21,1250,335
Raw,42,1251,335
Raw,41,1252,335
Raw,36,1253,335
Raw,39,1254,335
Raw,24,1256,335
Raw,50,1257,335
Raw,26,1258,335
Raw,38,1259,335
Raw,76,1260,335
Raw,10,1261,335
Raw,31,1261,335
Raw,28,1262,335
Raw,36,1263,335
Raw,32,1264,335
Raw,47,1264,335
Raw,27,1265,335
Raw,58,1266,335
Raw,41,1267,335
Raw,31,1267,335
Raw,21,1268,335
Raw,39,1268,335
Raw,32,1270,335
Raw,36,1271,335
Raw,64,1272,335
Raw,44,1273,335
Raw,27,1274,335
Raw,52,1275,335
Raw,43,1277,335
Raw,37,1278,335
Raw,54,1279,335
Raw,22,1279,335
Raw,26,1280,335
Raw,39,1281,335
Raw,30,1282,335
Raw,57,1283,335
Raw,17,1284,335
Raw,60,1284,335
Raw,25,1285,335
Raw,49,1286,335
Raw,25,1287,335
Raw,43,1288,335
Raw,83,1289,335
Raw,60,1290,335
Raw,37,1291,335
Raw,34,1292,335
Raw,32,1293,335
Raw,8,1293,335
Raw,30,1294,335
Raw,20,1294,335
Raw,25,1296,335
Raw,64,1297,335
Raw,77,1298,335
Raw,75,1299,335
Raw,12,1300,335
Raw,25,1301,335
Raw,32,1302,335
Raw,23,1302,335
Raw,38,1303,335
Raw,29,1304,335
Raw,30,1306,335
Raw,30,1306,335
Raw,51,1307,335
Raw,29,1307,335
Raw,34,1308,335
Raw,40,1309,335
Raw,31,1310,335
Raw,46,1311,335
Raw,33,1312,335
Raw,9,1312,335
Raw,39,1313,335
Raw,28,1314,335
Raw,10,1315,335
Raw,30,1316,335
Raw,25,1317,335
Raw,41,1317,335
Raw,31,1318,335
Raw,82,1319,335
Raw,70,1320,335
Raw,17,1320,335
Raw,38,1321,335
Raw,63,1322,335
Raw,42,1324,335
Raw,43,1325,335
Raw,42,1326,335
Raw,18,1327,335
Raw,39,1327,335
Raw,61,1328,335
Raw,34,1329,335
Raw,75,1330,335
Raw,36,1331,335
Raw,68,1332,335
Raw,64,1333,335
Raw,26,1334,335
Raw,39,1335,335
Raw,26,1336,335
Raw,42,1337,335
Raw,31,1338,335
Raw,42,1339,335
Raw,33,1340,335
Raw,45,1341,335
Raw,36,1343,335
Raw,37,1344,335
Raw,24,1345,335
Raw,18,1345,335
Raw,56,1346,335
Raw,45,1347,335
Raw,39,1348,335
Raw,63,1349,335
Raw,59,1350,335
Raw,37,1351,335
Raw,42,1353,335
Raw,38,1354,335
Raw,57,1355,335
Raw,47,1356,335
Raw,61,1357,335
Raw,23,1358,335
Raw,31,1359,335
Raw,39,1360,335
Raw,20,1361,335
Raw,15,1362,335
Raw,35,1362,335
Raw,35,1363,335
Raw,29,1364,335
Raw,33,1365,335
Raw,39,1366,335
Raw,43,1367,335
Raw,48,1368,335
Raw,35,1369,335
Raw,59,1370,335
Raw,77,1371,335
Raw,33,1372,335
Raw,56,1373,335
Raw,65,1374,335
Raw,51,1375,335
Raw,16,1375,335
Raw,45,1376,335
Raw,57,1376,335
Raw,17,1377,335
Raw,71,1377,335
Raw,36,1378,335
Raw,58,1379,335
Raw,9,1380,335
Raw,19,1380,335
Raw,41,1381,335
Raw,27,1382,335
Raw,48,1383,335
Raw,33,1384,335
Raw,44,1385,335
Raw,40,1386,335
Raw,24,1387,335
Raw,29,1388,335
Raw,32,1389,335
Raw,32,1390,335
Raw,40,1391,335
Raw,68,1392,335
Raw,54,1393,335
Raw,34,1395,335
Raw,43,1396,335
Raw,63,1397,335
Raw,96,1399,335
Raw,29,1401,335
Raw,25,1402,335
Raw,27,1403,335
Raw,26,1404,335
Raw,60,1406,335
Raw,29,1407,335
Raw,29,1408,335
Raw,70,1409,335
Raw,34,1410,335
Raw,26,1411,335
Raw,52,1412,335
Raw,37,1413,335
Raw,32,1414,335
Raw,41,1415,335
Raw,30,1416,335
Raw,24,1418,335
Raw,16,1418,335
Raw,31,1419,335
Raw,35,1420,335
Raw,44,1421,335
Raw,53,1422,335
Raw,29,1423,335
Raw,22,1424,335
Raw,34,1425,335
Raw,33,1426,335
Raw,30,1427,335
Raw,31,1428,335
Raw,51,1429,335
Raw,13,1429,335
Raw,78,1430,335
Raw,33,1431,335
Raw,55,1432,335
Raw,41,1433,335
Raw,31,1435,335
Raw,38,1436,335
Raw,31,1437,335
Raw,42,1438,335
Raw,42,1439,335
Raw,25,1440,335
Raw,56,1441,335
Raw,35,1443,335
Raw,48,1444,335
Raw,32,1445,335
Raw,20,1447,335
Raw,22,1447,335
Raw,33,1448,335
Raw,16,1448,335
Raw,43,1449,335
Raw,33,1450,335
Raw,29,1451,335
Raw,39,1452,335
Raw,45,1453,335
Raw,52,1454,335
Raw,20,1454,335
Raw,53,1455,335
Raw,12,1456,335
Raw,46,1456,335
Raw,28,1457,335
Raw,39,1458,335
Raw,41,1459,335
Raw,28,1460,335
Raw,36,1461,335
Raw,41,1462,335
Raw,50,1463,335
Raw,85,1464,335
Raw,36,1465,335
Raw,24,1466,335
Raw,42,1468,335
Raw,31,1469,335
Raw,34,1470,335
Raw,43,1471,335
Raw,40,1472,335
Raw,36,1473,335
Raw,31,1474,335
Raw,30,1475,335
Raw,41,1476,335
Raw,30,1478,335
Raw,57,1479,335
Raw,48,1480,335
Raw,53,1481,335
Raw,30,1482,335
Raw,40,1483,335
Raw,31,1484,335
Raw,77,1485,335
Raw,36,1487,335
Raw,30,1488,335
Raw,22,1488,335
Raw,43,1489,335
Raw,37,1490,335
Raw,38,1491,335
Raw,81,1492,335
Raw,23,1493,335
Raw,72,1495,335
Raw,25,1496,335
Raw,28,1497,335
Raw,58,1498,335
Raw,5,1498,335
Raw,44,1499,335
Raw,47,1500,335
Raw,41,1501,335
Raw,48,1502,335
Raw,40,1503,335
Raw,37,1504,335
Raw,33,1506,335
Raw,33,1506,335
Raw,23,1507,335
Raw,32,1507,335
Raw,33,1508,335
Raw,39,1509,335
Raw,34,1510,335
Raw,39,1511,335
Raw,36,1512,335
Raw,26,1513,335
Raw,25,1514,335
Raw,29,1515,335
Raw,49,1516,335
Raw,47,1517,335
Raw,29,1518,335
Raw,52,1519,335
Raw,31,1520,335
Raw,67,1521,335
Raw,37,1522,335
Raw,64,1523,335
Raw,71,1524,335
Raw,24,1525,335
Raw,37,1525,335
Raw,58,1526,335
Raw,41,1527,335
Raw,67,1528,335
Raw,49,1529,335
Raw,32,1530,335
Raw,19,1531,335
Raw,41,1532,335
Raw,37,1533,335
Raw,48,1534,335
Raw,45,1535,335
Raw,67,1537,335
Raw,51,1538,335
Raw,34,1539,335
Raw,41,1540,335
Raw,55,1541,335
Raw,32,1542,335
Raw,83,1543,335
Raw,11,1543,335
Raw,44,1544,335
Raw,44,1545,335
Raw,33,1547,335
Raw,50,1548,335
Raw,55,1551,335
Raw,40,1552,335
Raw,94,1553,335
Raw,29,1555,335
Raw,59,1556,335
Raw,12,1557,335
Raw,29,1557,335
Raw,30,1558,335
Raw,22,1558,335
Raw,62,1559,335
Raw,40,1560,335
Raw,54,1561,335
Raw,49,1562,335
Raw,56,1563,335
Raw,25,1564,335
Raw,37,1565,335
Raw,54,1566,335
Raw,35,1567,335
Raw,27,1570,335
Raw,43,1571,335
Raw,31,1572,335
Raw,41,1573,335
Raw,35,1574,335
Raw,29,1575,335
Raw,34,1576,335
Raw,86,1578,335
Raw,80,1579,335
Raw,24,1580,335
Raw,35,1582,335
Raw,28,1583,335
Raw,67,1584,335
Raw,33,1585,335
Raw,98,1586,335
Raw,24,1587,335
Raw,21,1587,335
Raw,30,1590,335
Raw,38,1591,335
Raw,45,1592,335
Raw,29,1593,335
Raw,34,1594,335
Raw,46,1595,335
Raw,31,1595,335
Raw,49,1596,335
Raw,55,1597,335
Raw,23,1598,335
Raw,28,1598,335
Raw,49,1599,335
Raw,20,1599,335
Raw,50,1600,335
Raw,63,1602,335
Raw,10,1603,335
Raw,28,1603,335
Raw,34,1604,335
Raw,62,1605,335
Raw,53,1606,335
Raw,40,1607,335
Raw,30,1608,335
Raw,20,1609,335
Raw,35,1609,335
Raw,37,1610,335
Raw,50,1611,335
Raw,35,1612,335
Raw,20,1613,335
Raw,56,1613,335
Raw,32,1614,335
Raw,71,1615,335
Raw,32,1616,335
Raw,21,1616,335
Raw,12,1617,335
Raw,61,1617,335
Raw,24,1618,335
Raw,44,1619,335
Raw,32,1619,335
Raw,32,1620,335
Raw,30,1621,335
Raw,29,1622,335
Raw,49,1623,335
Raw,21,1624,335
Raw,38,1624,335
Raw,16,1625,335
Raw,29,1625,335
Raw,36,1626,335
Raw,40,1627,335
Raw,30,1629,335
Raw,71,1630,335
Raw,54,1631,335
Raw,24,1632,335
Raw,21,1632,335
Raw,53,1633,335
Raw,57,1635,335
Raw,34,1636,335
Raw,36,1637,335
Raw,57,1638,335
Raw,37,1640,335
Raw,39,1641,335
Raw,25,1642,335
Raw,24,1642,335
Raw,23,1643,335
Raw,50,1644,335
Raw,28,1646,335
Raw,17,1647,335
Raw,26,1647,335
Raw,34,1648,335
Raw,38,1649,335
Raw,35,1650,335
Raw,38,1651,335
Raw,54,1652,335
Raw,92,1653,335
Raw,45,1654,335
Raw,32,1655,335
Raw,39,1656,335
Raw,56,1658,335
Raw,89,1659,335
Raw,31,1660,335
Raw,49,1661,335
Raw,32,1662,335
Raw,35,1663,335
Raw,36,1664,335
Raw,82,1665,335
Raw,28,1666,335
Raw,33,1667,335
Raw,45,1668,335
Raw,16,1668,335
Raw,35,1670,335
Raw,49,1671,335
Raw,46,1672,335
Raw,53,1673,335
Raw,60,1674,335
Raw,31,1676,335
Raw,27,1677,335
Raw,36,1679,335
Raw,47,1680,335
Raw,51,1681,335
Raw,56,1682,335
Raw,52,1683,335
Raw,63,1684,335
Raw,50,1685,335
Raw,39,1686,335
Raw,38,1687,335
Raw,60,1689,335
Raw,59,1690,335
Raw,62,1691,335
Raw,42,1692,335
Raw,63,1693,335
Raw,39,1694,335
Raw,61,1695,335
Raw,75,1696,335
Raw,26,1697,335
Raw,34,1698,335
Raw,50,1699,335
Raw,96,1700,335
Raw,45,1700,335
Raw,39,1701,335
Raw,32,1702,335
Raw,66,1703,335
Raw,27,1704,335
Raw,42,1705,335
Raw,95,1706,335
Raw,78,1707,335
Raw,24,1708,335
Raw,21,1708,335
Raw,20,1709,335
Raw,37,1710,335
Raw,69,1711,335
Raw,91,1712,335
Raw,34,1713,335
Raw,67,1714,335
Raw,23,1715,335
Raw,53,1716,335
Raw,80,1717,335
Raw,80,1718,335
Raw,64,1719,335
Raw,31,1720,335
Raw,52,1721,335
Raw,38,1722,335
Raw,45,1724,335
Raw,31,1725,335
Raw,33,1726,335
Raw,54,1727,335
Raw,26,1728,335
Raw,102,1729,335
Raw,7,1729,335
Raw,14,1730,335
Raw,32,1730,335
Raw,59,1731,335
Raw,32,1732,335
Raw,39,1733,335
Raw,42,1734,335
Raw,37,1735,335
Raw,26,1736,335
Raw,57,1737,335
Raw,73,1738,335
Raw,36,1739,335
Raw,42,1740,335
Raw,29,1741,335
Raw,73,1742,335
Raw,53,1743,335
Raw,41,1744,335
Raw,24,1745,335
Raw,16,1745,335
Raw,39,1746,335
Raw,25,1747,335
Raw,17,1749,335
Raw,26,1749,335
Raw,32,1750,335
Raw,24,1751,335
Raw,10,1751,335
Raw,70,1752,335
Raw,56,1753,335
Raw,26,1754,335
Raw,24,1755,335
Raw,40,1756,335
Raw,31,1757,335
Raw,26,1758,335
Raw,41,1759,335
Raw,73,1760,335
Raw,25,1761,335
Raw,71,1762,335
Raw,27,1763,335
Raw,27,1765,335
Raw,58,1766,335
Raw,19,1767,335
Raw,62,1767,335
Raw,50,1768,335
Raw,31,1769,335
Raw,24,1770,335
Raw,22,1771,335
Raw,80,1772,335
Raw,101,1773,335
Raw,33,1774,335
Raw,66,1775,335
Raw,37,1776,335
Raw,96,1777,335
Raw,19,1777,335
Raw,52,1778,335
Raw,66,1779,335
Raw,44,1780,335
Raw,59,1781,335
Raw,14,1781,335
Raw,47,1782,335
Raw,63,1783,335
Raw,50,1784,335
Raw,30,1785,335
Raw,38,1786,335
Raw,24,1787,335
Raw,36,1788,335
Raw,40,1789,335
Raw,31,1790,335
Raw,6,1790,335
Raw,62,1791,335
Raw,52,1792,335
Raw,22,1793,335
Raw,30,1793,335
Raw,51,1794,335
Raw,17,1795,335
Raw,39,1795,335
Raw,37,1796,335
Raw,29,1797,335
Raw,59,1798,335
Raw,31,1799,335
Raw,21,1800,335
Raw,39,1801,335
Raw,16,1802,335
Raw,34,1802,335
Raw,30,1804,335
Raw,26,1805,335
Raw,34,1806,335
Raw,38,1807,335
Raw,38,1808,335
Raw,63,1809,335
Raw,13,1809,335
Raw,24,1810,335
Raw,43,1811,335
Raw,57,1812,335
Raw,35,1813,335
Raw,27,1814,335
Raw,46,1815,335
Raw,27,1816,335
Raw,28,1817,335
Raw,62,1818,335
Raw,25,1819,335
Raw,21,1819,335
Raw,70,1820,335
Raw,48,1821,335
Raw,57,1823,335
Raw,28,1824,335
Raw,38,1825,335
Raw,56,1826,335
Raw,24,1826,335
Raw,52,1827,335
Raw,26,1828,335
Raw,32,1828,335
Raw,52,1830,335
Raw,27,1831,335
Raw,29,1832,335
Raw,33,1833,335
Raw,35,1834,335
Raw,33,1836,335
Raw,48,1837,335
Raw,25,1838,335
Raw,33,1839,335
Raw,31,1839,335
Raw,33,1840,335
Raw,11,1840,335
Raw,32,1841,335
Raw,50,1842,335
Raw,74,1844,335
Raw,44,1845,335
Raw,69,1846,335
Raw,33,1847,335
Raw,32,1848,335
Raw,72,1849,335
Raw,38,1850,335
Raw,32,1851,335
Raw,37,1852,335
Raw,60,1853,335
Raw,33,1854,335
Raw,34,1855,335
Raw,42,1856,335
Raw,36,1857,335
Raw,34,1859,335
Raw,33,1860,335
Raw,34,1861,335
Raw,76,1862,335
Raw,17,1862,335
Raw,48,1863,335
Raw,68,1864,335
Raw,44,1865,335
Raw,53,1866,335
Raw,50,1867,335
Raw,23,1868,335
Raw,62,1869,335
Raw,43,1870,335
Raw,31,1871,335
Raw,21,1871,335
Raw,32,1872,335
Raw,17,1872,335
Raw,65,1873,335
Raw,25,1873,335
Raw,31,1874,335
Raw,30,1875,335
Raw,41,1876,335
Raw,35,1877,335
Raw,31,1878,335
Raw,36,1879,335
Raw,40,1880,335
Raw,34,1881,335
Raw,14,1881,335
Raw,48,1882,335
Raw,32,1883,335
Raw,60,1884,335
Raw,92,1885,335
Raw,29,1886,335
Raw,66,1887,335
Raw,40,1888,335
Raw,96,1889,335
Raw,39,1890,335
Raw,35,1891,335
Raw,21,1892,335
Raw,29,1892,335
Raw,44,1893,335
Raw,50,1894,335
Raw,26,1895,335
Raw,34,1897,335
Raw,66,1898,335
Raw,26,1899,335
Raw,78,1900,335
Raw,64,1901,335
Raw,56,1902,335
Raw,30,1903,335
Raw,77,1904,335
Raw,92,1905,335
Raw,28,1906,335
Raw,28,1907,335
Raw,22,1907,335
Raw,69,1908,335
Raw,22,1908,335
Raw,22,1910,335
Raw,30,1911,335
Raw,35,1912,335
Raw,24,1913,335
Raw,94,1914,335
Raw,11,1914,335
Raw,30,1915,335
Raw,35,1916,335
Raw,38,1917,335
Raw,34,1918,335
Raw,24,1919,335
Raw,38,1920,335
Raw,61,1922,335
Raw,72,1923,335
Raw,38,1924,335
Raw,43,1925,335
Raw,42,1926,335
Raw,44,1927,335
Raw,45,1928,335
Raw,26,1929,335
Raw,10,1929,335
Raw,23,1930,335
Raw,24,1930,335
Raw,43,1931,335
Raw,31,1932,335
Raw,69,1933,335
Raw,20,1933,335
Raw,25,1934,335
Raw,31,1936,335
Raw,45,1937,335
Raw,36,1937,335
Raw,24,1938,335
Raw,31,1939,335
Raw,62,1940,335
Raw,29,1941,335
Raw,33,1942,335
Raw,35,1943,335
Raw,35,1944,335
Raw,34,1945,335
Raw,36,1946,335
Raw,33,1947,335
Raw,35,1948,335
Raw,26,1949,335
Raw,51,1950,335
Raw,32,1951,335
Raw,22,1952,335
Raw,51,1953,335
Raw,29,1954,335
Raw,23,1955,335
Raw,73,1956,335
Raw,34,1957,335
Raw,65,1958,335
Raw,24,1960,335
Raw,36,1961,335
Raw,45,1962,335
Raw,57,1963,335
Raw,62,1964,335
Raw,37,1965,335
Raw,25,1966,335
Raw,36,1967,335
Raw,33,1968,335
Raw,40,1970,335
Raw,19,1970,335
Raw,28,1971,335
Raw,37,1972,335
Raw,60,1973,335
Raw,24,1974,335
Raw,30,1975,335
Raw,79,1977,335
Raw,15,1977,335
Raw,13,1978,335
Raw,29,1978,335
Raw,15,1979,335
Raw,37,1979,335
Raw,37,1980,335
Raw,27,1981,335
Raw,21,1981,335
Raw,61,1983,335
Raw,30,1984,335
Raw,22,1984,335
Raw,25,1985,335
Raw,43,1986,335
Raw,32,1987,335
Raw,42,1988,335
Raw,22,1988,335
Raw,67,1989,335
Raw,24,1990,335
Raw,28,1992,335
Raw,49,1993,335
Raw,28,1994,335
Raw,37,1995,335
Raw,28,1997,335
Raw,33,1998,335
Raw,12,1999,335
Raw,35,1999,335
Raw,50,2000,335
Raw,35,2001,335
Raw,38,2002,335
Raw,50,2003,335
Raw,56,2004,335
Raw,38,2005,335
Raw,19,2006,335
Raw,37,2006,335
Raw,59,2007,335
Raw,27,2007,335
Raw,34,2008,335
Raw,51,2009,335
Raw,40,2010,335
Raw,42,2011,335
Raw,49,2011,335
Raw,28,2012,335
Raw,40,2014,335
Raw,37,2015,335
Raw,22,2016,335
Raw,24,2016,335
Raw,15,2017,335
Raw,33,2017,335
Raw,31,2018,335
Raw,12,2019,335
Raw,32,2019,335
Raw,23,2019,335
Raw,44,2020,335
Raw,17,2021,335
Raw,24,2021,335
Raw,37,2022,335
Raw,44,2023,335
Raw,70,2024,335
Raw,94,2025,335
Raw,42,2026,335
Raw,86,2027,335
Raw,24,2028,335
Raw,26,2030,335
Raw,13,2030,335
Raw,32,2031,335
Raw,25,2031,335
Raw,30,2032,335
Raw,10,2033,335
Raw,32,2033,335
Raw,48,2034,335
Raw,34,2035,335
Raw,37,2036,335
Raw,52,2037,335
Raw,28,2038,335
Raw,26,2039,335
Raw,22,2039,335
Raw,27,2040,335
Raw,26,2042,335
Raw,64,2043,335
Raw,73,2044,335
Raw,77,2045,335
Raw,20,2046,335
Raw,35,2047,335
Raw,27,2048,335
Raw,71,2049,335
Raw,33,2050,335
Raw,69,2051,335
Raw,44,2052,335
Raw,23,2052,335
Raw,27,2053,335
Raw,45,2054,335
Raw,53,2055,335
Raw,20,2056,335
Raw,28,2056,335
Raw,34,2057,335
Raw,28,2058,335
Raw,16,2058,335
Raw,30,2059,335
Raw,52,2060,335
Raw,45,2061,335
Raw,13,2062,335
Raw,28,2062,335
Raw,62,2063,335
Raw,63,2064,335
Raw,38,2065,335
Raw,46,2066,335
Raw,59,2067,335
Raw,56,2068,335
Raw,24,2068,335
Raw,53,2069,335
Raw,49,2070,335
Raw,60,2071,335
Raw,50,2072,335
Raw,25,2073,335
Raw,77,2075,335
Raw,29,2076,335
Raw,32,2077,335
Raw,40,2078,335
Raw,66,2079,335
Raw,31,2080,335
Raw,94,2081,335
Raw,12,2082,335
Raw,38,2082,335
Raw,23,2083,335
Raw,42,2084,335
Raw,58,2085,335
Raw,90,2086,335
Raw,11,2087,335
Raw,47,2087,335
Raw,28,2088,335
Raw,44,2089,335
Raw,59,2090,335
Raw,34,2092,335
Raw,52,2093,335
Raw,73,2094,335
Raw,41,2095,335
Raw,28,2097,335
Raw,37,2098,335
Raw,49,2099,335
Raw,31,2100,335
Raw,36,2101,335
Raw,39,2102,335
Raw,58,2103,335
Raw,26,2103,335
Raw,45,2104,335
Raw,59,2105,335
Raw,64,2106,335
Raw,32,2107,335
Raw,30,2108,335
Raw,68,2109,335
Raw,17,2109,335
Raw,96,2110,335
Raw,28,2111,335
Raw,20,2112,335
Raw,36,2112,335
Raw,30,2113,335
Raw,57,2114,335
Raw,34,2115,335
Raw,33,2116,335
Raw,30,2118,335
Raw,56,2119,335
Raw,57,2120,335
Raw,32,2121,335
Raw,58,2122,335
Raw,10,2122,335
Raw,47,2122,335
Raw,65,2123,335
Raw,46,2125,335
Raw,35,2126,335
Raw,31,2127,335
Raw,66,2128,335
Raw,52,2128,335
Raw,22,2129,335
Raw,35,2129,335
Raw,29,2130,335
Raw,33,2131,335
Raw,22,2132,335
Raw,35,2133,335
Raw,31,2134,335
Raw,74,2135,335
Raw,41,2136,335
Raw,48,2137,335
Raw,45,2138,335
Raw,34,2139,335
Raw,104,2141,335
Raw,60,2142,335
Raw,40,2143,335
Raw,86,2143,335
Raw,29,2144,335
Raw,41,2145,335
Raw,24,2146,335
Raw,74,2147,335
Raw,31,2148,335
Raw,54,2150,335
Raw,46,2151,335
Raw,39,2152,335
Raw,37,2153,335
Raw,25,2154,335
Raw,71,2155,335
Raw,44,2156,335
Raw,52,2157,335
Raw,37,2157,335
Raw,46,2158,335
Raw,46,2159,335
Raw,38,2159,335
Raw,21,2160,335
Raw,52,2160,335
Raw,32,2161,335
Raw,59,2162,335
Raw,33,2163,335
Raw,34,2164,335
Raw,37,2165,335
Raw,39,2166,335
Raw,45,2167,335
Raw,52,2168,335
Raw,16,2169,335
Raw,21,2170,335
Raw,53,2171,335
Raw,52,2172,335
Raw,30,2173,335
Raw,48,2174,335
Raw,15,2174,335
Raw,59,2176,335
Raw,17,2177,335
Raw,49,2177,335
Raw,13,2178,335
Raw,64,2178,335
Raw,60,2180,335
Raw,32,2180,335
Raw,28,2181,335
Raw,41,2182,335
Raw,63,2183,335
Raw,55,2184,335
Raw,27,2185,335
Raw,38,2185,335
Raw,36,2186,335
Raw,88,2187,335
Raw,47,2188,335
Raw,60,2189,335
Raw,3,2189,335
Raw,28,2190,335
Raw,24,2191,335
Raw,32,2193,335
Raw,74,2194,335
Raw,21,2194,335
Raw,51,2195,335
Raw,40,2196,335
Raw,37,2197,335
Raw,37,2198,335
Raw,61,2199,335
Raw,19,2200,335
Raw,30,2200,335
Raw,41,2201,335
Raw,67,2203,335
Raw,36,2204,335
Raw,29,2205,335
Raw,81,2206,335
Raw,28,2207,335
Raw,29,2208,335
Raw,24,2209,335
Raw,30,2211,335
Raw,22,2212,335
Raw,19,2213,335
Raw,40,2213,335
Raw,53,2214,335
Raw,46,2215,335
Raw,36,2215,335
Raw,65,2217,335
Raw,51,2218,335
Raw,36,2219,335
Raw,34,2221,335
Raw,70,2222,335
Raw,39,2223,335
Raw,34,2224,335
Raw,56,2225,335
Raw,50,2226,335
Raw,41,2227,335
Raw,46,2228,335
Raw,34,2229,335
Raw,38,2230,335
Raw,27,2230,335
Raw,42,2232,335
Raw,43,2233,335
Raw,39,2234,335
Raw,39,2235,335
Raw,29,2236,335
Raw,20,2236,335
Raw,53,2237,335
Raw,40,2238,335
Raw,31,2239,335
Raw,48,2240,335
Raw,33,2241,335
Raw,21,2241,335
Raw,24,2242,335
Raw,5,2242,335
Raw,41,2243,335
Raw,40,2244,335
Raw,26,2245,335
Raw,25,2245,335
Raw,65,2246,335
Raw,44,2247,335
Raw,44,2248,335
Raw,26,2250,335
Raw,34,2251,335
Raw,32,2252,335
Raw,38,2253,335
Raw,26,2254,335
Raw,31,2255,335
Raw,39,2256,335
Raw,14,2257,335
Raw,40,2257,335
Raw,30,2258,335
Raw,39,2259,335
Raw,29,2260,335
Raw,30,2261,335
Raw,33,2262,335
Raw,56,2263,335
Raw,26,2264,335
Raw,47,2265,335
Raw,36,2266,335
Raw,34,2267,335
Raw,48,2268,335
Raw,22,2269,335
Raw,44,2270,335
Raw,31,2271,335
Raw,97,2272,335
Raw,51,2273,335
Raw,47,2274,335
Raw,28,2275,335
Raw,36,2277,335
Raw,34,2278,335
Raw,33,2279,335
Raw,30,2280,335
Raw,42,2281,335
Raw,29,2282,335
Raw,31,2283,335
Raw,45,2284,335
Raw,51,2285,335
Raw,102,2286,335
Raw,37,2287,335
Raw,37,2288,335
Raw,40,2289,335
Raw,41,2290,335
Raw,61,2291,335
Raw,36,2292,335
Raw,49,2293,335
Raw,46,2294,335
Raw,57,2295,335
Raw,24,2296,335
Raw,19,2296,335
Raw,39,2297,335
Raw,29,2298,335
Raw,33,2299,335
Raw,42,2300,335
Raw,32,2301,335
Raw,37,2302,335
Raw,34,2303,335
Raw,33,2304,335
Raw,41,2305,335
Raw,32,2306,335
Raw,47,2307,335
Raw,20,2307,335
Raw,47,2308,335
Raw,37,2309,335
Raw,22,2310,335
Raw,37,2311,335
Raw,51,2312,335
Raw,27,2314,335
Raw,30,2315,335
Raw,12,2315,335
Raw,39,2316,335
Raw,59,2317,335
Raw,13,2317,335
Raw,40,2318,335
Raw,50,2319,335
Raw,35,2322,335
Raw,28,2323,335
Raw,12,2324,335
Raw,45,2324,335
Raw,43,2325,335
Raw,38,2326,335
Raw,37,2327,335
Raw,35,2328,335
Raw,29,2329,335
Raw,43,2330,335
Raw,43,2331,335
Raw,78,2332,335
Raw,53,2333,335
Raw,61,2334,335
Raw,47,2335,335
Raw,38,2336,335
Raw,23,2337,335
Raw,60,2338,335
Raw,13,2338,335
Raw,62,2340,335
Raw,94,2341,335
Raw,98,2342,335
Raw,40,2343,335
Raw,36,2344,335
Raw,41,2346,335
Raw,82,2347,335
Raw,48,2348,335
Raw,49,2349,335
Raw,38,2350,335
Raw,43,2351,335
Raw,58,2352,335
Raw,35,2353,335
Raw,67,2354,335
Raw,26,2355,335
Raw,32,2356,335
Raw,32,2358,335
Raw,35,2359,335
Raw,30,2360,335
Raw,19,2360,335
Raw,45,2361,335
Raw,34,2362,335
Raw,38,2363,335
Raw,31,2364,335
Raw,36,2365,335
Raw,41,2366,335
Raw,60,2367,335
Raw,15,2368,335
Raw,37,2368,335
Raw,29,2369,335
Raw,85,2370,335
Raw,57,2371,335
Raw,23,2372,335
Raw,43,2374,335
Raw,77,2375,335
Raw,71,2376,335
Raw,16,2376,335
Raw,33,2377,335
Raw,81,2378,335
Raw,43,2380,335
Raw,54,2381,335
Raw,36,2382,335
Raw,25,2383,335
Raw,66,2384,335
Raw,29,2385,335
Raw,35,2386,335
Raw,80,2387,335
Raw,44,2388,335
Raw,32,2389,335
Raw,30,2390,335
Raw,42,2391,335
Raw,33,2392,335
Raw,26,2393,335
Raw,20,2393,335
Raw,79,2394,335
Raw,39,2395,335
Raw,60,2396,335
Raw,71,2397,335
Raw,27,2398,335
Raw,38,2400,335
Raw,59,2401,335
Raw,7,2402,335
Raw,59,2402,335
Raw,59,2403,335
Raw,34,2403,335
Raw,33,2404,335
Raw,35,2406,335
Raw,20,2409,335
Raw,35,2409,335
Raw,52,2410,335
Raw,30,2412,335
Raw,41,2413,335
Raw,68,2414,335
Raw,33,2415,335
Raw,54,2416,335
Raw,24,2417,335
Raw,29,2418,335
Raw,10,2418,335
Raw,92,2419,335
Raw,20,2419,335
Raw,66,2420,335
Raw,28,2421,335
Raw,43,2422,335
Raw,65,2423,335
Raw,40,2424,335
Raw,89,2425,335
Raw,40,2427,335
Raw,43,2428,335
Raw,33,2429,335
Raw,58,2430,335
Raw,19,2430,335
Raw,84,2431,335
Raw,35,2432,335
Raw,52,2433,335
Raw,35,2434,335
Raw,44,2435,335
Raw,37,2437,335
Raw,15,2438,335
Raw,30,2438,335
Raw,30,2439,335
Raw,29,2440,335
Raw,36,2441,335
Raw,12,2442,335
Raw,52,2442,335
Raw,64,2444,335
Raw,91,2445,335
Raw,35,2447,335
Raw,15,2447,335
Raw,24,2448,335
Raw,21,2448,335
Raw,37,2449,335
Raw,24,2450,335
Raw,19,2451,335
Raw,49,2451,335
Raw,42,2452,335
Raw,51,2453,335
Raw,61,2454,335
Raw,23,2455,335
Raw,84,2456,335
Raw,20,2457,335
Raw,29,2457,335
Raw,37,2458,335
Raw,35,2459,335
Raw,36,2460,335
Raw,56,2461,335
Raw,17,2461,335
Raw,65,2462,335
Raw,27,2463,335
Raw,33,2464,335
Raw,13,2465,335
Raw,38,2465,335
Raw,59,2466,335
Raw,36,2468,335
Raw,47,2469,335
Raw,36,2470,335
Raw,32,2471,335
Raw,46,2472,335
Raw,32,2473,335
Raw,27,2474,335
Raw,35,2475,335
Raw,33,2476,335
Raw,35,2477,335
Raw,36,2478,335
Raw,33,2478,335
Raw,63,2480,335
Raw,31,2481,335
Raw,18,2481,335
Raw,24,2482,335
Raw,61,2483,335
Raw,42,2484,335
Raw,22,2486,335
Raw,80,2487,335
Raw,23,2488,335
Raw,36,2489,335
Raw,54,2490,335
Raw,32,2491,335
Raw,47,2492,335
Raw,33,2493,335
Raw,16,2494,335
Raw,31,2494,335
Raw,53,2495,335
Raw,34,2496,335
Raw,45,2498,335
Raw,44,2499,335
Raw,24,2500,335
Raw,8,2500,335
Raw,49,2501,335
Raw,28,2502,335
Raw,40,2503,335
Raw,24,2504,335
Raw,44,2504,335
Raw,43,2505,335
Raw,24,2506,335
Raw,49,2507,335
Raw,28,2508,335
Raw,30,2509,335
Raw,32,2511,335
Raw,43,2512,335
Raw,10,2513,335
Raw,35,2513,335
Raw,27,2514,335
Raw,38,2515,335
Raw,24,2516,335
Raw,27,2517,335
Raw,15,2519,335
Raw,42,2519,335
Raw,51,2520,335
Raw,37,2521,335
Raw,39,2522,335
Raw,27,2523,335
Raw,25,2524,335
Raw,23,2525,335
Raw,46,2526,335
Raw,25,2527,335
Raw,38,2528,335
Raw,59,2529,335
Raw,38,2530,335
Raw,27,2531,335
Raw,27,2532,335
Raw,24,2534,335
Raw,29,2535,335
Raw,54,2536,335
Raw,42,2537,335
Raw,52,2538,335
Raw,53,2539,335
Raw,35,2540,335
Raw,60,2542,335
Raw,33,2543,335
Raw,26,2544,335
Raw,29,2545,335
Raw,63,2546,335
Raw,22,2546,335
Raw,40,2547,335
Raw,18,2548,335
Raw,36,2548,335
Raw,37,2549,335
Raw,31,2550,335
Raw,32,2551,335
Raw,57,2552,335
Raw,17,2552,335
Raw,62,2553,335
Raw,22,2554,335
Raw,36,2554,335
Raw,90,2556,335
Raw,64,2557,335
Raw,33,2558,335
Raw,82,2559,335
Raw,14,2560,335
Raw,61,2560,335
Raw,39,2561,335
Raw,57,2562,335
Raw,49,2563,335
Raw,44,2564,335
Raw,40,2565,335
Raw,24,2566,335
Raw,38,2567,335
Raw,40,2568,335
Raw,28,2569,335
Raw,51,2571,335
Raw,24,2572,335
Raw,34,2573,335
Raw,30,2574,335
Raw,9,2574,335
Raw,44,2575,335
Raw,53,2577,335
Raw,17,2578,335
Raw,27,2579,335
Raw,24,2582,335
Raw,46,2583,335
Raw,37,2584,335
Raw,31,2585,335
Raw,35,2586,335
Raw,36,2587,335
Raw,106,2588,335
Raw,23,2589,335
Raw,35,2589,335
Raw,60,2590,335
Raw,38,2591,335
Raw,38,2592,335
Raw,41,2593,335
Raw,27,2594,335
Raw,43,2595,335
Raw,29,2596,335
Raw,21,2597,335
Raw,45,2598,335
Raw,35,2599,335
Raw,22,2601,335
Raw,45,2602,335
Raw,35,2603,335
Raw,42,2604,335
Raw,26,2605,335
Raw,34,2605,335
Raw,52,2606,335
Raw,65,2607,335
Raw,29,2608,335
Raw,38,2609,335
Raw,31,2610,335
Raw,45,2611,335
Raw,65,2612,335
Raw,36,2613,335
Raw,15,2614,335
Raw,33,2614,335
Raw,49,2615,335
Raw,27,2616,335
Raw,55,2617,335
Raw,54,2618,335
Raw,62,2619,335
Raw,58,2620,335
Raw,23,2621,335
Raw,55,2622,335
Raw,19,2622,335
Raw,31,2623,335
Raw,38,2624,335
Raw,34,2625,335
Raw,51,2626,335
Raw,59,2627,335
Raw,40,2628,335
Raw,20,2630,335
Raw,47,2630,335
Raw,36,2631,335
Raw,25,2633,335
Raw,48,2635,335
Raw,50,2636,335
Raw,83,2637,335
Raw,52,2638,335
Raw,96,2639,335
Raw,40,2640,335
Raw,55,2641,335
Raw,33,2642,335
Raw,34,2643,335
Raw,41,2644,335
Raw,37,2645,335
Raw,18,2646,335
Raw,31,2647,335
Raw,30,2648,335
Raw,49,2649,335
Raw,13,2650,335
Raw,34,2650,335
Raw,72,2651,335
Raw,23,2651,335
Raw,54,2652,335
Raw,29,2653,335
Raw,30,2653,335
Raw,35,2654,335
Raw,30,2655,335
Raw,28,2656,335
Raw,64,2657,335
Raw,52,2658,335
Raw,40,2659,335
Raw,62,2660,335
Raw,55,2661,335
Raw,20,2662,335
Raw,35,2662,335
Raw,35,2663,335
Raw,15,2664,335
Raw,34,2664,335
Raw,44,2665,335
Raw,32,2666,335
Raw,31,2667,335
Raw,21,2669,335
Raw,32,2669,335
Raw,37,2670,335
Raw,7,2670,335
Raw,36,2671,335
Raw,39,2673,335
Raw,31,2673,335
Raw,41,2674,335
Raw,5,2674,335
Raw,28,2675,335
Raw,63,2676,335
Raw,36,2677,335
Raw,22,2678,335
Raw,56,2678,335
Raw,27,2679,335
Raw,32,2680,335
Raw,31,2681,335
Raw,40,2681,335
Raw,36,2682,335
Raw,36,2683,335
Raw,40,2683,335
Raw,37,2684,335
Raw,21,2685,335
Raw,28,2685,335
Raw,32,2686,335
Raw,45,2687,335
Raw,37,2688,335
Raw,3,2688,335
Raw,37,2689,335
Raw,37,2690,335
Raw,29,2691,335
Raw,35,2692,335
Raw,17,2692,335
Raw,87,2693,335
Raw,23,2694,335
Raw,70,2695,335
Raw,42,2696,335
Raw,28,2697,335
Raw,68,2698,335
Raw,13,2699,335
Raw,33,2699,335
Raw,36,2700,335
Raw,57,2701,335
Raw,23,2703,335
Raw,27,2704,335
Raw,86,2705,335
Raw,12,2705,335
Raw,69,2706,335
Raw,21,2706,335
Raw,58,2707,335
Raw,36,2708,335
Raw,29,2709,335
Raw,29,2710,335
Raw,37,2711,335
Raw,24,2712,335
Raw,40,2713,335
Raw,37,2714,335
Raw,51,2715,335
Raw,18,2716,335
Raw,39,2716,335
Raw,26,2717,335
Raw,57,2718,335
Raw,50,2719,335
Raw,37,2720,335
Raw,36,2721,335
Raw,27,2722,335
Raw,28,2723,335
Raw,47,2724,335
Raw,36,2725,335
Raw,37,2726,335
Raw,21,2727,335
Raw,30,2727,335
Raw,29,2728,335
Raw,31,2729,335
Raw,48,2730,335
Raw,39,2731,335
Raw,55,2732,335
Raw,42,2733,335
Raw,44,2734,335
Raw,31,2735,335
Raw,38,2736,335
Raw,47,2737,335
Raw,40,2738,335
Raw,28,2739,335
Raw,9,2739,335
Raw,11,2740,335
Raw,37,2740,335
Raw,13,2740,335
Raw,27,2741,335
Raw,37,2741,335
Raw,33,2742,335
Raw,36,2743,335
Raw,105,2744,335
Raw,53,2745,335
Raw,38,2747,335
Raw,32,2748,335
Raw,18,2749,335
Raw,47,2749,335
Raw,66,2750,335
Raw,49,2752,335
Raw,42,2753,335
Raw,42,2754,335
Raw,35,2755,335
Raw,34,2756,335
Raw,23,2757,335
Raw,64,2758,335
Raw,51,2760,335
Raw,22,2761,335
Raw,40,2761,335
Raw,29,2762,335
Raw,30,2763,335
Raw,29,2764,335
Raw,53,2765,335
Raw,102,2766,335
Raw,38,2767,335
Raw,86,2769,335
Raw,25,2770,335
Raw,70,2771,335
Raw,20,2772,335
Raw,38,2772,335
Raw,34,2773,335
Raw,33,2774,335
Raw,39,2775,335
Raw,46,2776,335
Raw,34,2777,335
Raw,25,2778,335
Raw,28,2779,335
Raw,35,2779,335
Raw,24,2780,335
Raw,49,2781,335
Raw,27,2782,335
Raw,30,2783,335
Raw,34,2784,335
Raw,34,2785,335
Raw,46,2786,335
Raw,36,2787,335
Raw,48,2788,335
Raw,36,2790,335
Raw,40,2791,335
Raw,41,2792,335
Raw,42,2793,335
Raw,45,2794,335
Raw,48,2795,335
Raw,55,2796,335
Raw,49,2797,335
Raw,34,2798,335
Raw,22,2799,335
Raw,38,2799,335
Raw,33,2800,335
Raw,38,2801,335
Raw,34,2801,335
Raw,37,2802,335
Raw,66,2803,335
Raw,67,2804,335
Raw,79,2805,335
Raw,36,2806,335
Raw,18,2806,335
Raw,78,2807,335
Raw,29,2808,335
Raw,33,2809,335
Raw,15,2810,335
Raw,46,2810,335
Raw,18,2811,335
Raw,44,2811,335
Raw,62,2812,335
Raw,50,2813,335
Raw,43,2814,335
Raw,29,2816,335
Raw,25,2817,335
Raw,32,2819,335
Raw,30,2820,335
Raw,44,2821,335
Raw,46,2822,335
Raw,48,2823,335
Raw,40,2824,335
Raw,28,2825,335
Raw,63,2826,335
Raw,56,2828,335
Raw,60,2829,335
Raw,24,2829,335
Raw,43,2831,335
Raw,28,2832,335
Raw,37,2833,335
Raw,15,2835,335
Raw,49,2835,335
Raw,26,2836,335
Raw,37,2837,335
Raw,50,2838,335
Raw,62,2840,335
Raw,65,2841,335
Raw,36,2842,335
Raw,57,2844,335
Raw,25,2845,335
Raw,13,2845,335
Raw,33,2846,335
Raw,37,2847,335
Raw,26,2848,335
Raw,35,2849,335
Raw,27,2850,335
Raw,28,2851,335
Raw,40,2852,335
Raw,66,2853,335
Raw,75,2854,335
Raw,40,2855,335
Raw,25,2856,335
Raw,84,2858,335
Raw,25,2859,335
Raw,32,2859,335
Raw,65,2860,335
Raw,29,2861,335
Raw,36,2862,335
Raw,33,2863,335
Raw,21,2864,335
Raw,45,2864,335
Raw,49,2865,335
Raw,81,2866,335
Raw,18,2867,335
Raw,37,2867,335
Raw,34,2869,335
Raw,49,2869,335
Raw,33,2870,335
Raw,44,2871,335
Raw,31,2872,335
Raw,29,2873,335
Raw,27,2874,335
Raw,51,2875,335
Raw,22,2875,335
Raw,23,2876,335
Raw,39,2877,335
Raw,40,2879,335
Raw,37,2881,335
Raw,35,2882,335
Raw,60,2883,335
Raw,93,2884,335
Raw,30,2885,335
Raw,38,2886,335
Raw,35,2888,335
Raw,66,2889,335
Raw,35,2890,335
Raw,36,2891,335
Raw,56,2892,335
Raw,12,2894,335
Raw,36,2894,335
Raw,88,2895,335
Raw,42,2896,335
Raw,46,2897,335
Raw,38,2898,335
Raw,51,2899,335
Raw,30,2900,335
Raw,29,2901,335
Raw,71,2903,335
Raw,49,2904,335
Raw,62,2905,335
Raw,43,2906,335
Raw,56,2907,335
Raw,37,2908,335
Raw,34,2909,335
Raw,13,2909,335
Raw,34,2910,335
Raw,29,2911,335
Raw,40,2912,335
Raw,39,2913,335
Raw,40,2914,335
Raw,18,2914,335
Raw,36,2916,335
Raw,30,2917,335
Raw,48,2918,335
Raw,37,2920,335
Raw,29,2921,335
Raw,26,2922,335
Raw,37,2922,335
Raw,39,2923,335
Raw,49,2924,335
Raw,33,2925,335
Raw,16,2927,335
Raw,45,2927,335
Raw,10,2928,335
Raw,33,2928,335
Raw,29,2929,335
Raw,26,2929,335
Raw,51,2930,335
Raw,15,2930,335
Raw,48,2931,335
Raw,60,2933,335
Raw,32,2934,335
Raw,6,2934,335
Raw,29,2935,335
Raw,29,2936,335
Raw,25,2937,335
Raw,44,2938,335
Raw,65,2938,335
Raw,29,2939,335
Raw,64,2940,335
Raw,12,2941,335
Raw,39,2941,335
Raw,40,2942,335
Raw,48,2943,335
Raw,78,2944,335
Raw,33,2946,335
Raw,57,2947,335
Raw,57,2948,335
Raw,44,2949,335
Raw,34,2950,335
Raw,37,2951,335
Raw,36,2953,335
Raw,75,2954,335
Raw,60,2955,335
Raw,64,2956,335
Raw,28,2957,335
Raw,47,2958,335
Raw,37,2959,335
Raw,22,2960,335
Raw,35,2960,335
Raw,51,2961,335
Raw,52,2962,335
Raw,40,2963,335
Raw,39,2964,335
Raw,36,2965,335
Raw,24,2966,335
Raw,45,2966,335
Raw,50,2967,335
Raw,25,2968,335
Raw,27,2969,335
Raw,24,2970,335
Raw,17,2970,335
Raw,21,2971,335
Raw,36,2971,335
Raw,28,2972,335
Raw,52,2972,335
Raw,61,2973,335
Raw,30,2974,335
Raw,31,2975,335
Raw,44,2976,335
Raw,25,2976,335
Raw,34,2976,335
Raw,39,2977,335
Raw,69,2978,335
Raw,27,2979,335
Raw,41,2980,335
Raw,29,2981,335
Raw,57,2982,335
Raw,40,2983,335
Raw,15,2984,335
Raw,30,2984,335
Raw,30,2985,335
Raw,48,2986,335
Raw,74,2987,335
Raw,40,2988,335
Raw,50,2989,335
Raw,37,2990,335
Raw,25,2991,335
Raw,21,2993,335
Raw,26,2993,335
Raw,29,2994,335
Raw,27,2995,335
Raw,54,2996,335
Raw,44,2997,335
Raw,25,2998,335
Raw,35,2999,335
Raw,41,3000,335
Raw,38,3001,335
Raw,28,3002,335
Raw,44,3003,335
Raw,72,3004,335
Raw,27,3005,335
Raw,14,3005,335
Raw,24,3006,335
Raw,34,3006,335
Raw,29,3007,335
Raw,36,3009,335
Raw,37,3010,335
Raw,39,3011,335
Raw,71,3012,335
Raw,40,3013,335
Raw,47,3014,335
Raw,57,3015,335
Raw,28,3016,335
Raw,29,3017,335
Raw,26,3019,335
Raw,39,3020,335
Raw,33,3021,335
Raw,85,3022,335
Raw,42,3023,335
Raw,51,3024,335
Raw,38,3025,335
Raw,42,3026,335
Raw,74,3027,335
Raw,49,3028,335
Raw,32,3029,335
Raw,43,3030,335
Raw,27,3031,335
Raw,28,3031,335
Raw,41,3033,335
Raw,47,3034,335
Raw,49,3035,335
Raw,23,3036,335
Raw,34,3036,335
Raw,34,3037,335
Raw,85,3038,335
Raw,55,3039,335
Raw,35,3040,335
Raw,34,3041,335
Raw,35,3042,335
Raw,59,3043,335
Raw,31,3044,335
Raw,36,3045,335
Raw,65,3045,335
Raw,34,3046,335
Raw,52,3048,335
Raw,46,3049,335
Raw,59,3051,335
Raw,34,3052,335
Raw,68,3054,335
Raw,41,3055,335
Raw,42,3056,335
Raw,46,3057,335
Raw,57,3058,335
Raw,56,3060,335
Raw,25,3061,335
Raw,94,3062,335
Raw,27,3063,335
Raw,53,3064,335
Raw,34,3066,335
Raw,33,3067,335
Raw,45,3068,335
Raw,34,3069,335
Raw,26,3070,335
Raw,59,3071,335
Raw,24,3073,335
Raw,58,3074,335
Raw,44,3076,335
Raw,34,3077,335
Raw,43,3078,335
Raw,69,3079,335
Raw,43,3080,335
Raw,27,3081,335
Raw,62,3082,335
Raw,66,3083,335
Raw,43,3084,335
Raw,24,3085,335
Raw,35,3085,335
Raw,24,3085,335
Raw,46,3086,335
Raw,50,3087,335
Raw,55,3088,335
Raw,37,3089,335
Raw,46,3091,335
Raw,31,3092,335
Raw,28,3093,335
Raw,33,3094,335
Raw,45,3095,335
Raw,48,3096,335
Raw,37,3097,335
Raw,86,3098,335
Raw,71,3099,335
Raw,25,3100,335
Raw,38,3101,335
Raw,49,3102,335
Raw,38,3103,335
Raw,17,3103,335
Raw,44,3104,335
Raw,66,3105,335
Raw,58,3106,335
Raw,44,3107,335
Raw,68,3108,335
Raw,51,3109,335
Raw,11,3110,335
Raw,33,3110,335
Raw,70,3111,335
Raw,64,3112,335
Raw,39,3113,335
Raw,28,3114,335
Raw,45,3114,335
Raw,12,3114,335
Raw,61,3115,335
Raw,54,3116,335
Raw,38,3117,335
Raw,33,3117,335
Raw,52,3118,335
Raw,46,3120,335
Raw,36,3121,335
Raw,36,3122,335
Raw,19,3122,335
Raw,47,3123,335
Raw,55,3124,335
Raw,29,3125,335
Raw,57,3126,335
Raw,27,3127,335
Raw,80,3128,335
Raw,63,3129,335
Raw,30,3130,335
Raw,32,3131,335
Raw,47,3132,335
Raw,38,3133,335
Raw,37,3134,335
Raw,36,3135,335
Raw,90,3136,335
Raw,65,3137,335
Raw,74,3138,335
Raw,44,3139,335
Raw,31,3140,335
Raw,25,3141,335
Raw,42,3142,335
Raw,34,3143,335
Raw,9,3144,335
Raw,33,3144,335
Raw,38,3145,335
Raw,61,3146,335
Raw,33,3147,335
Raw,39,3148,335
Raw,53,3150,335
Raw,37,3152,335
Raw,51,3153,335
Raw,44,3154,335
Raw,21,3155,335
Raw,13,3155,335
Raw,97,3158,335
Raw,40,3159,335
Raw,18,3160,335
Raw,23,3160,335
Raw,55,3161,335
Raw,12,3162,335
Raw,35,3162,335
Raw,27,3163,335
Raw,38,3164,335
Raw,47,3165,335
Raw,42,3166,335
Raw,56,3167,335
Raw,25,3168,335
Raw,30,3169,335
Raw,29,3170,335
Raw,44,3170,335
Raw,24,3171,335
Raw,49,3172,335
Raw,68,3173,335
Raw,76,3174,335
Raw,24,3175,335
Raw,34,3175,335
Raw,58,3176,335
Raw,57,3177,335
Raw,42,3178,335
Raw,75,3179,335
Raw,7,3179,335
Raw,26,3180,335
Raw,31,3181,335
Raw,26,3182,335
Raw,35,3183,335
Raw,45,3184,335
Raw,46,3185,335
Raw,14,3185,335
Raw,63,3186,335
Raw,55,3187,335
Raw,25,3187,335
Raw,36,3188,335
Raw,18,3188,335
Raw,64,3189,335
Raw,38,3190,335
Raw,20,3191,335
Raw,39,3191,335
Raw,60,3192,335
Raw,56,3193,335
Raw,34,3194,335
Raw,23,3195,335
Raw,31,3196,335
Raw,22,3197,335
Raw,58,3198,335
Raw,34,3199,335
Raw,13,3199,335
Raw,79,3200,335
Raw,31,3201,335
Raw,28,3202,335
Raw,22,3202,335
Raw,40,3203,335
Raw,62,3204,335
Raw,12,3205,335
Raw,33,3205,335
Raw,37,3206,335
Raw,35,3207,335
Raw,38,3208,335
Raw,34,3209,335
Raw,89,3210,335
Raw,37,3211,335
Raw,25,3212,335
Raw,101,3213,335
Raw,45,3214,335
Raw,44,3216,335
Raw,82,3217,335
Raw,28,3218,335
Raw,29,3219,335
Raw,39,3220,335
Raw,78,3221,335
Raw,30,3222,335
Raw,29,3223,335
Raw,91,3224,335
Raw,23,3225,335
Raw,22,3226,335
Raw,35,3226,335
Raw,32,3227,335
Raw,26,3228,335
Raw,57,3230,335
Raw,54,3231,335
Raw,68,3232,335
Raw,22,3233,335
Raw,69,3234,335
Raw,32,3235,335
Raw,30,3236,335
Raw,73,3237,335
Raw,48,3238,335
Raw,43,3239,335
Raw,41,3240,335
Raw,54,3241,335
Raw,48,3243,335
Raw,48,3244,335
Raw,28,3245,335
Raw,16,3247,335
Raw,54,3247,335
Raw,44,3248,335
Raw,30,3249,335
Raw,63,3250,335
Raw,44,3251,335
Raw,34,3252,335
Raw,34,3253,335
Raw,41,3254,335
Raw,33,3255,335
Raw,51,3256,335
Raw,45,3257,335
Raw,29,3258,335
Raw,19,3258,335
Raw,32,3259,335
Raw,38,3260,335
Raw,47,3261,335
Raw,45,3262,335
Raw,38,3263,335
Raw,33,3263,335
Raw,40,3264,335
Raw,33,3265,335
Raw,31,3266,335
Raw,37,3266,335
Raw,44,3268,335
Raw,37,3269,335
Raw,37,3270,335
Raw,83,3271,335
Raw,29,3274,335
Raw,28,3275,335
Raw,46,3276,335
Raw,11,3276,335
Raw,41,3277,335
Raw,54,3278,335
Raw,48,3279,335
Raw,40,3280,335
Raw,80,3281,335
Raw,12,3281,335
Raw,60,3282,335
Raw,49,3283,335
Raw,42,3284,335
Raw,36,3285,335
Raw,39,3286,335
Raw,37,3287,335
Raw,65,3288,335
Raw,45,3289,335
Raw,44,3290,335
Raw,39,3291,335
Raw,64,3292,335
Raw,49,3293,335
Raw,58,3294,335
Raw,31,3295,335
Raw,43,3296,335
Raw,32,3296,335
Raw,27,3297,335
Raw,25,3298,335
Raw,39,3298,335
Raw,34,3299,335
Raw,34,3300,335
Raw,15,3300,335
Raw,70,3301,335
Raw,4,3301,335
Raw,44,3302,335
Raw,43,3303,335
Raw,22,3304,335
Raw,20,3305,335
Raw,77,3305,335
Raw,38,3306,335
Raw,78,3307,335
Raw,47,3308,335
Raw,30,3309,335
Raw,33,3309,335
Raw,46,3310,335
Raw,76,3311,335
Raw,37,3312,335
Raw,23,3312,335
Raw,31,3313,335
Raw,55,3314,335
Raw,52,3315,335
Raw,19,3316,335
Raw,34,3316,335
Raw,62,3317,335
Raw,58,3318,335
Raw,17,3319,335
Raw,35,3319,335
Raw,32,3320,335
Raw,65,3321,335
Raw,20,3322,335
Raw,48,3323,335
Raw,40,3324,335
Raw,23,3325,335
Raw,23,3326,335
Raw,83,3327,335
Raw,10,3327,335
Raw,50,3328,335
Raw,96,3329,335
Raw,32,3330,335
Raw,36,3331,335
Raw,66,3332,335
Raw,15,3332,335
Raw,39,3333,335
Raw,52,3334,335
Raw,25,3335,335
Raw,20,3335,335
Raw,42,3336,335
Raw,86,3337,335
Raw,37,3338,335
Raw,34,3339,335
Raw,26,3340,335
Raw,41,3341,335
Raw,27,3342,335
Raw,11,3342,335
Raw,33,3343,335
Raw,32,3344,335
Raw,57,3345,335
Raw,36,3346,335
Raw,63,3347,335
Raw,42,3348,335
Raw,50,3349,335
Raw,82,3350,335
Raw,24,3351,335
Raw,48,3352,335
Raw,28,3353,335
Raw,31,3354,335
Raw,41,3355,335
Raw,41,3356,335
Raw,23,3357,335
Raw,30,3358,335
Raw,25,3359,335
Raw,46,3359,335
Raw,12,3359,335
Raw,42,3360,335
Raw,26,3361,335
Raw,37,3362,335
Raw,40,3363,335
Raw,30,3364,335
Raw,25,3365,335
Raw,34,3366,335
Raw,26,3367,335
Raw,28,3368,335
Raw,66,3369,335
Raw,45,3370,335
Raw,47,3371,335
Raw,54,3372,335
Raw,28,3373,335
Raw,22,3373,335
Raw,33,3374,335
Raw,27,3375,335
Raw,53,3376,335
Raw,40,3377,335
Raw,17,3377,335
Raw,33,3378,335
Raw,25,3379,335
Raw,47,3380,335
Raw,18,3381,335
Raw,42,3382,335
Raw,22,3383,335
Raw,24,3384,335
Raw,39,3385,335
Raw,34,3386,335
Raw,33,3387,335
Raw,27,3388,335
Raw,27,3389,335
Raw,47,3390,335
Raw,15,3391,335
Raw,64,3391,335
Raw,62,3392,335
Raw,24,3393,335
Raw,42,3394,335
Raw,39,3395,335
Raw,29,3397,335
Raw,6,3397,335
Raw,28,3398,335
Raw,89,3399,335
Raw,47,3400,335
Raw,82,3401,335
Raw,33,3402,335
Raw,48,3403,335
Raw,38,3404,335
Raw,57,3405,335
Raw,44,3407,335
Raw,40,3408,335
Raw,33,3409,335
Raw,33,3410,335
Raw,10,3411,335
Raw,47,3411,335
Raw,69,3412,335
Raw,31,3413,335
Raw,25,3414,335
Raw,62,3415,335
Raw,39,3416,335
Raw,35,3417,335
Raw,38,3418,335
Raw,40,3419,335
Raw,31,3420,335
Raw,20,3421,335
Raw,29,3421,335
Raw,33,3422,335
Raw,35,3423,335
Raw,30,3424,335
Raw,32,3425,335
Raw,13,3426,335
Raw,36,3426,335
Raw,32,3427,335
Raw,28,3428,335
Raw,27,3429,335
Raw,43,3430,335
Raw,34,3431,335
Raw,34,3433,335
Raw,50,3433,335
Raw,40,3434,335
Raw,28,3435,335
Raw,41,3436,335
Raw,28,3437,335
Raw,41,3439,335
Raw,91,3440,335
Raw,29,3441,335
Raw,37,3442,335
Raw,24,3442,335
Raw,19,3443,335
Raw,20,3443,335
Raw,22,3444,335
Raw,34,3445,335
Raw,48,3447,335
Raw,72,3448,335
Raw,35,3449,335
Raw,13,3450,335
Raw,28,3450,335
Raw,41,3451,335
Raw,51,3452,335
Raw,28,3453,335
Raw,36,3455,335
Raw,36,3456,335
Raw,34,3457,335
Raw,95,3458,335
Raw,27,3459,335
Raw,40,3461,335
Raw,29,3462,335
Raw,28,3463,335
Raw,42,3465,335
Raw,23,3466,335
Raw,33,3467,335
Raw,33,3468,335
Raw,30,3468,335
Raw,12,3468,335
Raw,34,3469,335
Raw,20,3470,335
Raw,28,3470,335
Raw,46,3471,335
Raw,40,3472,335
Raw,25,3473,335
Raw,35,3474,335
Raw,25,3475,335
Raw,25,3476,335
Raw,26,3477,335
Raw,22,3478,335
Raw,33,3479,335
Raw,35,3480,335
Raw,10,3480,335
Raw,30,3481,335
Raw,26,3482,335
Raw,82,3483,335
Raw,27,3484,335
Raw,37,3484,335
Raw,39,3485,335
Raw,27,3486,335
Raw,50,3487,335
Raw,51,3488,335
Raw,38,3490,335
Raw,82,3492,335
Raw,63,3493,335
Raw,40,3494,335
Raw,20,3495,335
Raw,55,3495,335
Raw,35,3496,335
Raw,36,3497,335
Raw,44,3498,335
Raw,37,3499,335
Raw,35,3500,335
Raw,15,3501,335
Raw,43,3501,335
Raw,19,3501,335
Raw,38,3502,335
Raw,8,3503,335
Raw,29,3504,335
Raw,36,3505,335
Raw,19,3505,335
Raw,34,3506,335
Raw,35,3507,335
Raw,22,3508,335
Raw,38,3509,335
Raw,22,3510,335
Raw,49,3511,335
Raw,37,3512,335
Raw,51,3513,335
Raw,34,3514,335
Raw,52,3515,335
Raw,50,3516,335
Raw,22,3517,335
Raw,40,3518,335
Raw,36,3519,335
Raw,49,3519,335
Raw,46,3520,335
Raw,27,3521,335
Raw,20,3522,335
Raw,40,3522,335
Raw,41,3523,335
Raw,29,3524,335
Raw,32,3525,335
Raw,27,3526,335
Raw,77,3527,335
Raw,27,3528,335
Raw,52,3529,335
Raw,35,3530,335
Raw,74,3531,335
Raw,53,3532,335
Raw,36,3533,335
Raw,50,3534,335
Raw,54,3535,335
Raw,79,3536,335
Raw,41,3538,335
Raw,29,3539,335
Raw,62,3540,335
Raw,56,3541,335
Raw,72,3542,335
Raw,23,3542,335
Raw,44,3543,335
Raw,32,3545,335
Raw,78,3546,335
Raw,28,3547,335
Raw,16,3547,335
Raw,70,3548,335
Raw,40,3549,335
Raw,41,3550,335
Raw,51,3551,335
Raw,56,3552,335
Raw,53,3553,335
Raw,35,3554,335
Raw,60,3555,335
Raw,60,3556,335
Raw,33,3557,335
Raw,32,3558,335
Raw,25,3559,335
Raw,57,3560,335
Raw,39,3561,335
Raw,15,3561,335
Raw,57,3562,335
Raw,29,3564,335
Raw,45,3565,335
Raw,28,3566,335
Raw,55,3567,335
Raw,53,3568,335
Raw,54,3569,335
Raw,66,3570,335
Raw,50,3571,335
Raw,30,3572,335
Raw,32,3573,335
Raw,66,3574,335
Raw,36,3575,335
Raw,36,3576,335
Raw,29,3578,335
Raw,53,3579,335
Raw,13,3580,335
Raw,38,3580,335
Raw,53,3581,335
Raw,42,3583,335
Raw,42,3584,335
Raw,40,3585,335
Raw,47,3586,335
Raw,37,3587,335
Raw,30,3588,335
Raw,33,3589,335
Raw,41,3590,335
Raw,18,3590,335
Raw,64,3591,335
Raw,22,3591,335
Raw,16,3591,335
Raw,31,3592,335
Raw,28,3593,335
Raw,47,3594,335
Raw,12,3595,335
Raw,36,3595,335
Raw,32,3596,335
Raw,34,3597,335
Raw,50,3598,335
Raw,32,3599,335
Raw,41,3600,335
Raw,30,3601,335
Raw,46,3602,335
Raw,24,3603,335
Raw,30,3604,335
Raw,30,3605,335
Raw,32,3606,335
Raw,50,3608,335
