Cut?,Counts,eventNumber,runNumber
Raw,1.52520436e+05,5,337
Raw,1.79464826e+05,9,337
Raw,18361.896,11,337
Raw,77109.452,13,337
Raw,61204.273,14,337
Raw,1.85087573e+05,17,337
Raw,84947.599,19,337
Raw,31661.76,20,337
Raw,41819.91,39,337
Raw,87160.985,39,337
Raw,1.13380232e+05,40,337
Raw,42611.074,43,337
Raw,1.66244179e+05,45,337
Raw,1.71679324e+05,48,337
Raw,76357.646,55,337
Raw,62135.245,56,337
Raw,95959.456,56,337
Raw,82364.769,63,337
Raw,65820.838,65,337
Raw,1.7369114e+05,66,337
Raw,1.82565688e+05,66,337
Raw,64017.761,67,337
Raw,1.00831459e+05,70,337
Raw,1.31279998e+05,79,337
Raw,90139.764,82,337
Raw,42975.326,84,337
Raw,1.02296086e+05,88,337
Raw,49706.749,88,337
Raw,34635.354,89,337
Raw,19394.655,94,337
Raw,1.46795653e+05,95,337
Raw,55398.087,98,337
Raw,81717.528,101,337
Raw,1.84013921e+05,105,337
Raw,1.13292064e+05,108,337
Raw,1.08819218e+05,109,337
Raw,1.62159777e+05,112,337
Raw,87168.477,112,337
Raw,76300.815,114,337
Raw,1.25144452e+05,120,337
Raw,15747.413,121,337
Raw,73380.494,125,337
Raw,76596.019,130,337
Raw,73074.284,133,337
Raw,49270.31,136,337
Raw,1.04573102e+05,138,337
Raw,94740.298,139,337
Raw,1.03135402e+05,140,337
Raw,92223.571,141,337
Raw,2.08712162e+05,142,337
Raw,87337.232,145,337
Raw,72430.152,151,337
Raw,1.435271e+05,151,337
Raw,67312.689,157,337
Raw,27005.827,164,337
Raw,82670.899,173,337
Raw,1.5684722e+05,176,337
Raw,60700.136,177,337
Raw,1.21769169e+05,182,337
Raw,31535.157,185,337
Raw,85910.361,187,337
Raw,26521.34,188,337
Raw,96890.371,188,337
Raw,38872.484,188,337
Raw,1.56959992e+05,189,337
Raw,56806.354,190,337
Raw,1.24561505e+05,191,337
Raw,22808.484,192,337
Raw,1.68365188e+05,200,337
Raw,69442.506,201,337
Raw,1.13821738e+05,201,337
Raw,1.12381177e+05,206,337
Raw,1.84114507e+05,208,337
Raw,65128.474,211,337
Raw,65973.803,220,337
Raw,90609.11,221,337
Raw,58654.237,221,337
Raw,72840.072,222,337
Raw,55415.34,222,337
Raw,67504.66,224,337
Raw,42101.028,224,337
Raw,70969.214,225,337
Raw,95785.486,229,337
Raw,98545.395,229,337
Raw,27268.806,232,337
Raw,93338.578,233,337
Raw,72637.545,240,337
Raw,1.45089022e+05,244,337
Raw,73669.211,251,337
Raw,74716.773,252,337
Raw,32537.995,253,337
Raw,84631.537,259,337
Raw,42310.917,267,337
Raw,1.55319226e+05,275,337
Raw,34720.116,279,337
Raw,1.05468416e+05,284,337
Raw,1.52368422e+05,286,337
Raw,83597.563,288,337
Raw,41994.194,290,337
Raw,96048.004,291,337
Raw,1.21690052e+05,291,337
Raw,1.20001231e+05,298,337
Raw,82893.6,298,337
Raw,1.50016553e+05,300,337
Raw,98805.746,301,337
Raw,1.32725998e+05,303,337
Raw,29394.793,303,337
Raw,1.13446356e+05,309,337
Raw,1.5249547e+05,310,337
Raw,1.22264918e+05,314,337
Raw,1.98258519e+05,316,337
Raw,1.60853524e+05,317,337
Raw,78071.217,326,337
Raw,84487.129,330,337
Raw,57571.212,331,337
Raw,2.08390453e+05,333,337
Raw,98884.051,336,337
Raw,62027.574,339,337
Raw,71138.662,339,337
Raw,68021.791,341,337
Raw,1.12001451e+05,346,337
Raw,1.54728756e+05,352,337
Raw,1.17407392e+05,361,337
Raw,36570.179,361,337
Raw,1.47749289e+05,362,337
Raw,34602.518,363,337
Raw,1.34881362e+05,365,337
Raw,1.02683936e+05,369,337
Raw,29124.767,378,337
Raw,79951.918,387,337
Raw,63683.626,389,337
Raw,26774.282,392,337
Raw,65179.746,395,337
Raw,93353.187,395,337
Raw,58190.826,396,337
Raw,1.00026284e+05,397,337
Raw,59132.184,398,337
Raw,1.02281349e+05,399,337
Raw,69126.497,400,337
Raw,53651.287,401,337
Raw,53435.468,409,337
Raw,96693.248,410,337
Raw,98106.338,415,337
Raw,69491.193,421,337
Raw,1.0099477e+05,429,337
Raw,1.36527745e+05,430,337
Raw,1.6149789e+05,436,337
Raw,27272.283,440,337
Raw,1.40922007e+05,442,337
Raw,31263.369,446,337
Raw,2.08888036e+05,453,337
Raw,68360.7,465,337
Raw,1.04252427e+05,467,337
Raw,79899.952,469,337
Raw,69550.484,471,337
Raw,1.73209272e+05,472,337
Raw,1.47410143e+05,482,337
Raw,8407.5882,482,337
Raw,66296.506,483,337
Raw,1.9752879e+05,484,337
Raw,1.08942683e+05,489,337
Raw,1.22547466e+05,490,337
Raw,1.18214773e+05,494,337
Raw,45344.979,504,337
Raw,80750.228,509,337
Raw,68872.444,510,337
Raw,32181.128,513,337
Raw,99220.685,514,337
Raw,45970.533,515,337
Raw,36721.691,518,337
Raw,80738.334,526,337
Raw,1.23800327e+05,529,337
Raw,37512.841,535,337
Raw,85882.593,535,337
Raw,31421.277,538,337
Raw,32914.368,542,337
Raw,49315.602,549,337
Raw,1.1120961e+05,562,337
Raw,40250.736,566,337
Raw,62485.865,571,337
Raw,45420.62,578,337
Raw,76202.165,579,337
Raw,1.05851889e+05,583,337
Raw,59907.156,585,337
Raw,63617.308,585,337
Raw,69739.896,587,337
Raw,79617.06,588,337
Raw,56812.68,589,337
Raw,1.00544216e+05,589,337
Raw,56628.567,589,337
Raw,90342.125,596,337
Raw,78702.249,596,337
Raw,1.82484178e+05,598,337
Raw,74923.348,600,337
Raw,34045.748,602,337
Raw,98370.605,608,337
Raw,51029.463,609,337
Raw,1.12019685e+05,611,337
Raw,1.53460775e+05,613,337
Raw,29359.12,614,337
Raw,31110.711,617,337
Raw,38615.524,619,337
Raw,1.47255906e+05,621,337
Raw,86913.056,627,337
Raw,65110.013,628,337
Raw,51733.724,631,337
Raw,1.54236676e+05,635,337
Raw,58336.123,636,337
Raw,83453.838,646,337
Raw,56419.634,650,337
Raw,26842.442,650,337
Raw,18068.129,651,337
Raw,2.22313603e+05,653,337
Raw,55513.286,656,337
Raw,2.18808458e+05,657,337
Raw,42643.111,664,337
Raw,91883.853,667,337
Raw,71180.944,667,337
Raw,29526.048,668,337
Raw,32340.315,670,337
Raw,1.75232059e+05,675,337
Raw,1.04525397e+05,676,337
Raw,97820.873,680,337
Raw,1.8923145e+05,683,337
Raw,75234.86,683,337
Raw,1.08006451e+05,693,337
Raw,1.4614885e+05,698,337
Raw,94864.311,704,337
Raw,1.60110953e+05,705,337
Raw,1.22597374e+05,708,337
Raw,1.9289069e+05,711,337
Raw,1.16583639e+05,711,337
Raw,84809.333,712,337
Raw,29581.086,715,337
Raw,1.69059016e+05,716,337
Raw,96216.376,720,337
Raw,65153.839,728,337
Raw,73498.403,732,337
Raw,1.05593879e+05,734,337
Raw,26720.553,737,337
Raw,1.33435731e+05,758,337
Raw,85240.26,758,337
Raw,85042.283,760,337
Raw,1.16653543e+05,768,337
Raw,96394.251,769,337
Raw,93643.086,771,337
Raw,2.14488971e+05,773,337
Raw,77189.757,774,337
Raw,1.44815137e+05,775,337
Raw,11741.86,778,337
Raw,71879.475,788,337
Raw,43365.858,788,337
Raw,42070.966,792,337
Raw,82820.717,793,337
Raw,1.55934202e+05,796,337
Raw,83190.882,800,337
Raw,1.20407404e+05,803,337
Raw,55553.975,803,337
Raw,62048.569,804,337
Raw,1.79079647e+05,808,337
Raw,1.74538974e+05,809,337
Raw,1.36621344e+05,812,337
Raw,1.08093329e+05,813,337
Raw,30931.296,813,337
Raw,59335.521,814,337
Raw,1.39797487e+05,815,337
Raw,1.60519151e+05,818,337
Raw,98329.503,820,337
Raw,2.0979782e+05,826,337
Raw,1.18888158e+05,829,337
Raw,95854.66,836,337
Raw,70279.127,849,337
Raw,37162.984,849,337
Raw,1.24015615e+05,851,337
Raw,71156.769,852,337
Raw,1.90216597e+05,854,337
Raw,9550.0688,855,337
Raw,1.53392088e+05,862,337
Raw,12130.438,862,337
Raw,79893.934,864,337
Raw,43120.914,867,337
Raw,1.87303377e+05,871,337
Raw,1.29111796e+05,875,337
Raw,61156.047,877,337
Raw,73133.831,878,337
Raw,1.54742234e+05,881,337
Raw,1.17833452e+05,881,337
Raw,1.35053857e+05,888,337
Raw,68347.953,895,337
Raw,1.37007421e+05,897,337
Raw,23366.952,898,337
Raw,1.31768735e+05,902,337
Raw,34054.056,903,337
Raw,58445.151,905,337
Raw,73854.064,907,337
Raw,19021.831,915,337
Raw,1.49451322e+05,916,337
Raw,84970.455,918,337
Raw,76267.635,921,337
Raw,78026.875,924,337
Raw,1.47678783e+05,925,337
Raw,38079.783,926,337
Raw,62890.919,926,337
Raw,65092.698,931,337
Raw,70917.913,942,337
Raw,56944.17,942,337
Raw,1.00917094e+05,945,337
Raw,2.00520465e+05,948,337
Raw,1.4628886e+05,949,337
Raw,1.83422623e+05,950,337
Raw,47258.482,950,337
Raw,88506.222,964,337
Raw,36159.675,965,337
Raw,92469.565,965,337
Raw,35593.925,973,337
Raw,97352.395,974,337
Raw,2.34864742e+05,979,337
Raw,94202.57,980,337
Raw,79666.207,981,337
Raw,97639.223,984,337
Raw,30334.259,986,337
Raw,58431.533,993,337
Raw,58178.544,994,337
Raw,96896.761,997,337
Raw,25130.855,1007,337
Raw,1.05614382e+05,1008,337
Raw,46583.001,1009,337
Raw,85297.558,1017,337
Raw,1.5654555e+05,1021,337
Raw,94634.758,1022,337
Raw,41535.775,1026,337
Raw,1.06604501e+05,1027,337
Raw,68863.019,1031,337
Raw,98000.243,1032,337
Raw,1.82653553e+05,1034,337
Raw,1.02219806e+05,1040,337
Raw,39991.563,1041,337
Raw,74756.212,1041,337
Raw,96711.11,1047,337
Raw,55261.805,1047,337
Raw,98189.584,1049,337
Raw,64691.868,1053,337
Raw,39577.23,1055,337
Raw,1.1440825e+05,1061,337
Raw,1.94506052e+05,1062,337
Raw,65116.455,1064,337
Raw,1.76206331e+05,1066,337
Raw,24075.416,1066,337
Raw,42434.733,1076,337
Raw,1.79304757e+05,1080,337
Raw,90534.294,1081,337
Raw,52335.095,1082,337
Raw,2.04376886e+05,1082,337
Raw,1.36236455e+05,1083,337
Raw,32173.308,1084,337
Raw,38411.384,1087,337
Raw,79885.309,1090,337
Raw,75967.752,1094,337
Raw,49645.102,1098,337
Raw,31705.713,1098,337
Raw,64555.118,1100,337
Raw,78816.064,1115,337
Raw,1.76344606e+05,1118,337
Raw,45577.543,1120,337
Raw,1.1504483e+05,1126,337
Raw,1.21233679e+05,1127,337
Raw,67527.979,1129,337
Raw,51951.633,1130,337
Raw,1.01425109e+05,1133,337
Raw,83994.21,1135,337
Raw,60731.008,1137,337
Raw,37354.684,1139,337
Raw,29377.937,1142,337
Raw,44865.745,1144,337
Raw,90099.945,1144,337
Raw,87814.817,1150,337
Raw,77614.198,1152,337
Raw,1.68141045e+05,1160,337
Raw,83370.357,1162,337
Raw,94549.421,1162,337
Raw,48760.588,1167,337
Raw,1.67607752e+05,1168,337
Raw,1.25904659e+05,1173,337
Raw,89556.356,1177,337
Raw,70962.831,1177,337
Raw,1.89147609e+05,1178,337
Raw,1.09448311e+05,1179,337
Raw,1.25999425e+05,1183,337
Raw,1.20682123e+05,1189,337
Raw,1.10355969e+05,1190,337
Raw,75183.498,1193,337
Raw,2.0007475e+05,1195,337
Raw,2.08403372e+05,1196,337
Raw,97381.126,1197,337
Raw,1.36700739e+05,1197,337
Raw,35478.898,1214,337
Raw,91170.006,1215,337
Raw,46396.706,1218,337
Raw,51732.861,1219,337
Raw,1.46498037e+05,1226,337
Raw,24145.923,1227,337
Raw,14595.98,1228,337
Raw,44792.9,1233,337
Raw,93896.575,1236,337
Raw,45566.325,1236,337
Raw,47999.247,1238,337
Raw,90209.646,1241,337
Raw,67881.962,1241,337
Raw,61628.424,1243,337
Raw,34086.268,1251,337
Raw,2.05360968e+05,1251,337
Raw,27578.283,1256,337
Raw,47272.105,1257,337
Raw,1.76823012e+05,1259,337
Raw,44472.934,1259,337
Raw,79261.715,1261,337
Raw,34168.422,1261,337
Raw,1.53256634e+05,1262,337
Raw,81254.821,1266,337
Raw,34970.184,1267,337
Raw,2.33768348e+05,1270,337
Raw,43929.139,1270,337
Raw,1.0556118e+05,1275,337
Raw,1.65017242e+05,1276,337
Raw,58156.796,1280,337
Raw,54115.902,1280,337
Raw,83905.347,1286,337
Raw,88569.661,1287,337
Raw,75886.436,1297,337
Raw,77470.159,1297,337
Raw,58231.53,1300,337
Raw,1.65494066e+05,1303,337
Raw,1.65034497e+05,1305,337
Raw,75251.9,1307,337
Raw,27460.239,1309,337
Raw,1.08400051e+05,1309,337
Raw,94670.962,1316,337
Raw,31491.253,1321,337
Raw,1.43350609e+05,1324,337
Raw,1.10185746e+05,1329,337
Raw,1.14957038e+05,1332,337
Raw,55137.67,1332,337
Raw,1.51005673e+05,1346,337
Raw,86853.94,1348,337
Raw,1.02303939e+05,1348,337
Raw,92819.837,1353,337
Raw,1.448177e+05,1357,337
Raw,1.05075723e+05,1367,337
Raw,1.20263328e+05,1375,337
Raw,32046.856,1377,337
Raw,1.51768133e+05,1381,337
Raw,39142.466,1383,337
Raw,2.26868999e+05,1386,337
Raw,1.64050388e+05,1390,337
Raw,91372.088,1395,337
Raw,43118.613,1395,337
Raw,70983.605,1396,337
Raw,1.94334445e+05,1399,337
Raw,1.54682771e+05,1400,337
Raw,1.3804125e+05,1402,337
Raw,1.00137718e+05,1404,337
Raw,83965.362,1405,337
Raw,1.36406581e+05,1408,337
Raw,1.23805935e+05,1418,337
Raw,26475.939,1419,337
Raw,1.9729855e+05,1420,337
Raw,49867.65,1424,337
Raw,1.16958015e+05,1424,337
Raw,1.41070512e+05,1435,337
Raw,1.43990798e+05,1436,337
Raw,88934.055,1438,337
Raw,74605.703,1442,337
Raw,1.32843733e+05,1442,337
Raw,88380.285,1454,337
Raw,2.30671576e+05,1466,337
Raw,1.95096844e+05,1466,337
Raw,1.69369023e+05,1470,337
Raw,1.12721526e+05,1473,337
Raw,68313.019,1478,337
Raw,64885.169,1481,337
Raw,79336.998,1481,337
Raw,2.10248587e+05,1482,337
Raw,1.01076693e+05,1493,337
Raw,23910.102,1494,337
Raw,1.54082463e+05,1497,337
Raw,81591.398,1498,337
Raw,69738.046,1500,337
Raw,49994.754,1505,337
Raw,49134.724,1511,337
Raw,2.09782429e+05,1519,337
Raw,1.67886028e+05,1524,337
Raw,40161.159,1529,337
Raw,1.01719456e+05,1529,337
Raw,1.45301714e+05,1530,337
Raw,70605.613,1531,337
Raw,1.68674536e+05,1536,337
Raw,71792.196,1537,337
Raw,41793.431,1537,337
Raw,1.25567004e+05,1538,337
Raw,2.06636862e+05,1540,337
Raw,33979.614,1547,337
Raw,1.54196317e+05,1548,337
Raw,1.46533969e+05,1551,337
Raw,62139.105,1555,337
Raw,83805.41,1561,337
Raw,1.54571278e+05,1564,337
Raw,92537.864,1566,337
Raw,8531.1613,1567,337
Raw,49388.039,1568,337
Raw,50345.418,1571,337
Raw,33162.896,1571,337
Raw,48476.216,1572,337
Raw,1.01357665e+05,1572,337
Raw,1.06098581e+05,1575,337
Raw,54987.493,1575,337
Raw,1.84766011e+05,1576,337
Raw,64602.821,1580,337
Raw,2.11368353e+05,1582,337
Raw,86917.296,1583,337
Raw,90035.982,1585,337
Raw,47861.261,1590,337
Raw,55286.331,1593,337
Raw,77669.586,1596,337
Raw,46822.43,1599,337
Raw,1.02576024e+05,1604,337
Raw,96691.07,1605,337
Raw,78156.097,1607,337
Raw,1.79259126e+05,1609,337
Raw,92007.54,1610,337
Raw,2.23010149e+05,1613,337
Raw,90809.033,1622,337
Raw,82776.76,1622,337
Raw,93188.062,1625,337
Raw,37027.899,1626,337
Raw,95833.144,1628,337
Raw,83117.565,1629,337
Raw,1.79587176e+05,1630,337
Raw,1.7548902e+05,1634,337
Raw,46367.8,1634,337
Raw,36098.187,1636,337
Raw,1.72278341e+05,1640,337
Raw,39253.186,1641,337
Raw,65737.746,1643,337
Raw,26835.235,1643,337
Raw,81300.946,1647,337
Raw,76017.361,1650,337
Raw,87858.974,1651,337
Raw,1.07386026e+05,1655,337
Raw,62388.86,1656,337
Raw,1.58129632e+05,1661,337
Raw,1.20597943e+05,1665,337
Raw,40285.456,1667,337
Raw,63465.921,1668,337
Raw,92367.105,1669,337
Raw,64685.882,1671,337
Raw,25217.37,1671,337
Raw,55499.741,1671,337
Raw,2.31067492e+05,1673,337
Raw,1.31839432e+05,1674,337
Raw,35218.856,1683,337
Raw,66432.241,1686,337
Raw,29896.709,1686,337
Raw,49112.833,1691,337
Raw,83480.739,1692,337
Raw,70300.044,1692,337
Raw,46157.697,1694,337
Raw,88484.607,1701,337
Raw,1.14114398e+05,1706,337
Raw,47420.39,1708,337
Raw,34247.776,1709,337
Raw,54845.582,1710,337
Raw,80845.517,1714,337
Raw,1.0752048e+05,1717,337
Raw,1.51938369e+05,1719,337
Raw,66151.035,1719,337
Raw,19805.609,1729,337
Raw,1.84693293e+05,1731,337
Raw,34632.067,1733,337
Raw,1.70239461e+05,1734,337
Raw,30301.834,1743,337
Raw,67810.354,1744,337
Raw,45438.064,1745,337
Raw,94128.348,1745,337
Raw,1.21585414e+05,1748,337
Raw,51052.172,1750,337
Raw,1.12556332e+05,1752,337
Raw,47076.261,1754,337
Raw,1.41786133e+05,1757,337
Raw,27830.28,1757,337
Raw,1.74491529e+05,1760,337
Raw,1.26877484e+05,1761,337
Raw,35573.994,1761,337
Raw,1.11243148e+05,1764,337
Raw,90903.007,1767,337
Raw,52095.641,1768,337
Raw,70707.423,1770,337
Raw,1.31124665e+05,1772,337
Raw,71405.746,1774,337
Raw,71681.638,1776,337
Raw,1.98785425e+05,1780,337
Raw,1.95042661e+05,1797,337
Raw,76125.355,1798,337
Raw,33871.204,1803,337
Raw,1.21031352e+05,1805,337
Raw,72679.429,1807,337
Raw,2.00915269e+05,1813,337
Raw,74107.407,1816,337
Raw,23518.789,1818,337
Raw,93748.006,1820,337
Raw,1.3854216e+05,1824,337
Raw,1.27770629e+05,1825,337
Raw,44906.695,1826,337
Raw,29878.772,1831,337
Raw,1.46827678e+05,1832,337
Raw,81539.012,1832,337
Raw,72465.891,1840,337
Raw,46051.348,1842,337
Raw,1.45629295e+05,1843,337
Raw,86839.415,1848,337
Raw,90973.163,1850,337
Raw,1.9414957e+05,1855,337
Raw,1.17703569e+05,1858,337
Raw,2.10935741e+05,1864,337
Raw,1.29456473e+05,1874,337
Raw,19386.677,1880,337
Raw,53727.604,1880,337
Raw,70486.743,1880,337
Raw,90456.012,1881,337
Raw,55822.883,1885,337
Raw,94875.368,1887,337
Raw,52786.423,1891,337
Raw,93537.362,1892,337
Raw,1.87408315e+05,1897,337
Raw,1.88456786e+05,1898,337
Raw,2.02067481e+05,1899,337
Raw,2.26632795e+05,1900,337
Raw,48999.353,1903,337
Raw,74989.991,1904,337
Raw,67995.201,1904,337
Raw,54718.61,1908,337
Raw,26658.51,1908,337
Raw,62274.792,1909,337
Raw,34934.19,1910,337
Raw,1.14266566e+05,1910,337
Raw,71977.378,1916,337
Raw,27312.264,1917,337
Raw,55330.728,1922,337
Raw,1.82187286e+05,1925,337
Raw,90361.736,1926,337
Raw,1.38361812e+05,1930,337
Raw,58444.556,1932,337
Raw,1.29265312e+05,1933,337
Raw,1.28496958e+05,1935,337
Raw,80740.216,1937,337
Raw,1.15839503e+05,1940,337
Raw,93514.297,1941,337
Raw,1.21237432e+05,1942,337
Raw,30359.93,1949,337
Raw,1.50432537e+05,1949,337
Raw,60724.662,1952,337
Raw,90434.999,1954,337
Raw,1.43260126e+05,1955,337
Raw,1.80473699e+05,1956,337
Raw,73946.953,1956,337
Raw,69086.902,1957,337
Raw,1.16874358e+05,1964,337
Raw,36898.758,1965,337
Raw,39749.601,1970,337
Raw,73107.911,1973,337
Raw,65838.563,1980,337
Raw,1.61315303e+05,1983,337
Raw,1.29313768e+05,1987,337
Raw,1.39171426e+05,1993,337
Raw,49169.214,1993,337
Raw,47506.516,1997,337
Raw,51738.058,2008,337
Raw,1.52538438e+05,2010,337
Raw,2.10832863e+05,2011,337
Raw,80554.261,2014,337
Raw,1.16406578e+05,2015,337
Raw,88451.201,2018,337
Raw,2.21208906e+05,2018,337
Raw,35753.249,2019,337
Raw,87602.399,2021,337
Raw,1.29324678e+05,2022,337
Raw,1.20249855e+05,2025,337
Raw,1.29805059e+05,2031,337
Raw,1.44145652e+05,2034,337
Raw,45530.204,2040,337
Raw,61383.766,2041,337
Raw,1.02453432e+05,2041,337
Raw,65458.637,2043,337
Raw,2.23050374e+05,2044,337
Raw,1.33242255e+05,2048,337
Raw,1.5757117e+05,2051,337
Raw,79467.139,2061,337
Raw,1.80406363e+05,2065,337
Raw,28155.341,2066,337
Raw,41185.612,2068,337
Raw,1.45079464e+05,2068,337
Raw,70762.259,2072,337
Raw,21707.241,2086,337
Raw,60107.039,2091,337
Raw,99593.347,2094,337
Raw,69448.05,2100,337
Raw,1.57202493e+05,2101,337
Raw,69772.966,2101,337
Raw,67769.437,2104,337
Raw,37382.891,2110,337
Raw,30360.979,2112,337
Raw,49203.989,2112,337
Raw,75221.017,2113,337
Raw,52796.477,2120,337
Raw,84539.728,2121,337
Raw,78897.523,2122,337
Raw,42589.257,2125,337
Raw,76169.391,2125,337
Raw,64211.249,2129,337
Raw,2.08744793e+05,2135,337
Raw,1.11560193e+05,2135,337
Raw,44673.604,2136,337
Raw,1.14142167e+05,2141,337
Raw,78367.212,2141,337
Raw,32270.851,2143,337
Raw,2.08364374e+05,2144,337
Raw,97213.307,2146,337
Raw,55092.667,2151,337
Raw,74611.814,2155,337
Raw,34147.589,2157,337
Raw,40430.507,2157,337
Raw,93884.677,2159,337
Raw,1.0466101e+05,2165,337
Raw,85837.2,2166,337
Raw,1.12009958e+05,2168,337
Raw,18457.504,2174,337
Raw,39017.861,2174,337
Raw,38470.268,2177,337
Raw,27739.857,2178,337
Raw,33989.438,2182,337
Raw,29961.488,2182,337
Raw,43945.466,2187,337
Raw,24958.739,2188,337
Raw,1.08843515e+05,2190,337
Raw,45818.605,2191,337
Raw,1.30862307e+05,2192,337
Raw,2.06917379e+05,2193,337
Raw,46359.505,2194,337
Raw,1.36906661e+05,2194,337
Raw,1.85521015e+05,2199,337
Raw,1.57946661e+05,2200,337
Raw,44962.693,2201,337
Raw,51797.241,2205,337
Raw,65774.129,2205,337
Raw,68047.726,2213,337
Raw,78901.711,2218,337
Raw,1.10815991e+05,2218,337
Raw,1.25575901e+05,2223,337
Raw,1.22606866e+05,2226,337
Raw,37708.456,2227,337
Raw,1.56706882e+05,2234,337
Raw,26047.011,2236,337
Raw,65702.749,2238,337
Raw,56770.134,2239,337
Raw,46581.767,2244,337
Raw,23187.833,2246,337
Raw,40322.762,2247,337
Raw,1.18939586e+05,2248,337
Raw,1.20392188e+05,2252,337
Raw,81094.736,2254,337
Raw,1.24297005e+05,2258,337
Raw,66403.747,2263,337
Raw,1.07910355e+05,2267,337
Raw,58337.231,2267,337
Raw,7090.2736,2268,337
Raw,77970.184,2271,337
Raw,1.36996893e+05,2278,337
Raw,62384.041,2278,337
Raw,46296.459,2280,337
Raw,54560.925,2281,337
Raw,53724.944,2281,337
Raw,70385.845,2292,337
Raw,29368.335,2294,337
Raw,28734.382,2300,337
Raw,87858.222,2303,337
Raw,1.9034739e+05,2307,337
Raw,61218.546,2308,337
Raw,1.39442289e+05,2315,337
Raw,1.16796584e+05,2317,337
Raw,1.77958417e+05,2320,337
Raw,1.69859902e+05,2326,337
Raw,49602.772,2327,337
Raw,77491.395,2328,337
Raw,44809.616,2332,337
Raw,2.09508027e+05,2333,337
Raw,1.71833946e+05,2334,337
Raw,1.28641933e+05,2339,337
Raw,58965.691,2341,337
Raw,92097.176,2347,337
Raw,87706.689,2356,337
Raw,47423.305,2361,337
Raw,90365.623,2366,337
Raw,1.35350654e+05,2367,337
Raw,72792.997,2369,337
Raw,1.17311467e+05,2370,337
Raw,99861.891,2372,337
Raw,14511.82,2377,337
Raw,58462.857,2380,337
Raw,71855.495,2382,337
Raw,88937.659,2389,337
Raw,73815.13,2390,337
Raw,1.48535924e+05,2391,337
Raw,2.1039193e+05,2394,337
Raw,1.81807388e+05,2395,337
Raw,83432.352,2401,337
Raw,95739.024,2403,337
Raw,45240.508,2408,337
Raw,74917.95,2411,337
Raw,68336.809,2412,337
Raw,44289.904,2415,337
Raw,45220.87,2417,337
Raw,1.42995861e+05,2417,337
Raw,1.24820552e+05,2419,337
Raw,1.15928967e+05,2422,337
Raw,27369.967,2425,337
Raw,1.01588194e+05,2430,337
Raw,2.16323149e+05,2432,337
Raw,41454.681,2433,337
Raw,1.18106948e+05,2433,337
Raw,62890.074,2436,337
Raw,23938.915,2436,337
Raw,48208.351,2440,337
Raw,74656.648,2440,337
Raw,54605.4,2444,337
Raw,23177.008,2445,337
Raw,1.05536136e+05,2446,337
Raw,1.12129947e+05,2447,337
Raw,1.76864757e+05,2452,337
Raw,1.28471864e+05,2453,337
Raw,1.53178725e+05,2461,337
Raw,38486.99,2466,337
Raw,1.19709344e+05,2466,337
Raw,42867.401,2468,337
Raw,1.0864698e+05,2478,337
Raw,64369.527,2497,337
Raw,1.30200693e+05,2501,337
Raw,1.23543871e+05,2502,337
Raw,1.07951228e+05,2503,337
Raw,68266.735,2504,337
Raw,68957.904,2506,337
Raw,46056.86,2507,337
Raw,68227.156,2511,337
Raw,45991.845,2515,337
Raw,1.10147546e+05,2516,337
Raw,99886.405,2517,337
Raw,81656.93,2523,337
Raw,1.16245851e+05,2524,337
Raw,52733.528,2536,337
Raw,1.08683234e+05,2539,337
Raw,26176.593,2541,337
Raw,80860.395,2541,337
Raw,19546.588,2542,337
Raw,72892.074,2545,337
Raw,30065.057,2553,337
Raw,50233.151,2554,337
Raw,23500.644,2556,337
Raw,88677.559,2557,337
Raw,74922.094,2557,337
Raw,1.13229934e+05,2558,337
Raw,87432.194,2562,337
Raw,1.36342941e+05,2566,337
Raw,1.60516963e+05,2569,337
Raw,1.9017603e+05,2579,337
Raw,1.06914284e+05,2580,337
Raw,1.16591808e+05,2581,337
Raw,77879.923,2581,337
Raw,97121.658,2582,337
Raw,41012.077,2585,337
Raw,1.51500411e+05,2588,337
Raw,1.11703079e+05,2589,337
Raw,31084.029,2590,337
Raw,83711.704,2596,337
Raw,98780.664,2602,337
Raw,72497.935,2604,337
Raw,1.19429921e+05,2606,337
Raw,63254.65,2608,337
Raw,45456.131,2610,337
Raw,1.12784132e+05,2613,337
Raw,42446.272,2626,337
Raw,42920.208,2629,337
Raw,1.02606464e+05,2633,337
Raw,1.26009628e+05,2635,337
Raw,83647.48,2636,337
Raw,2.34617746e+05,2637,337
Raw,59863.404,2640,337
Raw,90903.093,2640,337
Raw,1.06440228e+05,2640,337
Raw,57406.751,2641,337
Raw,96623.994,2642,337
Raw,1.57484727e+05,2646,337
Raw,52481.559,2649,337
Raw,1.62396175e+05,2650,337
Raw,1.09644891e+05,2652,337
Raw,1.11905803e+05,2653,337
Raw,1.6099916e+05,2655,337
Raw,47511.013,2661,337
Raw,78807.468,2661,337
Raw,30341.004,2670,337
Raw,94024.51,2671,337
Raw,1.42319906e+05,2674,337
Raw,1.60453559e+05,2677,337
Raw,84118.073,2681,337
Raw,1.62546274e+05,2682,337
Raw,1.34661696e+05,2682,337
Raw,97752.894,2682,337
Raw,1.21863668e+05,2689,337
Raw,7708.4983,2690,337
Raw,1.59744028e+05,2691,337
Raw,64020.973,2695,337
Raw,1.60173058e+05,2702,337
Raw,1.70572003e+05,2706,337
Raw,63283.562,2706,337
Raw,1.26253137e+05,2708,337
Raw,1.58462619e+05,2711,337
Raw,1.20207209e+05,2714,337
Raw,18276.909,2715,337
Raw,81457.002,2717,337
Raw,1.52994133e+05,2721,337
Raw,1.46696832e+05,2722,337
Raw,1.05598527e+05,2723,337
Raw,69184.389,2725,337
Raw,50115.795,2726,337
Raw,58688.011,2729,337
Raw,1.14105577e+05,2729,337
Raw,1.27418353e+05,2732,337
Raw,47962.631,2747,337
Raw,94956.592,2748,337
Raw,91514.025,2751,337
Raw,96576.212,2758,337
Raw,1.84067546e+05,2761,337
Raw,87077.402,2765,337
Raw,65663.664,2767,337
Raw,1.02762819e+05,2768,337
Raw,1.93820755e+05,2773,337
Raw,62991.799,2775,337
Raw,90787.409,2776,337
Raw,52932.532,2780,337
Raw,69906.582,2783,337
Raw,48271.771,2785,337
Raw,1.726474e+05,2787,337
Raw,37261.406,2797,337
Raw,91116.938,2804,337
Raw,1.00378356e+05,2805,337
Raw,44786.28,2812,337
Raw,90620.235,2812,337
Raw,54600.602,2818,337
Raw,45112.636,2819,337
Raw,82394.812,2822,337
Raw,45576.93,2822,337
Raw,1.66302637e+05,2823,337
Raw,1.49462888e+05,2826,337
Raw,69774.416,2828,337
Raw,1.1255138e+05,2829,337
Raw,86720.456,2830,337
Raw,1.72756006e+05,2834,337
Raw,1.3261834e+05,2837,337
Raw,78687.971,2840,337
Raw,87771.008,2848,337
Raw,35658.163,2849,337
Raw,1.12031227e+05,2850,337
Raw,75125.444,2856,337
Raw,1.83943632e+05,2858,337
Raw,1.41493877e+05,2859,337
Raw,44427.351,2860,337
Raw,2.02178255e+05,2861,337
Raw,1.6179828e+05,2866,337
Raw,44230.934,2867,337
Raw,1.22336171e+05,2870,337
Raw,2.15473789e+05,2872,337
Raw,85531.835,2874,337
Raw,29837.662,2875,337
Raw,22316.897,2877,337
Raw,99578.942,2883,337
Raw,57662.283,2886,337
Raw,1.33961732e+05,2900,337
Raw,95467.406,2903,337
Raw,70455.463,2904,337
Raw,43155.326,2908,337
Raw,1.25613453e+05,2909,337
Raw,1.07882124e+05,2910,337
Raw,88975.782,2911,337
Raw,1.19424929e+05,2916,337
Raw,47145.607,2917,337
Raw,66713.631,2918,337
Raw,57709.965,2922,337
Raw,33776.825,2925,337
Raw,1.37941924e+05,2926,337
Raw,1.72550007e+05,2928,337
Raw,1.70315826e+05,2932,337
Raw,64479.038,2933,337
Raw,37791.879,2935,337
Raw,89410.658,2936,337
Raw,1.82404327e+05,2938,337
Raw,1.0344951e+05,2945,337
Raw,1.26053187e+05,2947,337
Raw,1.24055482e+05,2947,337
Raw,1.65040895e+05,2948,337
Raw,1.09267525e+05,2952,337
Raw,74045.919,2955,337
Raw,59019.745,2958,337
Raw,1.33209502e+05,2961,337
Raw,91370.309,2962,337
Raw,87534.744,2963,337
Raw,1.68884629e+05,2963,337
Raw,36278.733,2963,337
Raw,92307.533,2964,337
Raw,63468.277,2965,337
Raw,1.01617808e+05,2966,337
Raw,92364.34,2967,337
Raw,1.19274033e+05,2968,337
Raw,79455.45,2969,337
Raw,1.92555525e+05,2970,337
Raw,80480.099,2973,337
Raw,63107.405,2973,337
Raw,96056.385,2975,337
Raw,1.14920079e+05,2975,337
Raw,1.16687918e+05,2976,337
Raw,66420.112,2977,337
Raw,36516.621,2988,337
Raw,48628.444,2991,337
Raw,1.21810236e+05,2996,337
Raw,1.31575652e+05,3006,337
Raw,1.47087816e+05,3010,337
Raw,26417.26,3010,337
Raw,2.1863019e+05,3013,337
Raw,50918.734,3015,337
Raw,76508.772,3019,337
Raw,84804.172,3019,337
Raw,1.34422637e+05,3029,337
Raw,1.57656355e+05,3033,337
Raw,75150.483,3036,337
Raw,76789.166,3036,337
Raw,63573.761,3040,337
Raw,82352.138,3041,337
Raw,1.3426618e+05,3046,337
Raw,1.04356039e+05,3049,337
Raw,1.06059189e+05,3051,337
Raw,1.93553469e+05,3052,337
Raw,79560.129,3058,337
Raw,64890.277,3058,337
Raw,69742.223,3058,337
Raw,59098.072,3062,337
Raw,1.08581028e+05,3072,337
Raw,71098.131,3076,337
Raw,39354.085,3086,337
Raw,61653.094,3105,337
Raw,1.71251402e+05,3111,337
Raw,1.19588219e+05,3112,337
Raw,1.30528311e+05,3114,337
Raw,1.33221234e+05,3116,337
Raw,1.37549735e+05,3117,337
Raw,73573.911,3118,337
Raw,1.30882691e+05,3122,337
Raw,2.14310361e+05,3127,337
Raw,87266.513,3129,337
Raw,56731.448,3136,337
Raw,74132.929,3142,337
Raw,1.03829638e+05,3145,337
Raw,54949.607,3157,337
Raw,49086.058,3157,337
Raw,98568.93,3166,337
Raw,1.98942256e+05,3178,337
Raw,1.56535749e+05,3182,337
Raw,96344.636,3186,337
Raw,53693.497,3188,337
Raw,2.1332319e+05,3190,337
Raw,56707.628,3190,337
Raw,1.08019143e+05,3192,337
Raw,35612.591,3194,337
Raw,1.05866148e+05,3195,337
Raw,47375.067,3196,337
Raw,48343.698,3196,337
Raw,32882.941,3198,337
Raw,62343.889,3199,337
Raw,57642.16,3202,337
Raw,60694.406,3202,337
Raw,95941.548,3203,337
Raw,76733.167,3207,337
Raw,46504.478,3211,337
Raw,1.08823845e+05,3212,337
Raw,63067.325,3214,337
Raw,61570.052,3223,337
Raw,1.59558329e+05,3227,337
Raw,88915.753,3236,337
Raw,1.71920494e+05,3239,337
Raw,13542.859,3240,337
Raw,77551.391,3240,337
Raw,42849.525,3240,337
Raw,37977.653,3242,337
Raw,76695.086,3244,337
Raw,1.39455349e+05,3247,337
Raw,1.12611874e+05,3247,337
Raw,75683.56,3249,337
Raw,87946.647,3249,337
Raw,1.21051256e+05,3250,337
Raw,56668.73,3251,337
Raw,33950.839,3253,337
Raw,34514.3,3256,337
Raw,1.3408542e+05,3260,337
Raw,47435.562,3265,337
Raw,1.15406461e+05,3266,337
Raw,47566.223,3267,337
Raw,1.71644069e+05,3267,337
Raw,86094.001,3270,337
Raw,71458.239,3271,337
Raw,81752.534,3273,337
Raw,69217.46,3288,337
Raw,1.39968915e+05,3290,337
Raw,1.31174118e+05,3291,337
Raw,97907.114,3291,337
Raw,79241.954,3293,337
Raw,1.13819903e+05,3298,337
Raw,1.16911301e+05,3305,337
Raw,76216.793,3308,337
Raw,34390.749,3311,337
Raw,97301.141,3316,337
Raw,62684.035,3329,337
Raw,2.23233802e+05,3331,337
Raw,56630.855,3331,337
Raw,74376.475,3342,337
Raw,99804.449,3343,337
Raw,1.60978439e+05,3346,337
Raw,58144.448,3350,337
Raw,1.80036848e+05,3351,337
Raw,54204.672,3356,337
Raw,47207.623,3358,337
Raw,2.11077317e+05,3359,337
Raw,37843.705,3362,337
Raw,2.00898184e+05,3369,337
Raw,72521.979,3370,337
Raw,1.72138485e+05,3371,337
Raw,86587.709,3373,337
Raw,1.14114079e+05,3379,337
Raw,74592.926,3390,337
Raw,54485.443,3392,337
Raw,1.07536791e+05,3392,337
Raw,1.4751512e+05,3394,337
Raw,70397.537,3398,337
Raw,2.19893361e+05,3399,337
Raw,53750.977,3404,337
Raw,84338.235,3405,337
Raw,1.68774428e+05,3406,337
Raw,45701.156,3408,337
Raw,28948.325,3408,337
Raw,76543.564,3409,337
Raw,63406.63,3409,337
Raw,50915.56,3413,337
Raw,56990.993,3413,337
Raw,78125.153,3416,337
Raw,1.27718404e+05,3419,337
Raw,50141.943,3420,337
Raw,70205.713,3421,337
Raw,63685.15,3424,337
Raw,61222.712,3427,337
Raw,1.06775248e+05,3428,337
Raw,1.28459917e+05,3428,337
Raw,1.28135474e+05,3430,337
Raw,1.82404679e+05,3436,337
Raw,55553.791,3438,337
Raw,63677.579,3439,337
Raw,53732.775,3442,337
Raw,45321.666,3448,337
Raw,34414.834,3450,337
Raw,76521.957,3452,337
Raw,1.11993226e+05,3453,337
Raw,1.28883747e+05,3454,337
Raw,51477.435,3459,337
Raw,80292.094,3459,337
Raw,79745.444,3460,337
Raw,84454.181,3463,337
Raw,55975.617,3464,337
Raw,88265.586,3465,337
Raw,71841.645,3466,337
Raw,62808.373,3469,337
Raw,86612.132,3474,337
Raw,27403.696,3474,337
Raw,1.21181236e+05,3475,337
Raw,95606.34,3478,337
Raw,75053.927,3481,337
Raw,83014.047,3482,337
Raw,52782.208,3483,337
Raw,68638.629,3486,337
Raw,42235.634,3486,337
Raw,59241.062,3488,337
Raw,1.3015789e+05,3488,337
Raw,79420.974,3500,337
Raw,81783.191,3507,337
Raw,1.49149722e+05,3508,337
Raw,1.92230395e+05,3511,337
Raw,1.05847213e+05,3511,337
Raw,1.08911221e+05,3512,337
Raw,2.24375428e+05,3513,337
Raw,2.05432588e+05,3524,337
Raw,1.59463258e+05,3525,337
Raw,59041.255,3531,337
Raw,82464.961,3533,337
Raw,57513.232,3537,337
Raw,1.0014315e+05,3537,337
Raw,78661.004,3538,337
Raw,1.38735813e+05,3544,337
Raw,47200.595,3547,337
Raw,1.63685755e+05,3549,337
Raw,1.19835929e+05,3551,337
Raw,71270.811,3554,337
Raw,1.18788867e+05,3558,337
Raw,2.05928186e+05,3561,337
Raw,69587.763,3566,337
Raw,79575.744,3566,337
Raw,84084.486,3577,337
Raw,81480.631,3577,337
Raw,52128.461,3579,337
Raw,1.37634106e+05,3579,337
Raw,46585.614,3580,337
Raw,19398.956,3581,337
Raw,58013.912,3582,337
Raw,33341.144,3583,337
Raw,77435.764,3585,337
Raw,64786.996,3587,337
Raw,41046.289,3591,337
Raw,1.93832588e+05,3593,337
Raw,73947.583,3594,337
Raw,64886.569,3595,337
Raw,1.11230162e+05,3595,337
Raw,1.16523109e+05,3599,337
Raw,28333.135,3600,337
Raw,79153.671,3601,337
Raw,1.93429504e+05,3609,337
Raw,1.54610205e+05,3617,337
Raw,14467.482,3623,337
Raw,35369.221,3626,337
Raw,27859.569,3627,337
Raw,76304.665,3631,337
Raw,41935.905,3634,337
Raw,80363.502,3635,337
Raw,1.09471813e+05,3636,337
Raw,1.32404039e+05,3637,337
Raw,81623.554,3638,337
Raw,69742.944,3655,337
Raw,89167.532,3656,337
Raw,1.02657217e+05,3658,337
Raw,2.16614253e+05,3664,337
Raw,74064.994,3674,337
Raw,2.01247495e+05,3676,337
Raw,91420.672,3677,337
Raw,1.96854965e+05,3678,337
Raw,58000.187,3681,337
Raw,93447.002,3682,337
Raw,1.68075712e+05,3685,337
Raw,96162.485,3688,337
Raw,37457.626,3689,337
Raw,1.60515688e+05,3689,337
Raw,1.81840225e+05,3694,337
Raw,1.12164075e+05,3697,337
Raw,1.41379348e+05,3698,337
Raw,64220.007,3698,337
Raw,26455.812,3698,337
Raw,1.88023519e+05,3702,337
Raw,31739.127,3703,337
Raw,1.52770731e+05,3705,337
Raw,86888.985,3709,337
Raw,44635.98,3711,337
Raw,2.19857579e+05,3713,337
Raw,1.12204107e+05,3714,337
Raw,70799.189,3719,337
Raw,89956.263,3725,337
Raw,88707.557,3728,337
Raw,30021.563,3734,337
Raw,46732.024,3734,337
Raw,73777.719,3735,337
Raw,2.13892259e+05,3740,337
Raw,2.15222323e+05,3741,337
Raw,23091.101,3747,337
Raw,37267.465,3747,337
Raw,47575.947,3748,337
Raw,89077.765,3748,337
Raw,38909.091,3750,337
Raw,53516.258,3750,337
Raw,61112.739,3752,337
Raw,32411.923,3755,337
Raw,76384.442,3755,337
Raw,16908.913,3756,337
Raw,1.10425121e+05,3757,337
Raw,1.05342571e+05,3758,337
Raw,1.07975296e+05,3761,337
Raw,63062.142,3762,337
Raw,37123.977,3763,337
Raw,90925.436,3765,337
Raw,2.22680702e+05,3766,337
Raw,41864.364,3772,337
Raw,98826.034,3778,337
Raw,71819.389,3781,337
Raw,1.62757926e+05,3783,337
Raw,1.40597646e+05,3786,337
Raw,1.55751167e+05,3790,337
Raw,72156.263,3792,337
Raw,84994.05,3794,337
Raw,1.32816856e+05,3796,337
Raw,93994.976,3801,337
Raw,64229.994,3803,337
Raw,88185.808,3804,337
Raw,2.20743982e+05,3815,337
Raw,96262.672,3816,337
Raw,1.7139487e+05,3817,337
Raw,1.69298059e+05,3819,337
Raw,75877.109,3821,337
Raw,63229.939,3824,337
Raw,97469.673,3830,337
Raw,84111.724,3832,337
Raw,20123.253,3838,337
Raw,91381.914,3840,337
Raw,41451.565,3842,337
Raw,1.78639106e+05,3853,337
Raw,79333.334,3854,337
Raw,48917.983,3855,337
Raw,1.79989012e+05,3862,337
Raw,2.03973302e+05,3864,337
Raw,1.11556849e+05,3870,337
Raw,1.54876551e+05,3871,337
Raw,92323.409,3875,337
Raw,94021.688,3877,337
Raw,78026.335,3889,337
Raw,86360.732,3889,337
Raw,72352.969,3891,337
Raw,77459.717,3896,337
Raw,1.40011416e+05,3901,337
Raw,1.69868771e+05,3903,337
Raw,93669.249,3903,337
Raw,2.26723088e+05,3906,337
Raw,62761.02,3916,337
Raw,86902.73,3919,337
Raw,1.45367481e+05,3922,337
Raw,75463.984,3925,337
Raw,75749.858,3929,337
Raw,58756.149,3929,337
Raw,1.76642909e+05,3930,337
Raw,23441.405,3931,337
Raw,81591.74,3933,337
Raw,48290.627,3933,337
Raw,1.43758204e+05,3934,337
Raw,1.01651937e+05,3934,337
Raw,1.25170443e+05,3935,337
Raw,63655.208,3942,337
Raw,1.02259928e+05,3942,337
Raw,64899.267,3944,337
Raw,1.23520825e+05,3948,337
Raw,87880.039,3948,337
Raw,36104.366,3951,337
Raw,49280.635,3952,337
Raw,2.34460941e+05,3954,337
Raw,1.85178935e+05,3956,337
Raw,1.20468277e+05,3966,337
Raw,53951.492,3967,337
Raw,77153.516,3972,337
Raw,59660.251,3973,337
Raw,1.08324041e+05,3977,337
Raw,53904.861,3978,337
Raw,52274.789,3981,337
Raw,43921.087,3983,337
Raw,1.03691701e+05,3983,337
Raw,96735.084,3987,337
Raw,70368.342,3987,337
Raw,70974.651,3988,337
Raw,45438.556,3990,337
Raw,1.34619372e+05,3990,337
Raw,1.82545662e+05,3992,337
Raw,64220.82,3994,337
Raw,79595.742,3998,337
Raw,31615.161,3999,337
Raw,1.97783892e+05,4003,337
Raw,45369.985,4012,337
Raw,55761.605,4012,337
Raw,52259.313,4012,337
Raw,65794.819,4014,337
Raw,38352.879,4016,337
Raw,55636.285,4018,337
Raw,97803.691,4018,337
Raw,1.41913229e+05,4019,337
Raw,64485.585,4021,337
Raw,1.84719002e+05,4022,337
Raw,39382.474,4026,337
Raw,11539.803,4027,337
Raw,1.43273229e+05,4034,337
Raw,2.34905221e+05,4038,337
Raw,1.7060894e+05,4047,337
Raw,67408.866,4048,337
Raw,28388.879,4048,337
Raw,91228.257,4054,337
Raw,1.38348001e+05,4054,337
Raw,1.13938721e+05,4055,337
Raw,1.0009018e+05,4057,337
Raw,2.25457441e+05,4059,337
Raw,1.03378611e+05,4060,337
Raw,1.20612737e+05,4062,337
Raw,52390.498,4062,337
Raw,31220.274,4063,337
Raw,1.41330824e+05,4066,337
Raw,1.13857056e+05,4067,337
Raw,33306.497,4067,337
Raw,65650.627,4071,337
Raw,39569.885,4078,337
Raw,60134.664,4081,337
Raw,1.44832397e+05,4082,337
Raw,1.64367249e+05,4083,337
Raw,99067.248,4094,337
Raw,1.45055753e+05,4097,337
Raw,83551.653,4097,337
Raw,72667.809,4098,337
Raw,1.14434607e+05,4099,337
Raw,45498.45,4106,337
Raw,39847.515,4113,337
Raw,1.50650316e+05,4119,337
Raw,1.79119249e+05,4120,337
Raw,88667.573,4123,337
Raw,1.23086547e+05,4128,337
Raw,1.51792748e+05,4129,337
Raw,13812.31,4135,337
Raw,89761.903,4140,337
Raw,1.0572101e+05,4140,337
Raw,2.32732715e+05,4142,337
Raw,59121.709,4147,337
Raw,47660.964,4151,337
Raw,80962.923,4151,337
Raw,88012.595,4152,337
Raw,1.09481655e+05,4158,337
Raw,1.23464573e+05,4158,337
Raw,90899.053,4159,337
Raw,34277.454,4165,337
Raw,72169.681,4166,337
Raw,61270.315,4173,337
Raw,1.10110379e+05,4175,337
Raw,1.6370666e+05,4182,337
Raw,21709.738,4182,337
Raw,1.11218985e+05,4186,337
Raw,72429.368,4193,337
Raw,89359.098,4200,337
Raw,84057.783,4205,337
Raw,1.09900739e+05,4207,337
Raw,21139.419,4209,337
Raw,91058.348,4209,337
Raw,82753.662,4211,337
Raw,60050.679,4214,337
Raw,63278.255,4216,337
Raw,1.73920217e+05,4222,337
Raw,56806.591,4225,337
Raw,19038.795,4225,337
Raw,48307.642,4227,337
Raw,51299.817,4242,337
Raw,1.18264384e+05,4244,337
Raw,53245.084,4247,337
Raw,1.25304232e+05,4248,337
Raw,50893.14,4252,337
Raw,71094.504,4257,337
Raw,35273.861,4258,337
Raw,1.29906719e+05,4260,337
Raw,1.18644477e+05,4261,337
Raw,1.35716295e+05,4263,337
Raw,41793.492,4271,337
Raw,91787.865,4272,337
Raw,57733.299,4274,337
Raw,67585.082,4281,337
Raw,1.28003676e+05,4282,337
Raw,1.56349746e+05,4284,337
Raw,47860.852,4285,337
Raw,1.99430117e+05,4286,337
Raw,73147.292,4288,337
Raw,58166.447,4297,337
Raw,81967.804,4297,337
Raw,56541.751,4304,337
Raw,51474.889,4306,337
Raw,1.48923054e+05,4307,337
Raw,94927.624,4309,337
Raw,28602.859,4324,337
Raw,91939.512,4327,337
Raw,1.05971411e+05,4334,337
Raw,92216.168,4336,337
Raw,1.85026105e+05,4342,337
Raw,91674.608,4343,337
Raw,1.32237646e+05,4344,337
Raw,67471.363,4345,337
Raw,99096.431,4345,337
Raw,16484.526,4347,337
Raw,73646.253,4348,337
Raw,1.45760585e+05,4349,337
Raw,2.32933341e+05,4351,337
Raw,1.72834215e+05,4357,337
Raw,65432.846,4357,337
Raw,90468.493,4359,337
Raw,1.41700543e+05,4361,337
Raw,46894.241,4362,337
Raw,40650.689,4362,337
Raw,59869.509,4376,337
Raw,46318.661,4378,337
Raw,38870.576,4378,337
Raw,42714.806,4379,337
Raw,1.18581064e+05,4387,337
Raw,1.29999474e+05,4388,337
Raw,73666.886,4394,337
Raw,1.67952723e+05,4402,337
Raw,1.46372814e+05,4402,337
Raw,64701.868,4417,337
Raw,1.09684847e+05,4429,337
Raw,51887.412,4429,337
Raw,58791.752,4431,337
Raw,82704.96,4432,337
Raw,1.95287906e+05,4440,337
Raw,1.02506747e+05,4441,337
Raw,1.28089624e+05,4442,337
Raw,71871.318,4442,337
Raw,54801.535,4449,337
Raw,1.51900648e+05,4451,337
Raw,76852.451,4453,337
Raw,1.58734142e+05,4459,337
Raw,91131.208,4460,337
Raw,1.15572849e+05,4463,337
Raw,1.62635152e+05,4464,337
Raw,58032.836,4480,337
Raw,57786.612,4494,337
Raw,48459.703,4496,337
Raw,1.65749677e+05,4498,337
Raw,77368.15,4504,337
Raw,1.18052795e+05,4515,337
Raw,1.05988151e+05,4516,337
Raw,7598.4047,4516,337
Raw,47984.585,4523,337
Raw,50723.393,4523,337
Raw,18467.623,4525,337
Raw,24318.208,4525,337
Raw,79336.09,4528,337
Raw,90719.3,4530,337
Raw,1.10417078e+05,4534,337
Raw,57548.025,4535,337
Raw,48574.282,4547,337
Raw,25512.147,4547,337
Raw,40975.723,4548,337
Raw,2.33611534e+05,4550,337
Raw,75719.878,4554,337
Raw,99339.794,4558,337
Raw,1.12561855e+05,4563,337
Raw,48864.217,4573,337
Raw,1.31273562e+05,4575,337
Raw,1.44201734e+05,4580,337
Raw,1.05548363e+05,4584,337
Raw,70481.949,4586,337
Raw,55048.88,4588,337
Raw,59118.908,4590,337
Raw,2.00093384e+05,4593,337
Raw,56148.317,4595,337
Raw,90642.743,4596,337
Raw,46759.194,4599,337
Raw,94935.798,4602,337
Raw,92330.551,4603,337
Raw,1.30777807e+05,4603,337
Raw,29346.819,4607,337
Raw,1.12971823e+05,4609,337
Raw,37191.854,4609,337
Raw,86270.62,4610,337
Raw,83847.614,4611,337
Raw,25509.496,4613,337
Raw,13506.369,4618,337
Raw,39822.442,4618,337
Raw,28834.853,4618,337
Raw,1.42379685e+05,4619,337
Raw,1.03570976e+05,4619,337
Raw,57605.031,4626,337
Raw,1.45958913e+05,4631,337
Raw,95464.161,4632,337
Raw,1.40542284e+05,4637,337
Raw,1.63825027e+05,4637,337
Raw,73180.692,4640,337
Raw,37642.092,4640,337
Raw,66117.442,4642,337
Raw,99624.022,4643,337
Raw,75147.91,4643,337
Raw,1.90260013e+05,4644,337
Raw,68264.64,4644,337
Raw,1.17245875e+05,4647,337
Raw,1.76514192e+05,4658,337
Raw,1.45346497e+05,4659,337
Raw,1.39260031e+05,4665,337
Raw,71674.919,4678,337
Raw,20466.611,4682,337
Raw,55814.933,4685,337
Raw,1.39735227e+05,4686,337
Raw,53032.927,4687,337
Raw,96826.941,4688,337
Raw,68517.189,4691,337
Raw,70259.421,4691,337
Raw,58935.729,4700,337
Raw,53838.355,4702,337
Raw,69720.262,4702,337
Raw,67957.038,4704,337
Raw,1.67807527e+05,4709,337
Raw,57299.604,4714,337
Raw,98052.47,4714,337
Raw,20671.616,4717,337
Raw,1.03897702e+05,4718,337
Raw,53797.733,4719,337
Raw,60165.56,4723,337
Raw,40290.433,4727,337
Raw,1.09071847e+05,4731,337
Raw,65930.682,4733,337
Raw,1.20830109e+05,4735,337
Raw,34537.854,4742,337
Raw,1.75344466e+05,4759,337
Raw,80711.896,4763,337
Raw,67385.72,4765,337
Raw,93390.776,4769,337
Raw,88972.307,4771,337
Raw,43021.508,4773,337
Raw,44595.081,4777,337
Raw,1.22144243e+05,4786,337
Raw,1.24374535e+05,4795,337
Raw,51601.847,4797,337
Raw,78615.749,4802,337
Raw,70181.11,4804,337
Raw,91910.25,4810,337
Raw,1.69699939e+05,4811,337
Raw,28269.229,4811,337
Raw,39668.339,4813,337
Raw,68639.03,4814,337
Raw,37205.891,4817,337
Raw,1.05703142e+05,4819,337
Raw,1.00613903e+05,4820,337
Raw,89556.86,4822,337
Raw,59569.629,4826,337
Raw,90346.364,4826,337
Raw,19915.615,4826,337
Raw,39891.653,4831,337
Raw,1.10062883e+05,4837,337
Raw,1.17624502e+05,4840,337
Raw,47848.499,4843,337
Raw,81821.478,4844,337
Raw,73301.747,4850,337
Raw,74818.686,4855,337
Raw,91854.82,4855,337
Raw,65539.755,4857,337
Raw,1.16393692e+05,4857,337
Raw,54232.556,4867,337
Raw,1.72508944e+05,4868,337
Raw,61744.647,4871,337
Raw,47979.307,4875,337
Raw,2.2441119e+05,4876,337
Raw,2.35004148e+05,4883,337
Raw,1.11127535e+05,4885,337
Raw,43651.029,4900,337
Raw,1.59263983e+05,4901,337
Raw,75178.897,4902,337
Raw,52516.789,4906,337
Raw,75110.487,4911,337
Raw,1.04009749e+05,4913,337
Raw,75617.346,4918,337
Raw,43335.428,4925,337
Raw,55207.345,4929,337
Raw,52577.13,4936,337
Raw,80044.448,4937,337
Raw,1.04832992e+05,4937,337
Raw,1.36251198e+05,4941,337
Raw,80742.714,4944,337
Raw,76315.475,4944,337
Raw,59474.21,4945,337
Raw,1.78910933e+05,4949,337
Raw,58170.832,4952,337
Raw,41191.553,4955,337
Raw,1.15841981e+05,4958,337
Raw,29105.913,4964,337
Raw,1.577454e+05,4964,337
Raw,1.1478172e+05,4967,337
Raw,66070.291,4970,337
Raw,1.8907503e+05,4971,337
Raw,65162.868,4974,337
Raw,1.0207754e+05,4975,337
Raw,67149.521,4983,337
Raw,73029.825,4984,337
Raw,58120.463,4986,337
Raw,38396.023,4987,337
Raw,68668.882,4990,337
Raw,79507.854,4996,337
Raw,1.86368725e+05,4999,337
Raw,1.11541088e+05,5000,337
Raw,93655.69,5000,337
Raw,74755.582,5006,337
Raw,1.01992976e+05,5008,337
Raw,1.6386448e+05,5022,337
Raw,1.13839425e+05,5028,337
Raw,79192.556,5036,337
Raw,93591.441,5037,337
Raw,8521.16,5037,337
Raw,50169.726,5039,337
Raw,1.0190705e+05,5042,337
Raw,61146.03,5045,337
Raw,68990.728,5048,337
Raw,1.1835991e+05,5050,337
Raw,1.76041062e+05,5054,337
Raw,53880.372,5058,337
Raw,71254.512,5063,337
Raw,88211.751,5077,337
Raw,86890.786,5080,337
Raw,33131.454,5082,337
Raw,1.75962904e+05,5085,337
Raw,86735.919,5088,337
Raw,33355.485,5095,337
Raw,90267.175,5097,337
Raw,1.85209735e+05,5098,337
Raw,23001.133,5098,337
Raw,78777.156,5100,337
Raw,28090.72,5108,337
Raw,75034.167,5108,337
Raw,1.39193238e+05,5110,337
Raw,1.02727227e+05,5111,337
Raw,66059.462,5123,337
Raw,50493.396,5123,337
Raw,1.48014558e+05,5125,337
Raw,94292.518,5128,337
Raw,29022.741,5135,337
Raw,1.35182712e+05,5145,337
Raw,1.25055831e+05,5146,337
Raw,93007.075,5148,337
Raw,1.31944189e+05,5153,337
Raw,98651.92,5154,337
Raw,51988.367,5158,337
Raw,62713.341,5158,337
Raw,77503.55,5159,337
Raw,56393.606,5159,337
Raw,83155.919,5160,337
Raw,64283.123,5162,337
Raw,1.45033645e+05,5165,337
Raw,81707.152,5166,337
Raw,92348.253,5166,337
Raw,34670.759,5169,337
Raw,91435.406,5169,337
Raw,58983.725,5170,337
Raw,63907.186,5170,337
Raw,35511.076,5174,337
Raw,1.02388109e+05,5175,337
Raw,24662.814,5175,337
Raw,98140.789,5176,337
Raw,47375.98,5176,337
Raw,1.24067077e+05,5177,337
Raw,1.32117893e+05,5177,337
Raw,66511.701,5180,337
Raw,2.07591434e+05,5182,337
Raw,46596.869,5182,337
Raw,87447.249,5183,337
Raw,1.39226194e+05,5187,337
Raw,74585.79,5188,337
Raw,99735.195,5189,337
Raw,1.18694863e+05,5195,337
Raw,30985.83,5196,337
Raw,76097.913,5197,337
Raw,1.06560991e+05,5199,337
Raw,64744.303,5200,337
Raw,43554.725,5202,337
Raw,1.39901051e+05,5203,337
Raw,50127.061,5203,337
Raw,22848.642,5203,337
Raw,48896.381,5209,337
Raw,1.96164576e+05,5219,337
Raw,1.92692373e+05,5225,337
Raw,45538.641,5225,337
Raw,1.16109805e+05,5227,337
Raw,1.03842618e+05,5227,337
Raw,1.72545531e+05,5233,337
Raw,13442.245,5233,337
Raw,65034.469,5239,337
Raw,1.05898583e+05,5240,337
Raw,1.62553084e+05,5240,337
Raw,63804.692,5240,337
Raw,88978.93,5242,337
Raw,53869.534,5248,337
Raw,1.46850722e+05,5250,337
Raw,69031.507,5252,337
Raw,31541.524,5252,337
Raw,29408.031,5254,337
Raw,63463.386,5254,337
Raw,1.0849616e+05,5262,337
Raw,1.44821566e+05,5264,337
Raw,1.20271624e+05,5267,337
Raw,24202.796,5269,337
Raw,64051.237,5270,337
Raw,1.47157193e+05,5272,337
Raw,75653.133,5273,337
Raw,64389.984,5276,337
Raw,1.43639635e+05,5276,337
Raw,1.57905326e+05,5277,337
Raw,75533.779,5280,337
Raw,55737.629,5282,337
Raw,1.39668744e+05,5283,337
Raw,38116.047,5303,337
Raw,67634.976,5303,337
Raw,82461.969,5307,337
Raw,68985.342,5316,337
Raw,2.04642109e+05,5318,337
Raw,59720.64,5319,337
Raw,1.73328605e+05,5335,337
Raw,77578.31,5338,337
Raw,1.16822777e+05,5344,337
Raw,2.21712344e+05,5357,337
Raw,18573.265,5358,337
Raw,70664.967,5366,337
Raw,1.06576473e+05,5369,337
Raw,82582.702,5373,337
Raw,1.46719189e+05,5374,337
Raw,1.17954981e+05,5378,337
Raw,52407.108,5384,337
Raw,92337.292,5387,337
Raw,58264.58,5387,337
Raw,46837.093,5390,337
Raw,54249.81,5391,337
Raw,1.81069271e+05,5392,337
Raw,69374.786,5396,337
Raw,60348.485,5397,337
Raw,75519.064,5409,337
Raw,1.03772186e+05,5409,337
Raw,57820.576,5417,337
Raw,1.36791173e+05,5418,337
Raw,1.98675801e+05,5421,337
Raw,84066.423,5422,337
Raw,84487.634,5430,337
Raw,62078.744,5431,337
Raw,1.00725425e+05,5434,337
Raw,51321.062,5438,337
Raw,34972.595,5444,337
Raw,1.2494363e+05,5445,337
Raw,70966.827,5448,337
Raw,1.49376688e+05,5453,337
Raw,87495.526,5459,337
Raw,95915.353,5461,337
Raw,1.31905157e+05,5463,337
Raw,56068.076,5464,337
Raw,1.00273486e+05,5470,337
Raw,71359.603,5472,337
Raw,79274.76,5477,337
Raw,37546.57,5480,337
Raw,2.10803543e+05,5483,337
Raw,28391.613,5484,337
Raw,2.04357142e+05,5487,337
Raw,2.24854977e+05,5489,337
Raw,2.25786551e+05,5492,337
Raw,78101.662,5498,337
Raw,81018.032,5502,337
Raw,90644.308,5507,337
Raw,94016.492,5508,337
Raw,1.02723309e+05,5514,337
Raw,48349.532,5515,337
Raw,42379.239,5515,337
Raw,1.02592489e+05,5517,337
Raw,37162.629,5518,337
Raw,1.83437126e+05,5522,337
Raw,2.12489325e+05,5532,337
Raw,22852.543,5538,337
Raw,12853.365,5541,337
Raw,1.16064511e+05,5542,337
Raw,1.23088612e+05,5545,337
Raw,68338.49,5547,337
Raw,1.28448469e+05,5565,337
Raw,18705.116,5571,337
Raw,1.45203526e+05,5577,337
Raw,27950.621,5579,337
Raw,73020.759,5581,337
Raw,38907.861,5583,337
Raw,1.79989883e+05,5584,337
Raw,1.61277974e+05,5584,337
Raw,41095.951,5588,337
Raw,1.48509488e+05,5588,337
Raw,37751.499,5590,337
Raw,68820.423,5590,337
Raw,46221.624,5592,337
Raw,1.53571014e+05,5595,337
Raw,41128.764,5600,337
Raw,54844.16,5606,337
Raw,10087.427,5606,337
Raw,1.27116769e+05,5607,337
Raw,1.70113468e+05,5610,337
Raw,80981.335,5617,337
Raw,1.87907178e+05,5621,337
Raw,55295.8,5623,337
Raw,86653.85,5625,337
Raw,1.29135003e+05,5627,337
Raw,88180.117,5627,337
Raw,1.25874518e+05,5630,337
Raw,2.14670855e+05,5631,337
Raw,76671.096,5635,337
Raw,27665.336,5637,337
Raw,98089.333,5639,337
Raw,1.22143075e+05,5644,337
Raw,78320.244,5644,337
Raw,1.75964729e+05,5645,337
Raw,92291.249,5647,337
Raw,39640.266,5652,337
Raw,88626.081,5655,337
Raw,98359.765,5659,337
Raw,67718.408,5660,337
Raw,58079.115,5661,337
Raw,71294.773,5661,337
Raw,1.54888638e+05,5662,337
Raw,88906.225,5665,337
Raw,49116.377,5666,337
Raw,1.1198099e+05,5667,337
Raw,72006.534,5670,337
Raw,34086.949,5671,337
Raw,92927.518,5672,337
Raw,53417.877,5673,337
Raw,1.00588225e+05,5676,337
Raw,49846.784,5682,337
Raw,78350.766,5684,337
Raw,22352.403,5686,337
Raw,52884.923,5688,337
Raw,94335.545,5695,337
Raw,81646.251,5702,337
Raw,80503.724,5703,337
Raw,76845.983,5705,337
Raw,59290.376,5709,337
Raw,1.74295761e+05,5711,337
Raw,2.30058369e+05,5712,337
Raw,70466.801,5715,337
Raw,13200.054,5721,337
Raw,2.16746249e+05,5728,337
Raw,11684.579,5737,337
Raw,63112.25,5741,337
Raw,1.9702237e+05,5746,337
Raw,1.54773949e+05,5747,337
Raw,77382.953,5747,337
Raw,78994.551,5748,337
Raw,83185.638,5750,337
Raw,83408.531,5752,337
Raw,1.11324632e+05,5756,337
Raw,75619.514,5766,337
Raw,1.15849806e+05,5768,337
Raw,51725.261,5770,337
Raw,1.0807853e+05,5770,337
Raw,54640.235,5772,337
Raw,1.33983267e+05,5775,337
Raw,96889.725,5777,337
Raw,53714.748,5779,337
Raw,1.00148134e+05,5782,337
Raw,92691.816,5784,337
Raw,57386.956,5786,337
Raw,47863.062,5787,337
Raw,77848.016,5791,337
Raw,79906.963,5791,337
Raw,1.24700843e+05,5795,337
Raw,82911.544,5797,337
Raw,1.07614577e+05,5798,337
Raw,2.11386497e+05,5800,337
Raw,1.63994656e+05,5814,337
Raw,1.63748782e+05,5817,337
Raw,54920.131,5821,337
Raw,1.82316423e+05,5822,337
Raw,1.96462449e+05,5840,337
Raw,51224.631,5846,337
Raw,87558.378,5847,337
Raw,60433.872,5849,337
Raw,25113.353,5854,337
Raw,1.20210526e+05,5857,337
Raw,58562.926,5857,337
Raw,1.09193383e+05,5859,337
Raw,76843.798,5859,337
Raw,49106.544,5859,337
Raw,70565.034,5861,337
Raw,71353.294,5870,337
Raw,69518.067,5871,337
Raw,87255.648,5877,337
Raw,1.02934909e+05,5879,337
Raw,46369.109,5880,337
Raw,1.18059065e+05,5880,337
Raw,21501.558,5881,337
Raw,52685.745,5884,337
Raw,76347.996,5885,337
Raw,1.65519449e+05,5886,337
Raw,47268.308,5892,337
Raw,69375.7,5894,337
Raw,49920.806,5894,337
Raw,73462.782,5899,337
Raw,39359.24,5901,337
Raw,1.33598185e+05,5902,337
Raw,1.95250208e+05,5903,337
Raw,23445.435,5911,337
Raw,1.02514905e+05,5912,337
Raw,84628.538,5913,337
Raw,59772.407,5920,337
Raw,97271.447,5920,337
Raw,73729.435,5921,337
Raw,85071.771,5924,337
Raw,87181.388,5933,337
Raw,76125.776,5934,337
Raw,36350.725,5938,337
Raw,99719.751,5943,337
Raw,1.50161451e+05,5946,337
Raw,62452.87,5946,337
Raw,1.33587188e+05,5947,337
Raw,80305.676,5948,337
Raw,1.32043854e+05,5953,337
Raw,1.20554252e+05,5954,337
Raw,80211.287,5957,337
Raw,1.43708171e+05,5962,337
Raw,56062.454,5965,337
Raw,90716.655,5970,337
Raw,68880.88,5971,337
Raw,1.59347327e+05,5975,337
Raw,46540.956,5979,337
Raw,37858.173,5980,337
Raw,64544.67,5980,337
Raw,1.03489304e+05,5986,337
Raw,88774.533,5986,337
Raw,1.47026895e+05,5990,337
Raw,81084.977,5992,337
Raw,50705.792,5992,337
Raw,74458.804,5997,337
Raw,1.43332184e+05,5999,337
Raw,77711.57,6006,337
Raw,75164.199,6008,337
Raw,1.82817967e+05,6012,337
Raw,45140.729,6017,337
Raw,41551.667,6017,337
Raw,1.66251636e+05,6018,337
Raw,48617.786,6018,337
Raw,37936.597,6022,337
Raw,72914.014,6032,337
Raw,57098.339,6034,337
Raw,72228.115,6036,337
Raw,2.10648844e+05,6038,337
Raw,53324.866,6042,337
Raw,1.2924344e+05,6052,337
Raw,96584.493,6057,337
Raw,1.65647732e+05,6058,337
Raw,56870.849,6064,337
Raw,1.17836085e+05,6065,337
Raw,1.14143292e+05,6076,337
Raw,99054.165,6077,337
Raw,33189.302,6078,337
Raw,99457.579,6080,337
Raw,1.41314332e+05,6086,337
Raw,78222.165,6095,337
Raw,83081.753,6101,337
Raw,21822.627,6102,337
Raw,1.3880067e+05,6113,337
Raw,66894.829,6116,337
Raw,68861.27,6121,337
Raw,1.40935592e+05,6123,337
Raw,92567.352,6126,337
Raw,1.69953177e+05,6134,337
Raw,1.04908945e+05,6137,337
Raw,1.21777287e+05,6141,337
Raw,85411.004,6144,337
Raw,28650.433,6144,337
Raw,96019.23,6151,337
Raw,87853.127,6154,337
Raw,93025.244,6155,337
Raw,53387.599,6156,337
Raw,1.07224756e+05,6171,337
Raw,98449.097,6171,337
Raw,1.40038697e+05,6173,337
Raw,1.40206033e+05,6174,337
Raw,37200.021,6176,337
Raw,1.14235074e+05,6182,337
Raw,77238.262,6184,337
Raw,2.1073639e+05,6185,337
Raw,35551.451,6187,337
Raw,41766.506,6193,337
Raw,30011.643,6209,337
Raw,2.00024293e+05,6216,337
Raw,79854.054,6216,337
Raw,94257.734,6222,337
Raw,51530.355,6227,337
Raw,9072.074,6236,337
Raw,2.29725655e+05,6242,337
Raw,67044.206,6248,337
Raw,1.15319716e+05,6255,337
Raw,1.15892242e+05,6259,337
Raw,78966.097,6260,337
Raw,86328.721,6260,337
Raw,6104.7932,6260,337
Raw,44266.152,6262,337
Raw,1.37964103e+05,6265,337
Raw,1.47380453e+05,6267,337
Raw,37220.337,6269,337
Raw,79468.113,6271,337
Raw,96312.491,6276,337
Raw,1.40127666e+05,6280,337
Raw,1.09829088e+05,6281,337
Raw,70385.3,6285,337
Raw,88696.508,6288,337
Raw,1.71743724e+05,6289,337
Raw,2.34252139e+05,6291,337
Raw,96242.122,6298,337
Raw,68047.451,6302,337
Raw,75070.126,6303,337
Raw,1.48510376e+05,6306,337
Raw,68392.05,6307,337
Raw,1.8378774e+05,6308,337
Raw,54719.207,6318,337
Raw,1.84839664e+05,6321,337
Raw,75044.466,6328,337
Raw,67774.323,6331,337
Raw,1.27117523e+05,6335,337
Raw,1.08708506e+05,6335,337
Raw,94988.471,6338,337
Raw,82837.923,6340,337
Raw,47511.614,6343,337
Raw,1.41278697e+05,6343,337
Raw,48651.968,6346,337
Raw,69107.087,6350,337
Raw,1.41087212e+05,6353,337
Raw,1.28869016e+05,6355,337
Raw,62166.448,6357,337
Raw,56483.036,6358,337
Raw,75949.71,6360,337
Raw,45363.119,6361,337
Raw,96925.104,6364,337
Raw,1.00541651e+05,6370,337
Raw,38060.922,6371,337
Raw,29305.237,6372,337
Raw,1.10368208e+05,6372,337
Raw,60754.254,6375,337
Raw,57524.313,6375,337
Raw,66644.058,6380,337
Raw,72407.578,6381,337
Raw,97448.526,6382,337
Raw,1.7227889e+05,6382,337
Raw,48688.355,6385,337
Raw,56682.849,6387,337
Raw,30487.617,6390,337
Raw,91390.551,6392,337
Raw,1.18589042e+05,6403,337
Raw,99089.401,6403,337
Raw,82921.925,6420,337
Raw,52375.329,6420,337
Raw,1.70281613e+05,6421,337
Raw,79685.335,6422,337
Raw,35536.164,6422,337
Raw,88408.021,6426,337
Raw,96245.514,6429,337
Raw,1.7037655e+05,6430,337
Raw,1.63145791e+05,6433,337
Raw,62056.805,6437,337
Raw,1.47313201e+05,6440,337
Raw,60739.452,6448,337
Raw,1.88654696e+05,6453,337
Raw,73659.761,6457,337
Raw,58982.519,6461,337
Raw,1.56821928e+05,6468,337
Raw,2.2879247e+05,6471,337
Raw,67006.888,6475,337
Raw,1.8291995e+05,6478,337
Raw,19374.172,6478,337
Raw,31339.604,6484,337
Raw,96248.53,6484,337
Raw,1.41486903e+05,6490,337
Raw,1.50261411e+05,6496,337
Raw,1.8594885e+05,6498,337
Raw,59999.294,6502,337
Raw,77877.045,6514,337
Raw,96094.202,6514,337
Raw,1.25539477e+05,6518,337
Raw,1.24295523e+05,6520,337
Raw,65289.74,6520,337
Raw,51271.073,6520,337
Raw,67259.059,6524,337
Raw,17648.483,6524,337
Raw,81047.557,6526,337
Raw,1.35648767e+05,6532,337
Raw,1.15444078e+05,6535,337
Raw,59026.531,6539,337
Raw,60164.312,6540,337
Raw,79159.223,6540,337
Raw,1.28052325e+05,6541,337
Raw,45306.529,6542,337
Raw,82383.865,6547,337
Raw,42868.33,6550,337
Raw,1.21268361e+05,6554,337
Raw,1.90698153e+05,6555,337
Raw,44727.103,6557,337
Raw,1.05534074e+05,6563,337
Raw,22478.91,6567,337
Raw,97974.922,6567,337
Raw,89105.201,6568,337
Raw,1.00709362e+05,6570,337
Raw,34883.007,6575,337
Raw,2.34599601e+05,6576,337
Raw,86952.672,6578,337
Raw,51064.272,6586,337
Raw,1.03815343e+05,6588,337
Raw,1.41857359e+05,6592,337
Raw,94834.883,6595,337
Raw,94177.059,6602,337
Raw,57494.58,6609,337
Raw,96465.426,6610,337
Raw,91497.867,6611,337
Raw,35262.656,6612,337
Raw,2.1726649e+05,6620,337
Raw,49027.351,6621,337
Raw,85994.709,6625,337
Raw,79168.557,6626,337
Raw,78891.674,6627,337
Raw,87586.407,6631,337
Raw,1.99502117e+05,6632,337
Raw,83812.076,6642,337
Raw,1.1041691e+05,6642,337
Raw,85764.394,6643,337
Raw,1.36793998e+05,6644,337
Raw,66240.273,6644,337
Raw,79867.73,6647,337
Raw,77993.265,6655,337
Raw,54046.068,6668,337
Raw,1.20335921e+05,6670,337
Raw,1.17681451e+05,6671,337
Raw,36078.717,6675,337
Raw,41391.166,6679,337
Raw,2.26802084e+05,6680,337
Raw,63458.423,6681,337
Raw,71121.432,6682,337
Raw,1.1224503e+05,6689,337
Raw,1.45416081e+05,6694,337
Raw,1.09861767e+05,6696,337
Raw,94223.082,6698,337
Raw,14902.356,6701,337
Raw,1.53851435e+05,6705,337
Raw,55614.004,6705,337
Raw,1.1084324e+05,6711,337
Raw,1.32552564e+05,6714,337
Raw,62175.296,6715,337
Raw,52457.483,6717,337
Raw,80362.381,6718,337
Raw,1.05920591e+05,6718,337
Raw,88509.259,6723,337
Raw,83885.65,6723,337
Raw,74902.578,6724,337
Raw,57714.23,6731,337
Raw,1.9623121e+05,6735,337
Raw,65565.747,6739,337
Raw,1.70222748e+05,6748,337
Raw,50716.298,6748,337
Raw,50172.077,6753,337
Raw,2.06110949e+05,6755,337
Raw,41840.623,6758,337
Raw,1.46888046e+05,6759,337
Raw,85753.201,6764,337
Raw,93614.78,6766,337
Raw,1.95218046e+05,6766,337
Raw,10412.24,6767,337
Raw,83457.747,6768,337
Raw,56616.437,6771,337
Raw,75539.806,6777,337
Raw,1.17860752e+05,6778,337
Raw,1.33360588e+05,6778,337
Raw,63103.676,6782,337
Raw,51681.266,6783,337
Raw,91987.703,6795,337
Raw,62577.887,6796,337
Raw,1.17771731e+05,6800,337
Raw,77594.662,6803,337
Raw,1.8613138e+05,6811,337
Raw,97573.959,6813,337
Raw,52608.815,6814,337
Raw,1.24816065e+05,6821,337
Raw,1.64010258e+05,6822,337
Raw,37983.68,6824,337
Raw,1.7182455e+05,6827,337
Raw,1.09698725e+05,6831,337
Raw,81512.128,6832,337
Raw,1.06157576e+05,6837,337
Raw,50190.165,6838,337
Raw,95021.515,6843,337
Raw,59487.71,6844,337
Raw,64769.226,6849,337
Raw,72224.921,6853,337
Raw,1.36589895e+05,6859,337
Raw,24250.963,6862,337
Raw,79516.563,6862,337
Raw,82793.997,6867,337
Raw,42328.581,6868,337
Raw,1.30697132e+05,6868,337
Raw,89687.718,6870,337
Raw,49421.393,6876,337
Raw,1.04912217e+05,6876,337
Raw,86063.615,6878,337
Raw,32099.549,6878,337
Raw,60707.404,6888,337
Raw,74865.719,6890,337
Raw,48855.71,6896,337
Raw,93175.964,6901,337
Raw,1.49561165e+05,6902,337
Raw,1.64958205e+05,6904,337
Raw,56152.534,6905,337
Raw,88874.585,6906,337
Raw,1.8608005e+05,6909,337
Raw,99980.993,6909,337
Raw,78311.61,6915,337
Raw,1.01827122e+05,6915,337
Raw,63020.849,6919,337
Raw,1.03112105e+05,6920,337
Raw,41736.354,6922,337
Raw,1.76395286e+05,6928,337
Raw,1.05682397e+05,6928,337
Raw,1.22703922e+05,6929,337
Raw,62984.38,6930,337
Raw,52093.123,6930,337
Raw,43982.762,6931,337
Raw,1.51899247e+05,6935,337
Raw,1.0315189e+05,6938,337
Raw,2.14208755e+05,6943,337
Raw,75071.054,6943,337
Raw,1.23951257e+05,6946,337
Raw,1.7933863e+05,6947,337
Raw,36595.278,6953,337
Raw,1.53137833e+05,6955,337
Raw,94956.689,6959,337
Raw,99280.888,6960,337
Raw,90036.911,6960,337
Raw,13144.687,6960,337
Raw,81467.244,6963,337
Raw,1.69713522e+05,6970,337
Raw,1.81009761e+05,6974,337
Raw,2.13217426e+05,6979,337
Raw,1.00435805e+05,6983,337
Raw,70031.676,6985,337
Raw,73350.394,6986,337
Raw,80006.192,6987,337
Raw,98866.02,6988,337
Raw,1.38115953e+05,6990,337
Raw,87169.446,6991,337
Raw,1.24860046e+05,7005,337
Raw,23775.546,7009,337
Raw,74469.029,7009,337
Raw,1.28838217e+05,7012,337
Raw,1.08739753e+05,7015,337
Raw,1.3399755e+05,7018,337
Raw,95685.652,7020,337
Raw,45875.707,7020,337
Raw,1.06793218e+05,7022,337
Raw,24438.998,7028,337
Raw,88957.6,7028,337
Raw,58050.81,7030,337
Raw,74751.958,7032,337
Raw,70920.632,7034,337
Raw,75558.909,7034,337
Raw,1.15563361e+05,7037,337
Raw,1.99172519e+05,7044,337
Raw,1.37668058e+05,7046,337
Raw,44591.12,7048,337
Raw,90590.641,7056,337
Raw,1.28819002e+05,7056,337
Raw,83909.035,7060,337
Raw,98010.852,7066,337
Raw,1.00397452e+05,7068,337
Raw,93504.443,7068,337
Raw,31347.711,7070,337
Raw,96111.685,7070,337
Raw,78810.33,7071,337
Raw,58164.918,7077,337
Raw,18312.266,7077,337
Raw,1.08999654e+05,7081,337
Raw,1.30564551e+05,7082,337
Raw,1.51002449e+05,7084,337
Raw,28825.277,7085,337
Raw,91570.078,7085,337
Raw,1.66283413e+05,7096,337
Raw,12104.535,7107,337
Raw,37260.553,7114,337
Raw,99232.242,7118,337
Raw,82622.051,7120,337
Raw,80538.489,7123,337
Raw,39411.117,7123,337
Raw,95619.604,7128,337
Raw,64385.827,7129,337
Raw,35389.473,7131,337
Raw,47524.52,7137,337
Raw,49824.715,7140,337
Raw,67441.841,7147,337
Raw,90600.96,7157,337
Raw,78649.654,7165,337
Raw,1.0445089e+05,7166,337
Raw,1.43805552e+05,7167,337
Raw,53968.03,7167,337
Raw,1.77583928e+05,7168,337
Raw,7451.8251,7168,337
Raw,87655.64,7170,337
Raw,23035.159,7170,337
Raw,43505.63,7174,337
Raw,1.51149718e+05,7176,337
Raw,1.2619407e+05,7176,337
Raw,84261.109,7179,337
Raw,50346.176,7184,337
Raw,15140.307,7184,337
Raw,99212.099,7187,337
Raw,71083.19,7189,337
Raw,83566.178,7193,337
Raw,1.04239336e+05,7195,337
Raw,1.14650011e+05,7196,337
Raw,43233.74,7199,337
Raw,62798.79,7199,337
Raw,51554.359,7200,337
Raw,1.16043373e+05,7200,337
Raw,89333.959,7202,337
Raw,1.69312742e+05,7214,337
Raw,80090.673,7223,337
Raw,58604.182,7229,337
Raw,1.21030868e+05,7233,337
Raw,1.03200865e+05,7237,337
Raw,92802.728,7239,337
Raw,43429.007,7244,337
Raw,53199.425,7248,337
Raw,90934.704,7253,337
Raw,56301.772,7253,337
Raw,2.32117712e+05,7254,337
Raw,49253.47,7256,337
Raw,1.1283152e+05,7258,337
Raw,46925.468,7260,337
Raw,36235.496,7273,337
Raw,98460.179,7279,337
Raw,57915.545,7282,337
Raw,34438.802,7287,337
Raw,1.08960805e+05,7288,337
Raw,1.55032099e+05,7289,337
Raw,1.16864004e+05,7291,337
Raw,1.09921209e+05,7299,337
Raw,84657.72,7300,337
Raw,66445.65,7300,337
Raw,73146.309,7303,337
Raw,1.25314776e+05,7310,337
Raw,1.65693843e+05,7314,337
Raw,68108.938,7315,337
Raw,1.06095427e+05,7317,337
Raw,76987.911,7318,337
Raw,78406.719,7318,337
Raw,85711.835,7323,337
Raw,92716.149,7325,337
Raw,48804.251,7330,337
Raw,77130.717,7332,337
Raw,25342.872,7336,337
Raw,59102.543,7337,337
Raw,97896.004,7344,337
