Cut?,Counts,eventNumber,runNumber
Raw,69642.868,0,335
Raw,75595.448,1,335
Raw,79927.423,2,335
Raw,54443.574,3,335
Raw,1.13216473e+05,4,335
Raw,64379.11,5,335
Raw,50593.623,5,335
Raw,35860.928,6,335
Raw,65917.935,6,335
Raw,69997.943,7,335
Raw,46833.418,8,335
Raw,65083.213,8,335
Raw,1.15228597e+05,9,335
Raw,88883.207,10,335
Raw,1.57410965e+05,11,335
Raw,1.56514885e+05,12,335
Raw,90947.786,13,335
Raw,1.73654418e+05,13,335
Raw,92893.452,14,335
Raw,89697.47,15,335
Raw,1.08467255e+05,16,335
Raw,1.15412791e+05,17,335
Raw,1.62297535e+05,19,335
Raw,85876.352,21,335
Raw,82417.514,22,335
Raw,95131.65,23,335
Raw,8068.7495,23,335
Raw,84285.022,24,335
Raw,1.30226131e+05,25,335
Raw,59369.956,26,335
Raw,89061.126,27,335
Raw,99736.884,28,335
Raw,1.44054186e+05,29,335
Raw,1.48811086e+05,30,335
Raw,1.08318249e+05,32,335
Raw,72426.179,33,335
Raw,83610.149,34,335
Raw,53320.886,35,335
Raw,1.12612127e+05,35,335
Raw,87147.638,36,335
Raw,74647.747,37,335
Raw,1.51960962e+05,38,335
Raw,1.17594498e+05,39,335
Raw,2.63870888e+05,41,335
Raw,1.35780874e+05,42,335
Raw,1.11577804e+05,43,335
Raw,74088.824,44,335
Raw,1.45114655e+05,45,335
Raw,85229.292,47,335
Raw,53382.979,47,335
Raw,1.55029537e+05,48,335
Raw,1.58295935e+05,49,335
Raw,82472.013,50,335
Raw,1.3883492e+05,51,335
Raw,60102.365,52,335
Raw,92826.457,53,335
Raw,84938.528,54,335
Raw,1.19442098e+05,55,335
Raw,1.7937123e+05,56,335
Raw,1.27844566e+05,58,335
Raw,31046.933,59,335
Raw,1.0969106e+05,59,335
Raw,1.01966816e+05,60,335
Raw,1.27099809e+05,62,335
Raw,87136.921,63,335
Raw,83038.398,64,335
Raw,68735.648,65,335
Raw,65976.711,66,335
Raw,1.85585491e+05,67,335
Raw,80975.913,68,335
Raw,1.21677076e+05,70,335
Raw,1.14803131e+05,71,335
Raw,42259.294,71,335
Raw,1.42554326e+05,72,335
Raw,1.12709155e+05,73,335
Raw,86337.718,74,335
Raw,1.094828e+05,75,335
Raw,98974.784,76,335
Raw,63894.878,77,335
Raw,99969.174,78,335
Raw,2.37681048e+05,79,335
Raw,1.3713766e+05,80,335
Raw,1.38594745e+05,81,335
Raw,1.16875213e+05,82,335
Raw,71238.359,83,335
Raw,1.55869064e+05,84,335
Raw,2.00887009e+05,85,335
Raw,86312.839,86,335
Raw,44503.901,86,335
Raw,85646.876,87,335
Raw,77173.128,88,335
Raw,1.63139205e+05,89,335
Raw,50167.678,90,335
Raw,1.27271053e+05,90,335
Raw,1.21509317e+05,91,335
Raw,1.21275368e+05,92,335
Raw,1.38822874e+05,93,335
Raw,95593.884,94,335
Raw,1.10981749e+05,95,335
Raw,79243.429,96,335
Raw,44283.495,97,335
Raw,1.10747002e+05,97,335
Raw,90739.014,98,335
Raw,83345.545,99,335
Raw,67946.809,99,335
Raw,91790.409,100,335
Raw,1.34362165e+05,101,335
Raw,1.64691055e+05,102,335
Raw,1.99995111e+05,103,335
Raw,92273.297,104,335
Raw,68105.952,105,335
Raw,1.69916993e+05,106,335
Raw,86525.943,107,335
Raw,1.19786406e+05,108,335
Raw,1.04731622e+05,109,335
Raw,83135.434,110,335
Raw,1.19292997e+05,111,335
Raw,84622.956,112,335
Raw,74177.522,113,335
Raw,1.05054601e+05,114,335
Raw,77335.246,115,335
Raw,1.21202348e+05,116,335
Raw,1.35046932e+05,117,335
Raw,94359.253,118,335
Raw,82146.954,119,335
Raw,56805.907,120,335
Raw,29969.589,120,335
Raw,51160.784,121,335
Raw,34792.394,121,335
Raw,2.10635095e+05,122,335
Raw,1.15345418e+05,123,335
Raw,43241.016,123,335
Raw,1.52092259e+05,124,335
Raw,77837.305,125,335
Raw,2.24963305e+05,127,335
Raw,73676.336,128,335
Raw,74337.199,129,335
Raw,1.06834199e+05,130,335
Raw,79725.662,131,335
Raw,1.81600395e+05,132,335
Raw,87648.928,133,335
Raw,88957.821,134,335
Raw,70417.825,136,335
Raw,1.61875348e+05,138,335
Raw,43665.026,138,335
Raw,1.00222514e+05,139,335
Raw,61422.247,140,335
Raw,89967.047,140,335
Raw,95442.639,141,335
Raw,91238.951,144,335
Raw,1.42865079e+05,145,335
Raw,61342.638,146,335
Raw,31275.152,146,335
Raw,1.59133768e+05,147,335
Raw,99513.35,148,335
Raw,16383.322,148,335
Raw,74758.722,149,335
Raw,1.01562177e+05,150,335
Raw,89111.788,151,335
Raw,61621.43,151,335
Raw,45652.476,152,335
Raw,1.20074866e+05,152,335
Raw,1.66284907e+05,153,335
Raw,32297.769,153,335
Raw,1.0335256e+05,154,335
Raw,1.51070497e+05,155,335
Raw,76235.516,156,335
Raw,2.07236246e+05,157,335
Raw,77270.938,158,335
Raw,84801.434,159,335
Raw,87673.869,160,335
Raw,99024.252,161,335
Raw,1.20742256e+05,162,335
Raw,1.31688877e+05,164,335
Raw,87283.62,165,335
Raw,74235.379,166,335
Raw,99094.074,167,335
Raw,1.48090951e+05,168,335
Raw,1.90590254e+05,169,335
Raw,54660.355,169,335
Raw,77701.167,170,335
Raw,1.02728031e+05,171,335
Raw,1.97852985e+05,172,335
Raw,2.61682225e+05,174,335
Raw,38376.636,174,335
Raw,85843.557,176,335
Raw,97684.524,178,335
Raw,1.70920711e+05,179,335
Raw,1.77379368e+05,180,335
Raw,73337.4,182,335
Raw,77812.264,183,335
Raw,1.04300468e+05,184,335
Raw,25436.254,184,335
Raw,55997.297,184,335
Raw,1.07516355e+05,185,335
Raw,1.00111734e+05,186,335
Raw,1.75182524e+05,188,335
Raw,64589.354,189,335
Raw,85884.069,190,335
Raw,78999.784,191,335
Raw,87472.322,192,335
Raw,63079.89,193,335
Raw,24106.866,194,335
Raw,1.83885567e+05,194,335
Raw,1.70992442e+05,195,335
Raw,1.76055033e+05,196,335
Raw,51430.935,197,335
Raw,60434.572,197,335
Raw,99223.147,198,335
Raw,25652.025,198,335
Raw,1.47985685e+05,199,335
Raw,1.27956519e+05,200,335
Raw,95155.728,201,335
Raw,1.61818803e+05,202,335
Raw,72727.702,203,335
Raw,67788.717,204,335
Raw,89248.453,205,335
Raw,84987.787,206,335
Raw,1.3285092e+05,207,335
Raw,89834.107,208,335
Raw,91396.675,209,335
Raw,85523.256,210,335
Raw,1.54230146e+05,211,335
Raw,1.02252161e+05,212,335
Raw,1.16872561e+05,213,335
Raw,1.77936248e+05,214,335
Raw,1.42670594e+05,216,335
Raw,1.11329203e+05,217,335
Raw,67452.228,218,335
Raw,1.77032631e+05,219,335
Raw,81487.808,220,335
Raw,96362.311,221,335
Raw,95140.83,222,335
Raw,1.63671667e+05,223,335
Raw,1.1440121e+05,224,335
Raw,86361.82,225,335
Raw,67003.024,226,335
Raw,1.11774552e+05,227,335
Raw,1.42866884e+05,228,335
Raw,1.39398604e+05,230,335
Raw,62988.428,231,335
Raw,1.08513099e+05,232,335
Raw,88151.8,232,335
Raw,98278.413,233,335
Raw,89694.315,234,335
Raw,1.52703752e+05,235,335
Raw,59753.937,235,335
Raw,1.3651796e+05,236,335
Raw,94731.471,237,335
Raw,51918.856,238,335
Raw,1.14851707e+05,239,335
Raw,66022.324,240,335
Raw,1.05493334e+05,241,335
Raw,1.58396191e+05,242,335
Raw,1.76923381e+05,243,335
Raw,1.06356629e+05,244,335
Raw,1.53947906e+05,245,335
Raw,48049.56,245,335
Raw,93898.531,246,335
Raw,77182.997,247,335
Raw,1.06509221e+05,248,335
Raw,96243.6,249,335
Raw,1.21995892e+05,250,335
Raw,1.73756772e+05,251,335
Raw,70019.77,252,335
Raw,1.4721664e+05,253,335
Raw,83529.426,253,335
Raw,68509.028,254,335
Raw,1.40611499e+05,255,335
Raw,1.11918513e+05,256,335
Raw,60146.684,257,335
Raw,33998.565,257,335
Raw,1.19183704e+05,258,335
Raw,12978.632,258,335
Raw,10370.357,258,335
Raw,89373.949,259,335
Raw,67791.206,260,335
Raw,1.16489337e+05,261,335
Raw,1.55808778e+05,262,335
Raw,1.087767e+05,263,335
Raw,1.01664984e+05,264,335
Raw,65267.886,265,335
Raw,1.48666959e+05,266,335
Raw,42502.593,266,335
Raw,1.2481588e+05,267,335
Raw,1.3820396e+05,268,335
Raw,75367.96,269,335
Raw,1.20758559e+05,270,335
Raw,68560.499,271,335
Raw,44866.351,271,335
Raw,88776.729,272,335
Raw,81784.756,273,335
Raw,1.03339295e+05,274,335
Raw,1.15059303e+05,275,335
Raw,1.10254062e+05,276,335
Raw,2.17192184e+05,277,335
Raw,83928.769,278,335
Raw,1.06375887e+05,280,335
Raw,81318.943,282,335
Raw,86260.569,283,335
Raw,1.12509133e+05,284,335
Raw,1.42021049e+05,285,335
Raw,76061.829,286,335
Raw,89796.533,287,335
Raw,86974.511,288,335
Raw,78532.814,289,335
Raw,61966.847,290,335
Raw,38360.63,290,335
Raw,1.20056365e+05,291,335
Raw,97683.251,292,335
Raw,2.22188624e+05,293,335
Raw,31247.012,293,335
Raw,79493.389,294,335
Raw,1.25508292e+05,295,335
Raw,1.66990366e+05,296,335
Raw,1.13853965e+05,297,335
Raw,52851.96,298,335
Raw,93013.932,298,335
Raw,9061.7015,299,335
Raw,75354.171,299,335
Raw,69223.886,300,335
Raw,45391.326,301,335
Raw,1.19514762e+05,301,335
Raw,1.64008821e+05,302,335
Raw,74906.141,303,335
Raw,91971.305,304,335
Raw,59900.373,305,335
Raw,1.13851084e+05,306,335
Raw,1.41090419e+05,307,335
Raw,1.40721338e+05,308,335
Raw,1.21286692e+05,310,335
Raw,1.01218168e+05,311,335
Raw,99280.727,312,335
Raw,88344.669,313,335
Raw,51289.845,315,335
Raw,1.25561305e+05,316,335
Raw,1.75808601e+05,318,335
Raw,73833.286,320,335
Raw,81329.797,321,335
Raw,1.69095683e+05,322,335
Raw,45452.505,322,335
Raw,1.32523101e+05,324,335
Raw,88154.461,325,335
Raw,68745.869,326,335
Raw,90826.007,327,335
Raw,79579.717,328,335
Raw,44371.235,329,335
Raw,1.62917238e+05,329,335
Raw,1.95683849e+05,330,335
Raw,54489.158,330,335
Raw,65005.22,331,335
Raw,82251.116,332,335
Raw,41739.159,332,335
Raw,1.40786353e+05,333,335
Raw,76247.291,334,335
Raw,87831.943,336,335
Raw,56507.827,339,335
Raw,91434.424,339,335
Raw,64165.961,340,335
Raw,91510.886,341,335
Raw,80369.632,342,335
Raw,1.08710653e+05,343,335
Raw,72759.836,344,335
Raw,1.07201696e+05,345,335
Raw,1.05233459e+05,346,335
Raw,64120.438,347,335
Raw,1.57700934e+05,348,335
Raw,97373.102,349,335
Raw,1.07131858e+05,350,335
Raw,1.08255269e+05,352,335
Raw,72020.257,354,335
Raw,55372.269,356,335
Raw,2.11845239e+05,357,335
Raw,1.04253806e+05,358,335
Raw,1.42140531e+05,359,335
Raw,1.0714804e+05,360,335
Raw,95908.668,361,335
Raw,1.07688012e+05,364,335
Raw,1.18747229e+05,365,335
Raw,1.25035994e+05,366,335
Raw,77316.603,368,335
Raw,33482.592,368,335
Raw,1.74977912e+05,369,335
Raw,2.4242881e+05,370,335
Raw,64850.625,371,335
Raw,65674.393,372,335
Raw,99812.284,373,335
Raw,1.16338597e+05,374,335
Raw,99456.429,375,335
Raw,56403.356,376,335
Raw,1.27046965e+05,376,335
Raw,93531.896,377,335
Raw,75329.275,378,335
Raw,9751.5987,378,335
Raw,86033.685,379,335
Raw,1.98223173e+05,380,335
Raw,1.33763409e+05,381,335
Raw,78075.639,382,335
Raw,67075.706,383,335
Raw,1.58281126e+05,384,335
Raw,53894.101,384,335
Raw,1.20061147e+05,386,335
Raw,1.34318479e+05,387,335
Raw,2.10810862e+05,389,335
Raw,65618.215,390,335
Raw,88624.901,392,335
Raw,93319.726,393,335
Raw,1.43550607e+05,394,335
Raw,1.04869569e+05,395,335
Raw,26816.747,396,335
Raw,1.63071802e+05,396,335
Raw,2.00931412e+05,397,335
Raw,95670.572,398,335
Raw,1.17541249e+05,399,335
Raw,52874.73,400,335
Raw,1.38982128e+05,401,335
Raw,1.07856946e+05,403,335
Raw,1.95705181e+05,404,335
Raw,1.06701304e+05,405,335
Raw,90365.335,406,335
Raw,66718.826,407,335
Raw,76440.765,408,335
Raw,1.24052001e+05,409,335
Raw,42806.798,410,335
Raw,81948.047,410,335
Raw,74681.755,411,335
Raw,75258.844,413,335
Raw,1.34544434e+05,414,335
Raw,73069.137,415,335
Raw,1.65679638e+05,416,335
Raw,83718.263,418,335
Raw,1.43986967e+05,419,335
Raw,1.43693253e+05,420,335
Raw,79038.253,421,335
Raw,1.50284877e+05,422,335
Raw,1.21377088e+05,423,335
Raw,67726.791,424,335
Raw,1.02947764e+05,425,335
Raw,1.51633794e+05,426,335
Raw,80314.615,427,335
Raw,59654.672,427,335
Raw,81539.065,428,335
Raw,2.19395662e+05,429,335
Raw,48225.951,430,335
Raw,1.67413957e+05,431,335
Raw,1.26224822e+05,432,335
Raw,1.17483504e+05,433,335
Raw,74030.195,434,335
Raw,73684.381,435,335
Raw,1.15800476e+05,436,335
Raw,80368.482,437,335
Raw,1.4180638e+05,440,335
Raw,17564.42,440,335
Raw,1.29532237e+05,441,335
Raw,76829.961,442,335
Raw,99024.3,443,335
Raw,79132.454,445,335
Raw,1.63041043e+05,446,335
Raw,68907.684,447,335
Raw,1.75448719e+05,448,335
Raw,1.38097408e+05,449,335
Raw,17438.348,450,335
Raw,1.2516678e+05,450,335
Raw,72465.608,451,335
Raw,1.9680385e+05,453,335
Raw,67691.438,454,335
Raw,1.69273325e+05,455,335
Raw,1.60956769e+05,456,335
Raw,91379.337,457,335
Raw,29250.937,458,335
Raw,1.60947554e+05,458,335
Raw,90932.765,459,335
Raw,1.2307915e+05,460,335
Raw,1.71227577e+05,461,335
Raw,82545.128,462,335
Raw,1.31152611e+05,463,335
Raw,87677.306,464,335
Raw,1.16530694e+05,465,335
Raw,28886.943,466,335
Raw,1.58402463e+05,466,335
Raw,83025.778,467,335
Raw,54978.994,468,335
Raw,1.76907337e+05,469,335
Raw,54769.704,470,335
Raw,1.17630658e+05,470,335
Raw,75338.758,471,335
Raw,9844.3584,471,335
Raw,1.11093918e+05,472,335
Raw,89260.722,473,335
Raw,1.28771844e+05,474,335
Raw,99358.27,475,335
Raw,1.1994161e+05,476,335
Raw,88237.797,477,335
Raw,72585.972,478,335
Raw,37630.976,478,335
Raw,1.08179492e+05,479,335
Raw,1.15146235e+05,481,335
Raw,56792.601,482,335
Raw,1.47694436e+05,483,335
Raw,1.07178332e+05,485,335
Raw,88132.987,486,335
Raw,52934.152,486,335
Raw,96017.222,487,335
Raw,18237.255,488,335
Raw,81978.012,488,335
Raw,2.65690663e+05,489,335
Raw,84072.742,490,335
Raw,22691.657,490,335
Raw,89936.19,491,335
Raw,1.12390336e+05,492,335
Raw,94677.847,493,335
Raw,1.23710345e+05,496,335
Raw,78116.158,497,335
Raw,1.24578219e+05,498,335
Raw,74889.543,499,335
Raw,1.06085406e+05,500,335
Raw,66937.612,500,335
Raw,2.08315572e+05,501,335
Raw,85597.931,502,335
Raw,1.01808623e+05,503,335
Raw,67185.044,504,335
Raw,2.11381392e+05,505,335
Raw,66378.021,506,335
Raw,87955.529,507,335
Raw,1.71241615e+05,508,335
Raw,1.88090349e+05,508,335
Raw,83277.976,511,335
Raw,1.36922252e+05,512,335
Raw,1.35549953e+05,513,335
Raw,93361.449,514,335
Raw,93341.134,515,335
Raw,41701.26,515,335
Raw,65635.896,516,335
Raw,1.1600253e+05,517,335
Raw,85759.968,518,335
Raw,1.80801303e+05,519,335
Raw,1.64064287e+05,520,335
Raw,41042.361,520,335
Raw,1.26138734e+05,522,335
Raw,1.21593911e+05,523,335
Raw,20809.218,524,335
Raw,56155.628,524,335
Raw,76961.327,525,335
Raw,1.54086268e+05,526,335
Raw,65972.076,527,335
Raw,1.14773099e+05,528,335
Raw,1.15075819e+05,529,335
Raw,1.6183924e+05,530,335
Raw,1.72971737e+05,531,335
Raw,97631.301,532,335
Raw,43901.396,533,335
Raw,45352.679,535,335
Raw,1.94398369e+05,536,335
Raw,59072.171,537,335
Raw,95912.102,538,335
Raw,56899.405,539,335
Raw,56659.118,539,335
Raw,1.33260365e+05,540,335
Raw,1.5287163e+05,541,335
Raw,81413.971,542,335
Raw,79500.011,543,335
Raw,1.0710186e+05,544,335
Raw,79488.263,545,335
Raw,74126.159,545,335
Raw,85028.63,546,335
Raw,68566.991,547,335
Raw,64891.318,548,335
Raw,1.46841845e+05,549,335
Raw,49190.431,549,335
Raw,69325.928,550,335
Raw,82691.996,551,335
Raw,1.22778459e+05,552,335
Raw,93157.635,554,335
Raw,79525.053,555,335
Raw,1.54216099e+05,556,335
Raw,1.04798163e+05,557,335
Raw,67943.154,558,335
Raw,66047.327,560,335
Raw,66790.069,560,335
Raw,30889.582,561,335
Raw,69542.914,561,335
Raw,1.15241969e+05,562,335
Raw,1.51227888e+05,564,335
Raw,93660.831,565,335
Raw,12032.886,566,335
Raw,84635.36,566,335
Raw,27605.655,566,335
Raw,71516.355,567,335
Raw,90652.515,568,335
Raw,1.01154096e+05,570,335
Raw,1.23104695e+05,571,335
Raw,87933.381,572,335
Raw,94691.212,573,335
Raw,73022.741,574,335
Raw,88985.95,575,335
Raw,80457.311,576,335
Raw,1.46859038e+05,577,335
Raw,37234.201,577,335
Raw,92857.231,578,335
Raw,65899.055,579,335
Raw,1.0707015e+05,580,335
Raw,83095.639,581,335
Raw,97604.985,582,335
Raw,1.33415662e+05,584,335
Raw,56473.355,585,335
Raw,76682.242,586,335
Raw,1.23792025e+05,587,335
Raw,81408.986,588,335
Raw,1.22860482e+05,589,335
Raw,1.01688471e+05,590,335
Raw,72468.564,591,335
Raw,85529.779,592,335
Raw,1.04791755e+05,593,335
Raw,98636.342,594,335
Raw,1.62485493e+05,595,335
Raw,92699.601,596,335
Raw,1.2808697e+05,597,335
Raw,94748.909,598,335
Raw,1.61542308e+05,599,335
Raw,64901.537,600,335
Raw,99892.842,601,335
Raw,29854.508,602,335
Raw,1.39672468e+05,602,335
Raw,72518.573,603,335
Raw,66847.718,604,335
Raw,1.52345508e+05,606,335
Raw,74750.875,608,335
Raw,73484.733,609,335
Raw,72616.183,610,335
Raw,2.45620069e+05,611,335
Raw,79791.318,611,335
Raw,72282.463,612,335
Raw,1.10456169e+05,613,335
Raw,67650.317,614,335
Raw,1.09272666e+05,615,335
Raw,1.62344888e+05,616,335
Raw,98477.653,618,335
Raw,96593.717,619,335
Raw,1.35908328e+05,620,335
Raw,89129.049,621,335
Raw,1.45180765e+05,622,335
Raw,74830.645,623,335
Raw,1.38008316e+05,624,335
Raw,1.93786897e+05,625,335
Raw,1.37556908e+05,626,335
Raw,1.55036425e+05,627,335
Raw,78889.715,629,335
Raw,2.16567965e+05,630,335
Raw,61371.625,631,335
Raw,81640.876,631,335
Raw,1.65402868e+05,632,335
Raw,17950.488,633,335
Raw,80712.681,633,335
Raw,1.07941799e+05,634,335
Raw,76962.908,634,335
Raw,1.08020377e+05,635,335
Raw,1.62516814e+05,636,335
Raw,1.65495548e+05,637,335
Raw,1.52823611e+05,638,335
Raw,1.15032782e+05,640,335
Raw,2.34091985e+05,641,335
Raw,99435.293,642,335
Raw,72914.251,644,335
Raw,1.91138827e+05,645,335
Raw,1.18617005e+05,646,335
Raw,75740.602,647,335
Raw,74693.887,648,335
Raw,80779.26,649,335
Raw,1.26642653e+05,650,335
Raw,1.62590312e+05,651,335
Raw,88422.51,652,335
Raw,96809.932,653,335
Raw,92260.673,654,335
Raw,68971.231,655,335
Raw,31300.269,656,335
Raw,69575.554,656,335
Raw,81735.554,657,335
Raw,93592.479,658,335
Raw,63232.407,658,335
Raw,73958.447,659,335
Raw,80928.661,660,335
Raw,1.15715913e+05,661,335
Raw,88637.733,662,335
Raw,96400.313,663,335
Raw,1.554638e+05,664,335
Raw,64461.827,665,335
Raw,1.08533785e+05,666,335
Raw,94471.277,667,335
Raw,89217.754,669,335
Raw,1.21569398e+05,670,335
Raw,94698.069,671,335
Raw,92443.441,673,335
Raw,2.53555546e+05,674,335
Raw,74965.587,675,335
Raw,1.36112757e+05,676,335
Raw,66321.195,677,335
Raw,67591.756,678,335
Raw,83934.552,678,335
Raw,2.3134092e+05,679,335
Raw,78954.701,680,335
Raw,85377.243,681,335
Raw,1.19298292e+05,682,335
Raw,95214.179,683,335
Raw,99788.387,684,335
Raw,72901.5,685,335
Raw,1.07970591e+05,686,335
Raw,1.07673908e+05,687,335
Raw,29867.817,687,335
Raw,45464.878,688,335
Raw,73318.537,689,335
Raw,1.41301448e+05,690,335
Raw,56005.691,692,335
Raw,1.01273124e+05,693,335
Raw,1.6848498e+05,694,335
Raw,69467.316,695,335
Raw,1.09657157e+05,696,335
Raw,1.06853429e+05,697,335
Raw,83107.299,698,335
Raw,1.17068972e+05,699,335
Raw,1.58438202e+05,700,335
Raw,1.25335586e+05,701,335
Raw,1.11472141e+05,702,335
Raw,1.60118911e+05,703,335
Raw,64478.696,704,335
Raw,1.41528987e+05,706,335
Raw,38206.781,706,335
Raw,1.15135553e+05,707,335
Raw,1.36995491e+05,708,335
Raw,1.52852461e+05,709,335
Raw,1.07529401e+05,712,335
Raw,86502.765,714,335
Raw,83352.884,715,335
Raw,1.31578538e+05,716,335
Raw,80342.878,717,335
Raw,85384.688,718,335
Raw,65117.636,719,335
Raw,78242.744,719,335
Raw,1.69008811e+05,721,335
Raw,32442.093,722,335
Raw,1.03496886e+05,722,335
Raw,1.02217008e+05,723,335
Raw,68286.165,724,335
Raw,83369.044,725,335
Raw,95310.601,726,335
Raw,80666.322,728,335
Raw,1.3143255e+05,729,335
Raw,1.04006868e+05,730,335
Raw,1.7870587e+05,731,335
Raw,1.79215354e+05,732,335
Raw,1.05112227e+05,733,335
Raw,1.04204254e+05,734,335
Raw,44819.287,734,335
Raw,65335.925,735,335
Raw,33093.799,736,335
Raw,1.22634958e+05,736,335
Raw,84531.958,737,335
Raw,89291.661,738,335
Raw,4164.1919,738,335
Raw,54060.001,739,335
Raw,83978.606,740,335
Raw,52668.637,741,335
Raw,1.64472402e+05,742,335
Raw,1.01003914e+05,743,335
Raw,68523.12,744,335
Raw,96779.053,745,335
Raw,1.26147224e+05,746,335
Raw,89546.921,747,335
Raw,2.0373466e+05,748,335
Raw,87061.315,749,335
Raw,1.32327414e+05,750,335
Raw,66694.47,751,335
Raw,40871.137,751,335
Raw,78467.455,752,335
Raw,17512.938,752,335
Raw,86211.239,754,335
Raw,1.01768097e+05,755,335
Raw,1.45041903e+05,756,335
Raw,76200.052,757,335
Raw,19940.959,757,335
Raw,73516.884,758,335
Raw,81850.029,759,335
Raw,95389.345,760,335
Raw,97558.865,761,335
Raw,68475.102,761,335
Raw,61776.375,762,335
Raw,1.02306714e+05,762,335
Raw,53088.535,762,335
Raw,42537.102,763,335
Raw,60596.122,763,335
Raw,60033.085,764,335
Raw,2.11283734e+05,765,335
Raw,2.38754374e+05,766,335
Raw,1.9352113e+05,767,335
Raw,1.40739554e+05,768,335
Raw,1.39655092e+05,770,335
Raw,75727.869,771,335
Raw,1.36682581e+05,772,335
Raw,59267.379,773,335
Raw,80133.832,774,335
Raw,62299.641,775,335
Raw,97488.482,776,335
Raw,1.20265153e+05,777,335
Raw,56776.556,778,335
Raw,86784.136,779,335
Raw,42508.84,779,335
Raw,76696.044,780,335
Raw,1.00757245e+05,781,335
Raw,1.77416778e+05,782,335
Raw,1.53552192e+05,783,335
Raw,87044.157,785,335
Raw,1.71944451e+05,786,335
Raw,1.66333527e+05,787,335
Raw,1.33151102e+05,788,335
Raw,1.04822133e+05,789,335
Raw,1.13710251e+05,790,335
Raw,88618.358,791,335
Raw,82448.132,792,335
Raw,1.09485905e+05,793,335
Raw,16830.002,794,335
Raw,93556.826,794,335
Raw,85593.582,795,335
Raw,1.11062378e+05,796,335
Raw,1.21710326e+05,797,335
Raw,1.94408277e+05,798,335
Raw,74020.897,800,335
Raw,1.72272052e+05,801,335
Raw,1.40738183e+05,802,335
Raw,1.00788656e+05,803,335
Raw,85683.379,804,335
Raw,1.42007657e+05,805,335
Raw,1.4309552e+05,806,335
Raw,99946.195,807,335
Raw,36909.225,808,335
Raw,77549.636,808,335
Raw,1.37135022e+05,809,335
Raw,1.67728311e+05,810,335
Raw,1.05195286e+05,811,335
Raw,58216.686,812,335
Raw,1.60173976e+05,813,335
Raw,60156.735,814,335
Raw,51638.118,814,335
Raw,1.36132647e+05,815,335
Raw,1.08805417e+05,816,335
Raw,32969.952,817,335
Raw,1.72461433e+05,818,335
Raw,87204.811,819,335
Raw,80536.473,820,335
Raw,63391.495,820,335
Raw,89917.785,821,335
Raw,98975.5,822,335
Raw,1.16735961e+05,823,335
Raw,1.4768175e+05,824,335
Raw,69510.222,824,335
Raw,26677.694,825,335
Raw,90862.478,825,335
Raw,35959.118,827,335
Raw,72153.226,827,335
Raw,66572.429,827,335
Raw,1.04395281e+05,828,335
Raw,1.26433767e+05,829,335
Raw,65898.922,830,335
Raw,63685.666,831,335
Raw,1.41666286e+05,832,335
Raw,25352.3,833,335
Raw,1.32425713e+05,833,335
Raw,82368.906,834,335
Raw,72683.377,835,335
Raw,93989.465,836,335
Raw,54853.911,838,335
Raw,67746.855,839,335
Raw,89680.91,840,335
Raw,1.41325274e+05,841,335
Raw,1.12897203e+05,842,335
Raw,1.90824915e+05,843,335
Raw,1.17121336e+05,844,335
Raw,85788.988,845,335
Raw,70998.009,846,335
Raw,1.6872402e+05,847,335
Raw,69488.023,848,335
Raw,31303.363,849,335
Raw,52201.58,849,335
Raw,1.0777537e+05,849,335
Raw,93151.12,850,335
Raw,1.62331865e+05,851,335
Raw,1.97984344e+05,852,335
Raw,83499.249,853,335
Raw,94761.381,854,335
Raw,80095.905,855,335
Raw,1.05410876e+05,856,335
Raw,1.81235344e+05,857,335
Raw,90676.014,858,335
Raw,63465.792,859,335
Raw,50540.471,860,335
Raw,65961.849,861,335
Raw,72012.864,862,335
Raw,1.05733751e+05,863,335
Raw,28941.327,864,335
Raw,1.20384893e+05,864,335
Raw,99502.41,865,335
Raw,66720.64,866,335
Raw,56556.75,866,335
Raw,1.08956153e+05,867,335
Raw,1.30986964e+05,868,335
Raw,1.1273929e+05,869,335
Raw,1.32727894e+05,870,335
Raw,2.30604507e+05,872,335
Raw,1.49453426e+05,873,335
Raw,35245.61,875,335
Raw,1.20272534e+05,875,335
Raw,76176.363,876,335
Raw,19202.732,876,335
Raw,26295.25,877,335
Raw,21269.662,877,335
Raw,66118.871,877,335
Raw,1.73886939e+05,878,335
Raw,53980.725,878,335
Raw,1.32767474e+05,879,335
Raw,99482.8,880,335
Raw,69835.593,881,335
Raw,1.22935787e+05,882,335
Raw,99973.351,883,335
Raw,1.05344889e+05,886,335
Raw,81641.627,887,335
Raw,87451.888,888,335
Raw,78459.42,889,335
Raw,1.64174138e+05,890,335
Raw,1.53029001e+05,891,335
Raw,37029.313,891,335
Raw,82240.119,892,335
Raw,2.04568191e+05,894,335
Raw,1.24140605e+05,895,335
Raw,1.23903097e+05,896,335
Raw,50316.192,896,335
Raw,1.05144378e+05,897,335
Raw,95797.691,898,335
Raw,72840.582,898,335
Raw,1.48758693e+05,899,335
Raw,98642.333,900,335
Raw,64485.502,901,335
Raw,1.08377308e+05,901,335
Raw,89588.879,902,335
Raw,1.43938655e+05,903,335
Raw,1.73341452e+05,904,335
Raw,89363.506,905,335
Raw,30607.347,905,335
Raw,83426.109,906,335
Raw,76075.16,907,335
Raw,59052.455,908,335
Raw,1.1545732e+05,909,335
Raw,96113.74,910,335
Raw,2.0285284e+05,912,335
Raw,1.07617861e+05,913,335
Raw,1.50275848e+05,914,335
Raw,43889.828,915,335
Raw,1.26404882e+05,915,335
Raw,1.39684094e+05,916,335
Raw,44178.632,917,335
Raw,53188.406,917,335
Raw,89469.244,918,335
Raw,41958.366,918,335
Raw,1.02299433e+05,919,335
Raw,52485.772,920,335
Raw,1.00578177e+05,920,335
Raw,1.23869657e+05,921,335
Raw,1.10142842e+05,922,335
Raw,19954.01,922,335
Raw,2.17574212e+05,923,335
Raw,46592.204,923,335
Raw,41108.351,923,335
Raw,52554.068,924,335
Raw,1.14148516e+05,924,335
Raw,72888.134,925,335
Raw,1.07400598e+05,926,335
Raw,1.05148174e+05,927,335
Raw,79281.764,928,335
Raw,87329.043,929,335
Raw,1.47195442e+05,931,335
Raw,89285.99,932,335
Raw,75052.172,933,335
Raw,71342.067,934,335
Raw,68062.006,935,335
Raw,91574.586,936,335
Raw,78080.498,937,335
Raw,1.74710164e+05,938,335
Raw,75707.17,939,335
Raw,1.45646466e+05,940,335
Raw,28846.248,941,335
Raw,85505.692,941,335
Raw,93256.248,942,335
Raw,1.32356585e+05,943,335
Raw,1.05715175e+05,945,335
Raw,1.8914613e+05,946,335
Raw,1.11494631e+05,947,335
Raw,90358.572,948,335
Raw,98739.132,949,335
Raw,1.84369949e+05,950,335
Raw,67849.268,951,335
Raw,97353.906,952,335
Raw,1.31124325e+05,953,335
Raw,69841.339,954,335
Raw,1.00200857e+05,955,335
Raw,1.08621358e+05,956,335
Raw,97912.522,957,335
Raw,45369.753,958,335
Raw,1.12858169e+05,958,335
Raw,1.77408776e+05,959,335
Raw,73918.689,960,335
Raw,71946.087,961,335
Raw,61293.679,962,335
Raw,2.23995886e+05,963,335
Raw,1.13233826e+05,964,335
Raw,2.19848861e+05,965,335
Raw,1.87714701e+05,966,335
Raw,62632.389,967,335
Raw,53957.748,967,335
Raw,1.0312637e+05,968,335
Raw,1.11511238e+05,969,335
Raw,1.44120648e+05,970,335
Raw,1.42008671e+05,971,335
Raw,1.22775221e+05,972,335
Raw,2.35962593e+05,974,335
Raw,1.64596547e+05,975,335
Raw,1.0201704e+05,976,335
Raw,87946.937,977,335
Raw,96955.891,978,335
Raw,89076.849,979,335
Raw,1.04727025e+05,981,335
Raw,1.40052056e+05,982,335
Raw,2.27086766e+05,983,335
Raw,39548.037,983,335
Raw,93296.784,984,335
Raw,84937.571,985,335
Raw,28627.895,985,335
Raw,62857.867,985,335
Raw,1.02440289e+05,986,335
Raw,1.5028293e+05,987,335
Raw,96780.376,988,335
Raw,33477.253,990,335
Raw,1.40775338e+05,990,335
Raw,64687.882,991,335
Raw,73177.594,992,335
Raw,1.07819419e+05,993,335
Raw,1.58837143e+05,995,335
Raw,45014.438,995,335
Raw,1.85228182e+05,996,335
Raw,1.11148489e+05,997,335
Raw,35337.27,998,335
Raw,64118.345,998,335
Raw,99527.418,999,335
Raw,1.27840901e+05,1000,335
Raw,35844.996,1000,335
Raw,1.04704814e+05,1001,335
Raw,1.11311081e+05,1002,335
Raw,31241.048,1002,335
Raw,1.11745213e+05,1003,335
Raw,1.34668203e+05,1004,335
Raw,2.65251199e+05,1005,335
Raw,82244.286,1006,335
Raw,1.46992712e+05,1007,335
Raw,1.41123267e+05,1008,335
Raw,93148.35,1009,335
Raw,35128.98,1010,335
Raw,1.12944457e+05,1010,335
Raw,1.20915733e+05,1011,335
Raw,49393.975,1011,335
Raw,1.26647373e+05,1012,335
Raw,69876.417,1013,335
Raw,97734.232,1014,335
Raw,75076.636,1015,335
Raw,46152.095,1015,335
Raw,1.30819395e+05,1016,335
Raw,1.00810934e+05,1017,335
Raw,1.37436451e+05,1018,335
Raw,1.22501092e+05,1019,335
Raw,1.18835122e+05,1020,335
Raw,83530.016,1021,335
Raw,1.39574946e+05,1022,335
Raw,67233.243,1023,335
Raw,46945.524,1023,335
Raw,95641.735,1024,335
Raw,54296.962,1025,335
Raw,90435.594,1026,335
Raw,81208.982,1027,335
Raw,1.09089443e+05,1028,335
Raw,1.08219395e+05,1029,335
Raw,32597.716,1029,335
Raw,1.27566684e+05,1030,335
Raw,1.65531754e+05,1031,335
Raw,88894.931,1032,335
Raw,79055.69,1033,335
Raw,1.49062652e+05,1034,335
Raw,96002.457,1036,335
Raw,55841.553,1037,335
Raw,68973.606,1039,335
Raw,1.39491257e+05,1040,335
Raw,75609.432,1041,335
Raw,1.57782424e+05,1042,335
Raw,74838.191,1043,335
Raw,70242.918,1044,335
Raw,1.70520302e+05,1045,335
Raw,87824.228,1046,335
Raw,1.28276649e+05,1047,335
Raw,9989.7266,1047,335
Raw,66928.316,1048,335
Raw,1.30954089e+05,1049,335
Raw,1.59493001e+05,1050,335
Raw,94464.588,1051,335
Raw,89886.014,1052,335
Raw,92524.228,1053,335
Raw,84398.859,1054,335
Raw,1.51906128e+05,1055,335
Raw,1.22049291e+05,1056,335
Raw,80618.5,1057,335
Raw,86075.995,1059,335
Raw,1.20319604e+05,1060,335
Raw,91989.06,1061,335
Raw,63210.461,1062,335
Raw,86721.403,1063,335
Raw,64471.523,1064,335
Raw,1.27879503e+05,1065,335
Raw,1.36151421e+05,1066,335
Raw,1.27905124e+05,1067,335
Raw,38666.81,1069,335
Raw,1.01568294e+05,1069,335
Raw,1.04835464e+05,1071,335
Raw,1.3620972e+05,1072,335
Raw,50474.734,1073,335
Raw,1.04353874e+05,1073,335
Raw,1.52760726e+05,1074,335
Raw,70308.591,1075,335
Raw,1.52391403e+05,1076,335
Raw,87740.22,1077,335
Raw,1.64634919e+05,1078,335
Raw,33881.559,1079,335
Raw,1.48129709e+05,1079,335
Raw,1.89649827e+05,1080,335
Raw,30641.438,1080,335
Raw,1.38053786e+05,1081,335
Raw,66395.14,1082,335
Raw,1.85194888e+05,1084,335
Raw,85309.899,1085,335
Raw,1.51799e+05,1086,335
Raw,1.38362066e+05,1087,335
Raw,33018.818,1087,335
Raw,78820.211,1088,335
Raw,78207.724,1089,335
Raw,28589.577,1091,335
Raw,96793.347,1091,335
Raw,82474.672,1092,335
Raw,61280.106,1093,335
Raw,74116.082,1094,335
Raw,1.33047306e+05,1095,335
Raw,27017.682,1096,335
Raw,1.53041751e+05,1096,335
Raw,1.69511636e+05,1097,335
Raw,36942.251,1097,335
Raw,1.01073287e+05,1098,335
Raw,1.63934983e+05,1099,335
Raw,2.38259732e+05,1100,335
Raw,52410.97,1101,335
Raw,1.65173021e+05,1101,335
Raw,1.10167718e+05,1102,335
Raw,1.87319053e+05,1103,335
Raw,1.07569942e+05,1105,335
Raw,1.59124353e+05,1106,335
Raw,80482.629,1106,335
Raw,67580.914,1107,335
Raw,1.00420733e+05,1108,335
Raw,65707.957,1109,335
Raw,85771.943,1110,335
Raw,61048.572,1111,335
Raw,1.94296464e+05,1112,335
Raw,1.22018227e+05,1113,335
Raw,63407.153,1113,335
Raw,1.06688566e+05,1114,335
Raw,60428.549,1115,335
Raw,60270.036,1116,335
Raw,71255.21,1117,335
Raw,99264.724,1118,335
Raw,59210.126,1119,335
Raw,91532.308,1121,335
Raw,79292.059,1122,335
Raw,1.36102528e+05,1123,335
Raw,64638.499,1124,335
Raw,79685.915,1125,335
Raw,1.05924448e+05,1126,335
Raw,1.29768022e+05,1127,335
Raw,1.46985536e+05,1128,335
Raw,71375.201,1129,335
Raw,44532.929,1129,335
Raw,1.54662841e+05,1130,335
Raw,81469.162,1131,335
Raw,58544.702,1132,335
Raw,93471.129,1132,335
Raw,83945.011,1133,335
Raw,63633.392,1134,335
Raw,1.43825823e+05,1135,335
Raw,92272.74,1136,335
Raw,93656.451,1137,335
Raw,1.43826738e+05,1138,335
Raw,1.60649118e+05,1139,335
Raw,69852.051,1139,335
Raw,89375.653,1140,335
Raw,89585.339,1141,335
Raw,33038.653,1142,335
Raw,1.32213983e+05,1142,335
Raw,79888.835,1143,335
Raw,1.17542918e+05,1144,335
Raw,95700.766,1145,335
Raw,77706.356,1146,335
Raw,50150.471,1147,335
Raw,2.09551659e+05,1148,335
Raw,1.26975493e+05,1149,335
Raw,1.20556252e+05,1150,335
Raw,1.13834697e+05,1151,335
Raw,67595.86,1152,335
Raw,1.79273612e+05,1153,335
Raw,37478.524,1154,335
Raw,1.71531047e+05,1154,335
Raw,1.18300404e+05,1155,335
Raw,84798.967,1156,335
Raw,1.66119653e+05,1157,335
Raw,52986.139,1157,335
Raw,1.20015015e+05,1158,335
Raw,1.27658469e+05,1159,335
Raw,59211.417,1159,335
Raw,37318.623,1159,335
Raw,1.4192565e+05,1160,335
Raw,67858.425,1161,335
Raw,76368.873,1162,335
Raw,1.11447878e+05,1164,335
Raw,1.3467178e+05,1165,335
Raw,1.84556002e+05,1167,335
Raw,66083.556,1168,335
Raw,88295.013,1169,335
Raw,23556.998,1170,335
Raw,1.48929947e+05,1170,335
Raw,1.11045005e+05,1171,335
Raw,93325.354,1172,335
Raw,1.48276152e+05,1173,335
Raw,83662.273,1174,335
Raw,87211.907,1175,335
Raw,2.03501587e+05,1176,335
Raw,1.2873137e+05,1177,335
Raw,81607.732,1178,335
Raw,1.13091187e+05,1179,335
Raw,2.0019004e+05,1180,335
Raw,82176.225,1181,335
Raw,97088.48,1182,335
Raw,84571.145,1182,335
Raw,17107.932,1182,335
Raw,75065.2,1183,335
Raw,1.35520994e+05,1184,335
Raw,76199.29,1184,335
Raw,1.28912127e+05,1186,335
Raw,1.50165388e+05,1187,335
Raw,1.04824113e+05,1188,335
Raw,66907.724,1188,335
Raw,73555.976,1189,335
Raw,54405.907,1189,335
Raw,88361.385,1190,335
Raw,77665.1,1191,335
Raw,1.54871612e+05,1192,335
Raw,1.01351594e+05,1194,335
Raw,1.00110455e+05,1195,335
Raw,2.18141947e+05,1196,335
Raw,1.6506555e+05,1197,335
Raw,1.00403255e+05,1198,335
Raw,1.10352751e+05,1199,335
Raw,45035.672,1199,335
Raw,61829.71,1200,335
Raw,49310.545,1201,335
Raw,77847.628,1201,335
Raw,80099.828,1202,335
Raw,70841.981,1203,335
Raw,58203.133,1204,335
Raw,87744.13,1205,335
Raw,25820.784,1206,335
Raw,1.46094324e+05,1206,335
Raw,74987.649,1207,335
Raw,37685.346,1207,335
Raw,1.04996876e+05,1208,335
Raw,1.82760568e+05,1209,335
Raw,78295.407,1210,335
Raw,68729.839,1211,335
Raw,85036.732,1212,335
Raw,64169.278,1214,335
Raw,1.28131541e+05,1217,335
Raw,1.10229325e+05,1218,335
Raw,1.26265904e+05,1219,335
Raw,56441.658,1219,335
Raw,1.67592146e+05,1220,335
Raw,1.02857325e+05,1221,335
Raw,1.00103805e+05,1222,335
Raw,1.1086555e+05,1223,335
Raw,1.03980703e+05,1224,335
Raw,1.05138379e+05,1225,335
Raw,64326.556,1225,335
Raw,76149.764,1226,335
Raw,94596.409,1227,335
Raw,72793.447,1228,335
Raw,54592.512,1229,335
Raw,82167.085,1230,335
Raw,1.27936757e+05,1231,335
Raw,93164.046,1233,335
Raw,24853.538,1234,335
Raw,1.60707533e+05,1234,335
Raw,1.34947424e+05,1235,335
Raw,79074.555,1236,335
Raw,1.61787783e+05,1237,335
Raw,91202.364,1238,335
Raw,80837.125,1239,335
Raw,49324.191,1239,335
Raw,58287.564,1240,335
Raw,80062.839,1241,335
Raw,78839.029,1242,335
Raw,2.18328919e+05,1243,335
Raw,1.1204365e+05,1244,335
Raw,1.73365e+05,1245,335
Raw,88502.983,1246,335
Raw,1.35219176e+05,1247,335
Raw,1.04079973e+05,1248,335
Raw,82246.074,1249,335
Raw,76035.712,1250,335
Raw,52806.381,1250,335
Raw,1.06781919e+05,1251,335
Raw,1.04733691e+05,1252,335
Raw,99012.152,1253,335
Raw,1.19768391e+05,1254,335
Raw,66668.834,1256,335
Raw,1.41416014e+05,1257,335
Raw,64817.311,1258,335
Raw,1.02276614e+05,1259,335
Raw,1.79613279e+05,1260,335
Raw,28760.104,1261,335
Raw,96464.917,1261,335
Raw,71668.551,1262,335
Raw,79279.197,1263,335
Raw,72618.649,1264,335
Raw,1.36513573e+05,1264,335
Raw,81198.051,1265,335
Raw,1.43167811e+05,1266,335
Raw,90923.679,1267,335
Raw,70622.172,1267,335
Raw,48660.131,1268,335
Raw,1.16496755e+05,1268,335
Raw,89794.316,1270,335
Raw,88040.009,1271,335
Raw,1.97669148e+05,1272,335
Raw,1.3111521e+05,1273,335
Raw,63320.047,1274,335
Raw,1.34981567e+05,1275,335
Raw,92296.231,1277,335
Raw,98743.652,1278,335
Raw,1.28208057e+05,1279,335
Raw,53611.914,1279,335
Raw,69372.453,1280,335
Raw,1.07625609e+05,1281,335
Raw,69573.826,1282,335
Raw,1.21282982e+05,1283,335
Raw,32330.496,1284,335
Raw,1.40898173e+05,1284,335
Raw,57809.375,1285,335
Raw,1.12926673e+05,1286,335
Raw,56663.747,1287,335
Raw,1.07750744e+05,1288,335
Raw,2.17351815e+05,1289,335
Raw,1.50578513e+05,1290,335
Raw,89843.149,1291,335
Raw,99363.633,1292,335
Raw,89694.17,1293,335
Raw,18217.827,1293,335
Raw,77326.784,1294,335
Raw,59908.132,1294,335
Raw,71087.378,1296,335
Raw,1.47565513e+05,1297,335
Raw,2.21088469e+05,1298,335
Raw,1.97242449e+05,1299,335
Raw,29884.726,1300,335
Raw,56326.839,1301,335
Raw,71425.08,1302,335
Raw,54953.261,1302,335
Raw,89526.483,1303,335
Raw,68574.483,1304,335
Raw,84254.67,1306,335
Raw,68492.004,1306,335
Raw,1.29651426e+05,1307,335
Raw,72839.544,1307,335
Raw,91374.189,1308,335
Raw,99983.099,1309,335
Raw,89239.249,1310,335
Raw,1.08326437e+05,1311,335
Raw,75530.617,1312,335
Raw,19158.461,1312,335
Raw,97314.238,1313,335
Raw,76697.818,1314,335
Raw,22764.167,1315,335
Raw,63795.248,1316,335
Raw,82267.278,1317,335
Raw,1.01674525e+05,1317,335
Raw,95731.925,1318,335
Raw,2.41856755e+05,1319,335
Raw,1.49771504e+05,1320,335
Raw,57847.636,1320,335
Raw,87174.712,1321,335
Raw,1.73292875e+05,1322,335
Raw,1.19523601e+05,1324,335
Raw,1.12463966e+05,1325,335
Raw,1.36302476e+05,1326,335
Raw,42197.37,1327,335
Raw,92062.285,1327,335
Raw,1.40986549e+05,1328,335
Raw,80013.898,1329,335
Raw,1.89327193e+05,1330,335
Raw,97709.198,1331,335
Raw,1.49262406e+05,1332,335
Raw,1.45183777e+05,1333,335
Raw,84215.526,1334,335
Raw,1.22468006e+05,1335,335
Raw,72415.358,1336,335
Raw,1.09903199e+05,1337,335
Raw,90841.978,1338,335
Raw,1.24193384e+05,1339,335
Raw,69779.403,1340,335
Raw,1.25674425e+05,1341,335
Raw,95974.551,1343,335
Raw,87370.272,1344,335
Raw,54640.904,1345,335
Raw,48073.292,1345,335
Raw,1.26087314e+05,1346,335
Raw,1.0469064e+05,1347,335
Raw,1.14046274e+05,1348,335
Raw,1.80599807e+05,1349,335
Raw,1.49687574e+05,1350,335
Raw,1.07094806e+05,1351,335
Raw,1.11507096e+05,1353,335
Raw,83406.678,1354,335
Raw,1.33842647e+05,1355,335
Raw,1.20414147e+05,1356,335
Raw,1.53718752e+05,1357,335
Raw,71376.92,1358,335
Raw,75986.324,1359,335
Raw,95597.956,1360,335
Raw,72776.385,1361,335
Raw,35160.136,1362,335
Raw,85122.172,1362,335
Raw,71268.861,1363,335
Raw,82757.771,1364,335
Raw,84455.718,1365,335
Raw,1.04337237e+05,1366,335
Raw,1.14472637e+05,1367,335
Raw,97777.355,1368,335
Raw,1.05019466e+05,1369,335
Raw,1.67843389e+05,1370,335
Raw,1.83189963e+05,1371,335
Raw,78269.529,1372,335
Raw,1.53409483e+05,1373,335
Raw,1.6118148e+05,1374,335
Raw,1.55858401e+05,1375,335
Raw,41016.887,1375,335
Raw,1.12870602e+05,1376,335
Raw,1.52756144e+05,1376,335
Raw,40160.792,1377,335
Raw,1.77068181e+05,1377,335
Raw,1.11108443e+05,1378,335
Raw,1.57276905e+05,1379,335
Raw,24935.317,1380,335
Raw,70064.538,1380,335
Raw,1.25990987e+05,1381,335
Raw,80243.385,1382,335
Raw,1.25041507e+05,1383,335
Raw,73234.368,1384,335
Raw,1.04836176e+05,1385,335
Raw,1.05087784e+05,1386,335
Raw,61126.991,1387,335
Raw,56242.049,1388,335
Raw,84154.012,1389,335
Raw,89781.589,1390,335
Raw,98149.814,1391,335
Raw,1.73200924e+05,1392,335
Raw,1.25158298e+05,1393,335
Raw,75360.832,1395,335
Raw,1.05110005e+05,1396,335
Raw,1.53389666e+05,1397,335
Raw,2.23758172e+05,1399,335
Raw,95296.103,1401,335
Raw,91048.825,1402,335
Raw,61272.168,1403,335
Raw,65823.7,1404,335
Raw,1.54249925e+05,1406,335
Raw,72306.99,1407,335
Raw,72352.591,1408,335
Raw,1.76136608e+05,1409,335
Raw,76074.214,1410,335
Raw,83501.607,1411,335
Raw,1.2831078e+05,1412,335
Raw,1.0204286e+05,1413,335
Raw,89379.783,1414,335
Raw,1.27848418e+05,1415,335
Raw,69788.484,1416,335
Raw,73995.458,1418,335
Raw,44775.749,1418,335
Raw,69016.099,1419,335
Raw,1.10421434e+05,1420,335
Raw,1.21489314e+05,1421,335
Raw,1.41359388e+05,1422,335
Raw,73642.287,1423,335
Raw,68894.841,1424,335
Raw,90734.376,1425,335
Raw,81036.57,1426,335
Raw,74171.321,1427,335
Raw,1.01997748e+05,1428,335
Raw,1.23935665e+05,1429,335
Raw,34972.351,1429,335
Raw,1.97091083e+05,1430,335
Raw,95519.122,1431,335
Raw,1.3243714e+05,1432,335
Raw,1.02667292e+05,1433,335
Raw,1.0253613e+05,1435,335
Raw,1.09858687e+05,1436,335
Raw,98339.676,1437,335
Raw,1.04559765e+05,1438,335
Raw,1.11694707e+05,1439,335
Raw,59430.818,1440,335
Raw,1.40263399e+05,1441,335
Raw,77518.076,1443,335
Raw,1.21115454e+05,1444,335
Raw,81110.458,1445,335
Raw,49905.256,1447,335
Raw,72443.83,1447,335
Raw,90020.581,1448,335
Raw,33379.799,1448,335
Raw,1.13419281e+05,1449,335
Raw,87299.288,1450,335
Raw,69350.13,1451,335
Raw,89767.592,1452,335
Raw,1.09810819e+05,1453,335
Raw,1.53914991e+05,1454,335
Raw,48223.532,1454,335
Raw,1.34702268e+05,1455,335
Raw,30408.475,1456,335
Raw,1.33022627e+05,1456,335
Raw,68289.769,1457,335
Raw,1.01208455e+05,1458,335
Raw,1.17309999e+05,1459,335
Raw,85389.425,1460,335
Raw,1.02551378e+05,1461,335
Raw,1.0726691e+05,1462,335
Raw,1.18247508e+05,1463,335
Raw,2.1263242e+05,1464,335
Raw,88690.543,1465,335
Raw,66343.46,1466,335
Raw,1.03385737e+05,1468,335
Raw,77365.937,1469,335
Raw,84774.85,1470,335
Raw,1.04492265e+05,1471,335
Raw,1.14260556e+05,1472,335
Raw,96785.354,1473,335
Raw,81385.301,1474,335
Raw,72095.219,1475,335
Raw,1.21677419e+05,1476,335
Raw,76985.322,1478,335
Raw,1.39199283e+05,1479,335
Raw,1.26595578e+05,1480,335
Raw,1.35612735e+05,1481,335
Raw,77773.879,1482,335
Raw,1.16099149e+05,1483,335
Raw,85003.152,1484,335
Raw,1.93628465e+05,1485,335
Raw,92873.932,1487,335
Raw,85535.077,1488,335
Raw,52783.345,1488,335
Raw,94956.187,1489,335
Raw,91795.172,1490,335
Raw,96823.368,1491,335
Raw,1.9499167e+05,1492,335
Raw,59472.806,1493,335
Raw,1.88000674e+05,1495,335
Raw,49289.648,1496,335
Raw,73564.889,1497,335
Raw,1.25647911e+05,1498,335
Raw,11372.652,1498,335
Raw,1.09851798e+05,1499,335
Raw,1.14731509e+05,1500,335
Raw,1.09312468e+05,1501,335
Raw,1.0332828e+05,1502,335
Raw,1.02931286e+05,1503,335
Raw,1.07624033e+05,1504,335
Raw,98381.84,1506,335
Raw,86264.699,1506,335
Raw,61995.434,1507,335
Raw,69461.267,1507,335
Raw,77924.708,1508,335
Raw,1.12803426e+05,1509,335
Raw,71784.411,1510,335
Raw,99888.972,1511,335
Raw,1.04994573e+05,1512,335
Raw,89182.072,1513,335
Raw,49526.643,1514,335
Raw,87351.262,1515,335
Raw,1.16315547e+05,1516,335
Raw,1.33647661e+05,1517,335
Raw,82092.393,1518,335
Raw,1.34057231e+05,1519,335
Raw,82369.384,1520,335
Raw,1.96151439e+05,1521,335
Raw,1.03371645e+05,1522,335
Raw,1.62304722e+05,1523,335
Raw,1.90633479e+05,1524,335
Raw,64060.762,1525,335
Raw,86540.524,1525,335
Raw,1.58784031e+05,1526,335
Raw,1.17898269e+05,1527,335
Raw,2.0100575e+05,1528,335
Raw,1.29162433e+05,1529,335
Raw,83895.774,1530,335
Raw,53736.248,1531,335
Raw,88429.27,1532,335
Raw,98867.168,1533,335
Raw,1.39723802e+05,1534,335
Raw,1.17203389e+05,1535,335
Raw,1.99783422e+05,1537,335
Raw,1.22906238e+05,1538,335
Raw,86903.697,1539,335
Raw,1.16675921e+05,1540,335
Raw,1.48370415e+05,1541,335
Raw,80501.33,1542,335
Raw,2.23820867e+05,1543,335
Raw,24346.152,1543,335
Raw,1.29228905e+05,1544,335
Raw,1.12620903e+05,1545,335
Raw,91452.934,1547,335
Raw,1.21038324e+05,1548,335
Raw,1.4252811e+05,1551,335
Raw,1.05620248e+05,1552,335
Raw,2.0911215e+05,1553,335
Raw,74591.399,1555,335
Raw,1.46666095e+05,1556,335
Raw,25164.304,1557,335
Raw,65055.828,1557,335
Raw,70681.301,1558,335
Raw,48992.298,1558,335
Raw,1.71586406e+05,1559,335
Raw,1.06838056e+05,1560,335
Raw,1.27992964e+05,1561,335
Raw,1.24355789e+05,1562,335
Raw,1.45355933e+05,1563,335
Raw,56149.528,1564,335
Raw,97147.861,1565,335
Raw,1.30678594e+05,1566,335
Raw,1.03416372e+05,1567,335
Raw,78610.696,1570,335
Raw,1.15306623e+05,1571,335
Raw,61864.032,1572,335
Raw,1.25332037e+05,1573,335
Raw,1.08954998e+05,1574,335
Raw,61783.619,1575,335
Raw,77898.078,1576,335
Raw,2.2415632e+05,1578,335
Raw,1.98855614e+05,1579,335
Raw,77409.681,1580,335
Raw,90113.66,1582,335
Raw,72258.076,1583,335
Raw,1.74328625e+05,1584,335
Raw,81636.931,1585,335
Raw,2.47352747e+05,1586,335
Raw,66594.976,1587,335
Raw,52354.526,1587,335
Raw,81166.68,1590,335
Raw,1.01227017e+05,1591,335
Raw,1.01921171e+05,1592,335
Raw,68277.037,1593,335
Raw,74480.948,1594,335
Raw,1.07710183e+05,1595,335
Raw,86957.291,1595,335
Raw,1.06712072e+05,1596,335
Raw,1.49740604e+05,1597,335
Raw,62319.581,1598,335
Raw,59160.725,1598,335
Raw,1.28709335e+05,1599,335
Raw,48171.172,1599,335
Raw,1.32430341e+05,1600,335
Raw,1.43833674e+05,1602,335
Raw,24845.804,1603,335
Raw,62222.649,1603,335
Raw,93883.194,1604,335
Raw,1.66289651e+05,1605,335
Raw,1.34555338e+05,1606,335
Raw,81614.731,1607,335
Raw,67697.777,1608,335
Raw,54281.881,1609,335
Raw,84252.844,1609,335
Raw,1.15642288e+05,1610,335
Raw,1.3837567e+05,1611,335
Raw,85363.066,1612,335
Raw,54173.073,1613,335
Raw,1.83802335e+05,1613,335
Raw,73649.906,1614,335
Raw,1.59706683e+05,1615,335
Raw,70387.381,1616,335
Raw,60598.321,1616,335
Raw,34419.563,1617,335
Raw,1.60455323e+05,1617,335
Raw,63970.329,1618,335
Raw,1.34449183e+05,1619,335
Raw,82427.075,1619,335
Raw,72010.507,1620,335
Raw,78231.236,1621,335
Raw,75267.476,1622,335
Raw,1.35042388e+05,1623,335
Raw,52948.255,1624,335
Raw,1.06429858e+05,1624,335
Raw,38379.785,1625,335
Raw,79757.004,1625,335
Raw,90842.71,1626,335
Raw,93248.499,1627,335
Raw,74928.854,1629,335
Raw,2.03008567e+05,1630,335
Raw,1.48684185e+05,1631,335
Raw,68196.653,1632,335
Raw,45075.646,1632,335
Raw,1.46164951e+05,1633,335
Raw,1.54159096e+05,1635,335
Raw,88186.645,1636,335
Raw,79689.809,1637,335
Raw,1.45488823e+05,1638,335
Raw,76470.308,1640,335
Raw,1.06236374e+05,1641,335
Raw,51057.119,1642,335
Raw,88504.423,1642,335
Raw,70463.568,1643,335
Raw,1.16760807e+05,1644,335
Raw,64781.021,1646,335
Raw,37754.598,1647,335
Raw,74119.497,1647,335
Raw,84015.798,1648,335
Raw,1.06553702e+05,1649,335
Raw,86337.972,1650,335
Raw,88358.411,1651,335
Raw,1.54102849e+05,1652,335
Raw,2.03396044e+05,1653,335
Raw,1.23332293e+05,1654,335
Raw,73032.13,1655,335
Raw,89399.322,1656,335
Raw,1.46484791e+05,1658,335
Raw,2.04822353e+05,1659,335
Raw,83419.458,1660,335
Raw,1.09634069e+05,1661,335
Raw,72712.087,1662,335
Raw,75816.632,1663,335
Raw,85508.659,1664,335
Raw,2.20211658e+05,1665,335
Raw,56004.655,1666,335
Raw,78229.28,1667,335
Raw,1.11101725e+05,1668,335
Raw,39792.935,1668,335
Raw,1.05855002e+05,1670,335
Raw,1.18108158e+05,1671,335
Raw,1.16854222e+05,1672,335
Raw,1.36314029e+05,1673,335
Raw,1.42170599e+05,1674,335
Raw,80295.586,1676,335
Raw,71343.43,1677,335
Raw,88562.466,1679,335
Raw,1.196924e+05,1680,335
Raw,1.31028001e+05,1681,335
Raw,1.33864901e+05,1682,335
Raw,1.33759352e+05,1683,335
Raw,1.48396114e+05,1684,335
Raw,1.036586e+05,1685,335
Raw,1.07016511e+05,1686,335
Raw,93841.308,1687,335
Raw,1.66380946e+05,1689,335
Raw,1.42182197e+05,1690,335
Raw,1.80479789e+05,1691,335
Raw,1.04914807e+05,1692,335
Raw,1.73242151e+05,1693,335
Raw,97631.482,1694,335
Raw,1.54041911e+05,1695,335
Raw,1.91026128e+05,1696,335
Raw,67382.985,1697,335
Raw,82253.889,1698,335
Raw,1.37812456e+05,1699,335
Raw,1.02621375e+05,1700,335
Raw,95295.52,1701,335
Raw,81432.328,1702,335
Raw,2.08584344e+05,1703,335
Raw,65833.361,1704,335
Raw,1.15251667e+05,1705,335
Raw,2.27095442e+05,1706,335
Raw,1.97829008e+05,1707,335
Raw,85821.238,1708,335
Raw,53087.107,1708,335
Raw,59215.494,1709,335
Raw,87249.666,1710,335
Raw,1.66860316e+05,1711,335
Raw,2.41198649e+05,1712,335
Raw,97073.893,1713,335
Raw,1.64921786e+05,1714,335
Raw,51519.86,1715,335
Raw,1.42142865e+05,1716,335
Raw,2.43765926e+05,1717,335
Raw,2.17711951e+05,1718,335
Raw,1.63427851e+05,1719,335
Raw,80349.202,1720,335
Raw,1.61318012e+05,1721,335
Raw,82205.125,1722,335
Raw,1.22988859e+05,1724,335
Raw,87267.014,1725,335
Raw,77924.435,1726,335
Raw,1.63059598e+05,1727,335
Raw,75327.415,1728,335
Raw,16902.411,1729,335
Raw,33645.998,1730,335
Raw,80993.631,1730,335
Raw,1.40894466e+05,1731,335
Raw,72917.513,1732,335
Raw,97728.175,1733,335
Raw,1.01592148e+05,1734,335
Raw,88992.287,1735,335
Raw,64417.119,1736,335
Raw,1.52439685e+05,1737,335
Raw,1.77424148e+05,1738,335
Raw,91840.925,1739,335
Raw,1.08270446e+05,1740,335
Raw,65263.311,1741,335
Raw,1.89845469e+05,1742,335
Raw,1.23711235e+05,1743,335
Raw,1.10597019e+05,1744,335
Raw,76188.867,1745,335
Raw,41560.838,1745,335
Raw,92742.591,1746,335
Raw,63313.414,1747,335
Raw,39840.259,1749,335
Raw,69207.972,1749,335
Raw,85210.081,1750,335
Raw,81292.518,1751,335
Raw,20316.923,1751,335
Raw,1.74771001e+05,1752,335
Raw,1.35495184e+05,1753,335
Raw,83873.934,1754,335
Raw,62177.817,1755,335
Raw,1.09908938e+05,1756,335
Raw,79701.956,1757,335
Raw,65009.44,1758,335
Raw,97927.471,1759,335
Raw,1.84864111e+05,1760,335
Raw,69636.059,1761,335
Raw,2.02670627e+05,1762,335
Raw,71933.237,1763,335
Raw,69389.964,1765,335
Raw,1.28163659e+05,1766,335
Raw,44457.428,1767,335
Raw,1.71058145e+05,1767,335
Raw,1.05670022e+05,1768,335
Raw,83102.932,1769,335
Raw,62488.676,1770,335
Raw,70666.285,1771,335
Raw,2.14808159e+05,1772,335
Raw,2.66878008e+05,1773,335
Raw,83246.487,1774,335
Raw,1.51589893e+05,1775,335
Raw,1.04946949e+05,1776,335
Raw,2.65084009e+05,1777,335
Raw,44574.043,1777,335
Raw,1.22676455e+05,1778,335
Raw,1.63120648e+05,1779,335
Raw,1.2541769e+05,1780,335
Raw,1.4914411e+05,1781,335
Raw,32177.686,1781,335
Raw,1.23461419e+05,1782,335
Raw,1.75000003e+05,1783,335
Raw,1.60750234e+05,1784,335
Raw,73507.942,1785,335
Raw,1.05627788e+05,1786,335
Raw,61182.784,1787,335
Raw,1.14514011e+05,1788,335
Raw,1.19471536e+05,1789,335
Raw,85875.848,1790,335
Raw,15778.593,1790,335
Raw,1.80017342e+05,1791,335
Raw,1.52849357e+05,1792,335
Raw,59002.523,1793,335
Raw,86257.936,1793,335
Raw,1.24949601e+05,1794,335
Raw,39949.602,1795,335
Raw,86091.741,1795,335
Raw,99534.165,1796,335
Raw,77740.603,1797,335
Raw,1.75445579e+05,1798,335
Raw,1.02824105e+05,1799,335
Raw,69183.61,1800,335
Raw,86706.333,1801,335
Raw,35449.83,1802,335
Raw,94976.623,1802,335
Raw,63701.815,1804,335
Raw,67568.971,1805,335
Raw,77490.751,1806,335
Raw,1.00397767e+05,1807,335
Raw,95585.202,1808,335
Raw,1.50468612e+05,1809,335
Raw,40641.016,1809,335
Raw,78503.484,1810,335
Raw,99282.291,1811,335
Raw,1.72416642e+05,1812,335
Raw,1.04654422e+05,1813,335
Raw,67350.095,1814,335
Raw,1.10131177e+05,1815,335
Raw,63097.188,1816,335
Raw,83451.122,1817,335
Raw,1.70669463e+05,1818,335
Raw,65367.85,1819,335
Raw,49204.28,1819,335
Raw,1.80218943e+05,1820,335
Raw,1.21987189e+05,1821,335
Raw,1.42511655e+05,1823,335
Raw,81873.373,1824,335
Raw,93658.055,1825,335
Raw,1.33080493e+05,1826,335
Raw,52864.572,1826,335
Raw,1.35450685e+05,1827,335
Raw,64349.005,1828,335
Raw,94630.003,1828,335
Raw,1.32647983e+05,1830,335
Raw,70875.348,1831,335
Raw,72021.565,1832,335
Raw,87448.887,1833,335
Raw,86343.504,1834,335
Raw,92107.005,1836,335
Raw,1.16494337e+05,1837,335
Raw,67479.145,1838,335
Raw,83382.306,1839,335
Raw,64741.874,1839,335
Raw,72295.07,1840,335
Raw,26445.432,1840,335
Raw,93158.108,1841,335
Raw,1.250652e+05,1842,335
Raw,2.13244327e+05,1844,335
Raw,1.2191126e+05,1845,335
Raw,1.76039105e+05,1846,335
Raw,90723.689,1847,335
Raw,66573.41,1848,335
Raw,1.88906116e+05,1849,335
Raw,92617.573,1850,335
Raw,83057.963,1851,335
Raw,91545.339,1852,335
Raw,1.58805452e+05,1853,335
Raw,79502.9,1854,335
Raw,83481.561,1855,335
Raw,1.11677796e+05,1856,335
Raw,85285.999,1857,335
Raw,69358.777,1859,335
Raw,83718.08,1860,335
Raw,88999.394,1861,335
Raw,1.99334282e+05,1862,335
Raw,41886.385,1862,335
Raw,1.22381456e+05,1863,335
Raw,2.05664074e+05,1864,335
Raw,1.08159934e+05,1865,335
Raw,1.3825486e+05,1866,335
Raw,1.30788776e+05,1867,335
Raw,83567.472,1868,335
Raw,1.50113291e+05,1869,335
Raw,1.30667501e+05,1870,335
Raw,83708.329,1871,335
Raw,54839.509,1871,335
Raw,87403.562,1872,335
Raw,38113.133,1872,335
Raw,1.60970217e+05,1873,335
Raw,51939.564,1873,335
Raw,89444.682,1874,335
Raw,69640.042,1875,335
Raw,1.0389573e+05,1876,335
Raw,85913.179,1877,335
Raw,60193.091,1878,335
Raw,1.1040045e+05,1879,335
Raw,1.25493634e+05,1880,335
Raw,81154.157,1881,335
Raw,28030.722,1881,335
Raw,1.14677472e+05,1882,335
Raw,74065.382,1883,335
Raw,1.6616017e+05,1884,335
Raw,2.46307878e+05,1885,335
Raw,85594.635,1886,335
Raw,1.68264981e+05,1887,335
Raw,1.02320783e+05,1888,335
Raw,98492.198,1890,335
Raw,81941.021,1891,335
Raw,50427.942,1892,335
Raw,77842.439,1892,335
Raw,1.15290688e+05,1893,335
Raw,1.2983051e+05,1894,335
Raw,75226.991,1895,335
Raw,98075.133,1897,335
Raw,1.72532421e+05,1898,335
Raw,63912.613,1899,335
Raw,1.89684138e+05,1900,335
Raw,1.72376883e+05,1901,335
Raw,1.39137726e+05,1902,335
Raw,72699.991,1903,335
Raw,2.05359831e+05,1904,335
Raw,2.2999573e+05,1905,335
Raw,73454.321,1906,335
Raw,69103.17,1907,335
Raw,56911.553,1907,335
Raw,1.91005515e+05,1908,335
Raw,63330.487,1908,335
Raw,74987.947,1910,335
Raw,1.01580882e+05,1911,335
Raw,84987.946,1912,335
Raw,68755.522,1913,335
Raw,2.19505248e+05,1914,335
Raw,13540.982,1914,335
Raw,72299.98,1915,335
Raw,86410.393,1916,335
Raw,95911.357,1917,335
Raw,77279.288,1918,335
Raw,67711.6,1919,335
Raw,95752.198,1920,335
Raw,1.55554668e+05,1922,335
Raw,1.69180864e+05,1923,335
Raw,92818.663,1924,335
Raw,1.0696695e+05,1925,335
Raw,1.27482359e+05,1926,335
Raw,1.40716641e+05,1927,335
Raw,1.2392657e+05,1928,335
Raw,81245.553,1929,335
Raw,23103.933,1929,335
Raw,56024.559,1930,335
Raw,62484.519,1930,335
Raw,1.01521513e+05,1931,335
Raw,89040.836,1932,335
Raw,1.57890535e+05,1933,335
Raw,54771.379,1933,335
Raw,68932.982,1934,335
Raw,77550.068,1936,335
Raw,1.09064707e+05,1937,335
Raw,98958.939,1937,335
Raw,83241.87,1938,335
Raw,71631.335,1939,335
Raw,1.78035185e+05,1940,335
Raw,73242.952,1941,335
Raw,75967.056,1942,335
Raw,72825.844,1943,335
Raw,80217.426,1944,335
Raw,71360.33,1945,335
Raw,98557.569,1946,335
Raw,80999.983,1947,335
Raw,1.05093705e+05,1948,335
Raw,59429.979,1949,335
Raw,1.12167175e+05,1950,335
Raw,83551.716,1951,335
Raw,52904.2,1952,335
Raw,1.42281876e+05,1953,335
Raw,82455.864,1954,335
Raw,77036.218,1955,335
Raw,1.91358865e+05,1956,335
Raw,68893.903,1957,335
Raw,1.93558079e+05,1958,335
Raw,66858.498,1960,335
Raw,1.05990048e+05,1961,335
Raw,1.20570348e+05,1962,335
Raw,1.61059904e+05,1963,335
Raw,1.55327452e+05,1964,335
Raw,95282.594,1965,335
Raw,78035.967,1966,335
Raw,92786.677,1967,335
Raw,94483.086,1968,335
Raw,91261.437,1970,335
Raw,40587.229,1970,335
Raw,72704.248,1971,335
Raw,96941.599,1972,335
Raw,1.31619786e+05,1973,335
Raw,63317.496,1974,335
Raw,93683.671,1975,335
Raw,1.8750844e+05,1977,335
Raw,38817.064,1977,335
Raw,31927.788,1978,335
Raw,69259.831,1978,335
Raw,34287.812,1979,335
Raw,92255.513,1979,335
Raw,1.06340385e+05,1980,335
Raw,59055.923,1981,335
Raw,57044.654,1981,335
Raw,1.81913305e+05,1983,335
Raw,76775.783,1984,335
Raw,59691.797,1984,335
Raw,68444.404,1985,335
Raw,1.02918688e+05,1986,335
Raw,79842.697,1987,335
Raw,1.06786351e+05,1988,335
Raw,54503.243,1988,335
Raw,1.83569972e+05,1989,335
Raw,71790.87,1990,335
Raw,67480.325,1992,335
Raw,1.19573338e+05,1993,335
Raw,79948.292,1994,335
Raw,94957.085,1995,335
Raw,83253.445,1997,335
Raw,86332.1,1998,335
Raw,26869.383,1999,335
Raw,87938.893,1999,335
Raw,1.31976121e+05,2000,335
Raw,81072.026,2001,335
Raw,1.21889206e+05,2002,335
Raw,1.41495756e+05,2003,335
Raw,1.4294189e+05,2004,335
Raw,98008.446,2005,335
Raw,44879.213,2006,335
Raw,86845.01,2006,335
Raw,1.48404866e+05,2007,335
Raw,70457.967,2007,335
Raw,85622.954,2008,335
Raw,1.3655109e+05,2009,335
Raw,1.01382536e+05,2010,335
Raw,1.31114884e+05,2011,335
Raw,1.01467811e+05,2011,335
Raw,75389.992,2012,335
Raw,97593.447,2014,335
Raw,1.08185646e+05,2015,335
Raw,74096.063,2016,335
Raw,58279.75,2016,335
Raw,35823.02,2017,335
Raw,76219.53,2017,335
Raw,94555.172,2018,335
Raw,26866.441,2019,335
Raw,75352.992,2019,335
Raw,61997.835,2019,335
Raw,1.14539984e+05,2020,335
Raw,38345.174,2021,335
Raw,52764.355,2021,335
Raw,93944.925,2022,335
Raw,1.39983478e+05,2023,335
Raw,1.81294673e+05,2024,335
Raw,2.53044152e+05,2025,335
Raw,1.12178942e+05,2026,335
Raw,1.96615349e+05,2027,335
Raw,72243.293,2028,335
Raw,59666.629,2030,335
Raw,34137.862,2030,335
Raw,69340.867,2031,335
Raw,78744.396,2031,335
Raw,82233.882,2032,335
Raw,34087.988,2033,335
Raw,78732.87,2033,335
Raw,1.15209789e+05,2034,335
Raw,84069.088,2035,335
Raw,85985.852,2036,335
Raw,1.46981451e+05,2037,335
Raw,75463.59,2038,335
Raw,58048.069,2039,335
Raw,55456.602,2039,335
Raw,73125.212,2040,335
Raw,73748.3,2042,335
Raw,1.82772399e+05,2043,335
Raw,1.93358809e+05,2044,335
Raw,2.1373479e+05,2045,335
Raw,59312.63,2046,335
Raw,1.02990934e+05,2047,335
Raw,75598.053,2048,335
Raw,1.89004314e+05,2049,335
Raw,83521.811,2050,335
Raw,2.32291391e+05,2051,335
Raw,1.12204626e+05,2052,335
Raw,53036.037,2052,335
Raw,77837.615,2053,335
Raw,1.00683426e+05,2054,335
Raw,1.4004285e+05,2055,335
Raw,45537.023,2056,335
Raw,67901.937,2056,335
Raw,86936.843,2057,335
Raw,64721.636,2058,335
Raw,42652.491,2058,335
Raw,76953.99,2059,335
Raw,1.33402529e+05,2060,335
Raw,1.23022353e+05,2061,335
Raw,31056.035,2062,335
Raw,79296.475,2062,335
Raw,1.67456553e+05,2063,335
Raw,1.4816154e+05,2064,335
Raw,95949.051,2065,335
Raw,1.18133641e+05,2066,335
Raw,1.41751789e+05,2067,335
Raw,1.34933087e+05,2068,335
Raw,49022.401,2068,335
Raw,1.31303514e+05,2069,335
Raw,1.16256883e+05,2070,335
Raw,1.4278335e+05,2071,335
Raw,1.44606204e+05,2072,335
Raw,68322.837,2073,335
Raw,2.54353617e+05,2075,335
Raw,72226.879,2076,335
Raw,82217.394,2077,335
Raw,1.18608749e+05,2078,335
Raw,1.62624168e+05,2079,335
Raw,71903.784,2080,335
Raw,2.43587389e+05,2081,335
Raw,23914.866,2082,335
Raw,82098.186,2082,335
Raw,57971.866,2083,335
Raw,88011.356,2084,335
Raw,1.2962419e+05,2085,335
Raw,1.96090694e+05,2086,335
Raw,26476.1,2087,335
Raw,1.07339658e+05,2087,335
Raw,65045.444,2088,335
Raw,1.18598669e+05,2089,335
Raw,1.37256506e+05,2090,335
Raw,79123.22,2092,335
Raw,1.50120442e+05,2093,335
Raw,1.74534723e+05,2094,335
Raw,1.04957464e+05,2095,335
Raw,72385.143,2097,335
Raw,1.03657392e+05,2098,335
Raw,1.25895178e+05,2099,335
Raw,70740.46,2100,335
Raw,92891.395,2101,335
Raw,1.21337289e+05,2102,335
Raw,1.42026162e+05,2103,335
Raw,74277.115,2103,335
Raw,1.18416588e+05,2104,335
Raw,1.63664728e+05,2105,335
Raw,1.52929989e+05,2106,335
Raw,93326.634,2107,335
Raw,91064.964,2108,335
Raw,1.62337099e+05,2109,335
Raw,39516.172,2109,335
Raw,2.28676802e+05,2110,335
Raw,73942.103,2111,335
Raw,52364.428,2112,335
Raw,98155.789,2112,335
Raw,82279.877,2113,335
Raw,1.53437223e+05,2114,335
Raw,74087.882,2115,335
Raw,1.08477366e+05,2116,335
Raw,74128.789,2118,335
Raw,1.350548e+05,2119,335
Raw,1.48607529e+05,2120,335
Raw,74773.625,2121,335
Raw,1.63223222e+05,2122,335
Raw,23007.89,2122,335
Raw,1.11447784e+05,2122,335
Raw,1.85477664e+05,2123,335
Raw,1.15826092e+05,2125,335
Raw,80632.596,2126,335
Raw,80415.953,2127,335
Raw,1.77377672e+05,2128,335
Raw,1.15621914e+05,2128,335
Raw,54117.795,2129,335
Raw,1.03894836e+05,2129,335
Raw,89516.871,2130,335
Raw,74726.536,2131,335
Raw,66106.823,2132,335
Raw,83701.474,2133,335
Raw,69565.832,2134,335
Raw,1.86494589e+05,2135,335
Raw,94917.288,2136,335
Raw,1.39182539e+05,2137,335
Raw,1.23780003e+05,2138,335
Raw,86791.704,2139,335
Raw,1.42364539e+05,2142,335
Raw,96848.65,2143,335
Raw,1.80908336e+05,2143,335
Raw,73061.705,2144,335
Raw,1.19137274e+05,2145,335
Raw,72518.587,2146,335
Raw,2.06466714e+05,2147,335
Raw,92855.914,2148,335
Raw,1.34484648e+05,2150,335
Raw,1.16993754e+05,2151,335
Raw,1.00475276e+05,2152,335
Raw,1.12769345e+05,2153,335
Raw,66477.034,2154,335
Raw,1.88819277e+05,2155,335
Raw,1.207112e+05,2156,335
Raw,1.18536673e+05,2157,335
Raw,1.07223052e+05,2157,335
Raw,1.18155601e+05,2158,335
Raw,1.18243288e+05,2159,335
Raw,1.01634164e+05,2159,335
Raw,54231.536,2160,335
Raw,1.36407876e+05,2160,335
Raw,80615.01,2161,335
Raw,1.69047001e+05,2162,335
Raw,72958.915,2163,335
Raw,97954.482,2164,335
Raw,92990.623,2165,335
Raw,1.23168589e+05,2166,335
Raw,1.13219505e+05,2167,335
Raw,1.55944644e+05,2168,335
Raw,38989.22,2169,335
Raw,60396.556,2170,335
Raw,1.42656803e+05,2171,335
Raw,1.21896986e+05,2172,335
Raw,80287.443,2173,335
Raw,1.26816647e+05,2174,335
Raw,42485.896,2174,335
Raw,1.69723358e+05,2176,335
Raw,46636.065,2177,335
Raw,1.33870795e+05,2177,335
Raw,29252.805,2178,335
Raw,1.59008447e+05,2178,335
Raw,1.62650825e+05,2180,335
Raw,75228.522,2180,335
Raw,75065.575,2181,335
Raw,1.10602101e+05,2182,335
Raw,1.56549177e+05,2183,335
Raw,1.46476789e+05,2184,335
Raw,83130.894,2185,335
Raw,1.02193191e+05,2185,335
Raw,80096.482,2186,335
Raw,2.14940227e+05,2187,335
Raw,1.18338475e+05,2188,335
Raw,1.51280358e+05,2189,335
Raw,6433.3867,2189,335
Raw,63504.949,2190,335
Raw,63567.674,2191,335
Raw,71710.064,2193,335
Raw,2.04825493e+05,2194,335
Raw,44924.693,2194,335
Raw,1.48449198e+05,2195,335
Raw,1.0086762e+05,2196,335
Raw,1.11059548e+05,2197,335
Raw,87968.797,2198,335
Raw,1.41071435e+05,2199,335
Raw,58797.799,2200,335
Raw,82292.199,2200,335
Raw,1.09570621e+05,2201,335
Raw,1.54286898e+05,2203,335
Raw,89561.719,2204,335
Raw,84353.171,2205,335
Raw,1.93212067e+05,2206,335
Raw,80993.438,2207,335
Raw,90038.799,2208,335
Raw,59498.982,2209,335
Raw,76059.24,2211,335
Raw,63833.059,2212,335
Raw,55213.353,2213,335
Raw,85976.405,2213,335
Raw,1.36764788e+05,2214,335
Raw,1.14892201e+05,2215,335
Raw,91055.755,2215,335
Raw,1.68033905e+05,2217,335
Raw,1.36424654e+05,2218,335
Raw,1.03743264e+05,2219,335
Raw,84588.287,2221,335
Raw,1.76661979e+05,2222,335
Raw,93824.715,2223,335
Raw,91386.2,2224,335
Raw,1.50293445e+05,2225,335
Raw,1.40195707e+05,2226,335
Raw,91412.655,2227,335
Raw,1.09581624e+05,2228,335
Raw,76884.186,2229,335
Raw,97108.454,2230,335
Raw,73218.095,2230,335
Raw,93964.3,2232,335
Raw,88285.471,2233,335
Raw,99674.614,2234,335
Raw,1.08853861e+05,2235,335
Raw,65826.32,2236,335
Raw,56279.623,2236,335
Raw,1.34962993e+05,2237,335
Raw,91527.337,2238,335
Raw,84993.543,2239,335
Raw,1.22269053e+05,2240,335
Raw,81408.976,2241,335
Raw,53183.725,2241,335
Raw,80254.715,2242,335
Raw,18386.628,2242,335
Raw,1.04449183e+05,2243,335
Raw,1.10524187e+05,2244,335
Raw,63767.919,2245,335
Raw,72265.173,2245,335
Raw,1.77862667e+05,2246,335
Raw,1.07220512e+05,2247,335
Raw,1.31031667e+05,2248,335
Raw,60918.284,2250,335
Raw,1.10478125e+05,2251,335
Raw,77994.817,2252,335
Raw,1.12598462e+05,2253,335
Raw,66202.394,2254,335
Raw,79101.349,2255,335
Raw,88715.983,2256,335
Raw,36206.269,2257,335
Raw,1.20011932e+05,2257,335
Raw,73554.77,2258,335
Raw,1.07086494e+05,2259,335
Raw,67522.441,2260,335
Raw,83282.165,2261,335
Raw,87203.721,2262,335
Raw,1.44866448e+05,2263,335
Raw,66656.931,2264,335
Raw,1.33839107e+05,2265,335
Raw,99804.43,2266,335
Raw,92661.755,2267,335
Raw,1.10186886e+05,2268,335
Raw,68935.163,2269,335
Raw,1.16062409e+05,2270,335
Raw,81023.884,2271,335
Raw,2.49257672e+05,2272,335
Raw,1.37877487e+05,2273,335
Raw,1.25257318e+05,2274,335
Raw,82641.064,2275,335
Raw,83409.158,2277,335
Raw,83714.839,2278,335
Raw,85396.502,2279,335
Raw,76542.991,2280,335
Raw,1.12500979e+05,2281,335
Raw,70868.991,2282,335
Raw,68714.615,2283,335
Raw,97383.668,2284,335
Raw,1.24058867e+05,2285,335
Raw,2.51910373e+05,2286,335
Raw,89872.001,2287,335
Raw,86614.438,2288,335
Raw,1.17707982e+05,2289,335
Raw,1.23090363e+05,2290,335
Raw,1.5114666e+05,2291,335
Raw,1.08476714e+05,2292,335
Raw,1.51863086e+05,2293,335
Raw,1.14161518e+05,2294,335
Raw,1.45790238e+05,2295,335
Raw,63207.316,2296,335
Raw,45619.955,2296,335
Raw,97269.678,2297,335
Raw,74994.003,2298,335
Raw,1.0340689e+05,2299,335
Raw,1.02138962e+05,2300,335
Raw,1.14185751e+05,2301,335
Raw,1.16783412e+05,2302,335
Raw,89094.963,2303,335
Raw,76756.877,2304,335
Raw,1.11509987e+05,2305,335
