Cut?,Counts,eventNumber,runNumber
Raw,61,37,336
Raw,25,75,336
Raw,65,79,336
Raw,33,79,336
Raw,62,97,336
Raw,84,97,336
Raw,23,99,336
Raw,78,100,336
Raw,89,100,336
Raw,23,101,336
Raw,10,104,336
Raw,24,105,336
Raw,23,105,336
Raw,37,107,336
Raw,4,107,336
Raw,52,109,336
Raw,25,110,336
Raw,25,111,336
Raw,9,111,336
Raw,65,112,336
Raw,89,113,336
Raw,12,113,336
Raw,63,114,336
Raw,78,116,336
Raw,27,121,336
Raw,94,122,336
Raw,62,127,336
Raw,55,128,336
Raw,23,130,336
Raw,81,132,336
Raw,51,133,336
Raw,38,133,336
Raw,60,134,336
Raw,57,135,336
Raw,9,136,336
Raw,78,138,336
Raw,37,139,336
Raw,58,140,336
Raw,15,140,336
Raw,65,141,336
Raw,16,141,336
Raw,55,142,336
Raw,32,142,336
Raw,34,145,336
Raw,22,145,336
Raw,63,146,336
Raw,36,158,336
Raw,24,161,336
Raw,30,161,336
Raw,37,164,336
Raw,62,165,336
Raw,48,166,336
Raw,14,172,336
Raw,54,174,336
Raw,28,175,336
Raw,8,176,336
Raw,57,177,336
Raw,71,183,336
Raw,7,187,336
Raw,74,188,336
Raw,75,189,336
Raw,13,189,336
Raw,91,192,336
Raw,26,199,336
Raw,53,202,336
Raw,42,204,336
Raw,64,208,336
Raw,31,209,336
Raw,38,209,336
Raw,93,210,336
Raw,15,220,336
Raw,33,221,336
Raw,36,223,336
Raw,30,225,336
Raw,24,225,336
Raw,31,228,336
Raw,38,232,336
Raw,46,232,336
Raw,52,248,336
Raw,36,262,336
Raw,21,272,336
Raw,50,275,336
Raw,36,279,336
Raw,52,284,336
Raw,62,285,336
Raw,51,289,336
Raw,76,290,336
Raw,55,291,336
Raw,39,293,336
Raw,88,295,336
Raw,36,298,336
Raw,16,300,336
Raw,12,306,336
Raw,32,308,336
Raw,26,314,336
Raw,33,321,336
Raw,15,322,336
Raw,36,325,336
Raw,19,326,336
Raw,78,332,336
Raw,29,333,336
Raw,40,337,336
Raw,21,339,336
Raw,63,341,336
Raw,34,343,336
Raw,31,344,336
Raw,16,344,336
Raw,46,352,336
Raw,12,355,336
Raw,66,356,336
Raw,31,362,336
Raw,37,363,336
Raw,23,364,336
Raw,9,364,336
Raw,15,366,336
Raw,14,368,336
Raw,61,370,336
Raw,32,377,336
Raw,88,385,336
Raw,92,386,336
Raw,43,387,336
Raw,15,389,336
Raw,8,391,336
Raw,18,392,336
Raw,26,397,336
Raw,24,398,336
Raw,14,400,336
Raw,14,406,336
Raw,39,409,336
Raw,64,413,336
Raw,65,422,336
Raw,41,424,336
Raw,48,427,336
Raw,33,434,336
Raw,44,440,336
Raw,29,442,336
Raw,46,444,336
Raw,33,445,336
Raw,14,446,336
Raw,61,449,336
Raw,21,451,336
Raw,60,451,336
Raw,20,458,336
Raw,14,458,336
Raw,57,465,336
Raw,32,467,336
Raw,71,472,336
Raw,30,478,336
Raw,16,482,336
Raw,26,484,336
Raw,41,487,336
Raw,15,489,336
Raw,30,489,336
Raw,9,490,336
Raw,61,490,336
Raw,62,491,336
Raw,51,494,336
Raw,70,494,336
Raw,45,497,336
Raw,46,507,336
Raw,26,509,336
Raw,13,509,336
Raw,28,512,336
Raw,27,513,336
Raw,51,515,336
Raw,40,521,336
Raw,46,522,336
Raw,21,523,336
Raw,35,526,336
Raw,38,529,336
Raw,70,531,336
Raw,15,532,336
Raw,47,538,336
Raw,33,539,336
Raw,20,540,336
Raw,24,553,336
Raw,41,553,336
Raw,57,554,336
Raw,55,558,336
Raw,13,562,336
Raw,79,566,336
Raw,53,569,336
Raw,32,571,336
Raw,70,573,336
Raw,14,578,336
Raw,8,579,336
Raw,22,583,336
Raw,32,587,336
Raw,21,587,336
Raw,24,588,336
Raw,53,589,336
Raw,35,589,336
Raw,23,591,336
Raw,29,593,336
Raw,53,597,336
Raw,40,597,336
Raw,39,600,336
Raw,32,601,336
Raw,33,602,336
Raw,41,603,336
Raw,32,604,336
Raw,7,605,336
Raw,20,606,336
Raw,53,614,336
Raw,75,618,336
Raw,23,619,336
Raw,11,619,336
Raw,33,626,336
Raw,47,627,336
Raw,45,628,336
Raw,71,633,336
Raw,23,635,336
Raw,23,635,336
Raw,21,639,336
Raw,48,640,336
Raw,96,642,336
Raw,73,643,336
Raw,71,647,336
Raw,8,647,336
Raw,30,648,336
Raw,20,648,336
Raw,30,650,336
Raw,15,654,336
Raw,93,656,336
Raw,28,657,336
Raw,34,659,336
Raw,29,662,336
Raw,42,664,336
Raw,70,668,336
Raw,37,670,336
Raw,18,671,336
Raw,28,671,336
Raw,27,671,336
Raw,15,676,336
Raw,22,676,336
Raw,7,680,336
Raw,20,681,336
Raw,14,683,336
Raw,36,685,336
Raw,41,688,336
Raw,26,689,336
Raw,18,692,336
Raw,60,694,336
Raw,14,697,336
Raw,82,702,336
Raw,34,704,336
Raw,77,710,336
Raw,28,711,336
Raw,46,713,336
Raw,26,713,336
Raw,20,714,336
Raw,28,715,336
Raw,39,716,336
Raw,29,717,336
Raw,31,718,336
Raw,32,719,336
Raw,32,719,336
Raw,22,731,336
Raw,68,734,336
Raw,26,734,336
Raw,76,736,336
Raw,29,736,336
Raw,86,744,336
Raw,30,751,336
Raw,15,753,336
Raw,13,754,336
Raw,58,755,336
Raw,37,755,336
Raw,40,758,336
Raw,24,761,336
Raw,34,761,336
Raw,70,763,336
Raw,33,767,336
Raw,58,768,336
Raw,14,775,336
Raw,34,776,336
Raw,25,778,336
Raw,30,781,336
Raw,25,781,336
Raw,35,784,336
Raw,23,785,336
Raw,37,790,336
Raw,38,792,336
Raw,21,793,336
Raw,15,794,336
Raw,20,794,336
Raw,43,796,336
Raw,26,796,336
Raw,13,804,336
Raw,22,805,336
Raw,53,808,336
Raw,30,812,336
Raw,79,813,336
Raw,20,814,336
Raw,28,816,336
Raw,19,818,336
Raw,20,819,336
Raw,67,820,336
Raw,24,820,336
Raw,39,822,336
Raw,63,823,336
Raw,39,824,336
Raw,39,829,336
Raw,28,829,336
Raw,33,833,336
Raw,29,835,336
Raw,10,839,336
Raw,65,840,336
Raw,22,842,336
Raw,47,843,336
Raw,26,846,336
Raw,11,850,336
Raw,33,854,336
Raw,6,861,336
Raw,68,862,336
Raw,46,864,336
Raw,22,865,336
Raw,9,865,336
Raw,15,866,336
Raw,58,867,336
Raw,33,868,336
Raw,28,869,336
Raw,32,869,336
Raw,55,875,336
Raw,15,875,336
Raw,32,877,336
Raw,55,878,336
Raw,19,881,336
Raw,37,888,336
Raw,14,889,336
Raw,25,898,336
Raw,47,904,336
Raw,70,906,336
Raw,25,907,336
Raw,31,913,336
Raw,32,915,336
Raw,22,916,336
Raw,20,918,336
Raw,19,921,336
Raw,18,925,336
Raw,18,926,336
Raw,15,930,336
Raw,37,931,336
Raw,61,932,336
Raw,47,932,336
Raw,59,933,336
Raw,36,936,336
Raw,35,936,336
Raw,64,939,336
Raw,17,942,336
Raw,58,950,336
Raw,33,953,336
Raw,47,956,336
Raw,75,962,336
Raw,22,963,336
Raw,17,965,336
Raw,82,966,336
Raw,20,972,336
Raw,32,974,336
Raw,46,976,336
Raw,73,986,336
Raw,16,987,336
Raw,70,988,336
Raw,40,993,336
Raw,40,995,336
Raw,47,998,336
Raw,17,1007,336
Raw,34,1008,336
Raw,67,1013,336
Raw,54,1017,336
Raw,14,1018,336
Raw,28,1018,336
Raw,39,1022,336
Raw,50,1025,336
Raw,32,1026,336
Raw,99,1029,336
Raw,31,1031,336
Raw,15,1032,336
Raw,31,1032,336
Raw,19,1041,336
Raw,8,1042,336
Raw,56,1047,336
Raw,19,1047,336
Raw,27,1049,336
Raw,31,1055,336
Raw,69,1061,336
Raw,16,1062,336
Raw,55,1063,336
Raw,32,1064,336
Raw,25,1070,336
Raw,32,1071,336
Raw,31,1073,336
Raw,16,1078,336
Raw,36,1078,336
Raw,46,1079,336
Raw,31,1080,336
Raw,15,1080,336
Raw,31,1081,336
Raw,26,1082,336
Raw,32,1083,336
Raw,30,1084,336
Raw,22,1084,336
Raw,40,1088,336
Raw,23,1090,336
Raw,79,1092,336
Raw,29,1097,336
Raw,40,1100,336
Raw,39,1105,336
Raw,35,1113,336
Raw,24,1115,336
Raw,25,1115,336
Raw,22,1121,336
Raw,29,1127,336
Raw,20,1127,336
Raw,37,1131,336
Raw,62,1134,336
Raw,53,1135,336
Raw,59,1137,336
Raw,29,1139,336
Raw,39,1142,336
Raw,27,1142,336
Raw,17,1152,336
Raw,21,1153,336
Raw,63,1157,336
Raw,12,1163,336
Raw,23,1164,336
Raw,51,1165,336
Raw,56,1166,336
Raw,27,1168,336
Raw,20,1173,336
Raw,70,1176,336
Raw,11,1176,336
Raw,61,1177,336
Raw,20,1178,336
Raw,32,1180,336
Raw,26,1186,336
Raw,32,1187,336
Raw,91,1189,336
Raw,84,1193,336
Raw,27,1195,336
Raw,10,1196,336
Raw,14,1197,336
Raw,38,1197,336
Raw,17,1198,336
Raw,81,1200,336
Raw,92,1201,336
Raw,50,1202,336
Raw,26,1204,336
Raw,30,1205,336
Raw,61,1208,336
Raw,32,1208,336
Raw,52,1210,336
Raw,7,1214,336
Raw,40,1214,336
Raw,22,1216,336
Raw,66,1226,336
Raw,58,1231,336
Raw,9,1231,336
Raw,34,1233,336
Raw,71,1243,336
Raw,18,1244,336
Raw,26,1245,336
Raw,33,1251,336
Raw,18,1256,336
Raw,76,1257,336
Raw,14,1259,336
Raw,38,1260,336
Raw,37,1260,336
Raw,41,1265,336
Raw,15,1266,336
Raw,23,1267,336
Raw,51,1270,336
Raw,30,1270,336
Raw,31,1272,336
Raw,59,1275,336
Raw,64,1276,336
Raw,36,1277,336
Raw,38,1279,336
Raw,19,1279,336
Raw,35,1281,336
Raw,96,1286,336
Raw,16,1292,336
Raw,72,1294,336
Raw,33,1297,336
Raw,40,1298,336
Raw,24,1298,336
Raw,25,1300,336
Raw,48,1301,336
Raw,39,1305,336
Raw,41,1308,336
Raw,17,1312,336
Raw,20,1312,336
Raw,36,1313,336
Raw,29,1315,336
Raw,31,1321,336
Raw,88,1322,336
Raw,36,1324,336
Raw,56,1325,336
Raw,22,1325,336
Raw,28,1327,336
Raw,28,1327,336
Raw,58,1329,336
Raw,38,1332,336
Raw,56,1333,336
Raw,30,1334,336
Raw,18,1338,336
Raw,52,1339,336
Raw,17,1341,336
Raw,34,1341,336
Raw,56,1346,336
Raw,26,1351,336
Raw,28,1352,336
Raw,72,1352,336
Raw,24,1353,336
Raw,34,1354,336
Raw,25,1355,336
Raw,49,1372,336
Raw,7,1373,336
Raw,33,1375,336
Raw,65,1376,336
Raw,15,1380,336
Raw,34,1381,336
Raw,35,1384,336
Raw,37,1386,336
Raw,43,1387,336
Raw,22,1396,336
Raw,11,1398,336
Raw,15,1402,336
Raw,64,1404,336
Raw,22,1405,336
Raw,22,1406,336
Raw,17,1406,336
Raw,27,1408,336
Raw,37,1410,336
Raw,30,1411,336
Raw,39,1413,336
Raw,35,1418,336
Raw,36,1418,336
Raw,25,1419,336
Raw,21,1419,336
Raw,26,1421,336
Raw,59,1422,336
Raw,4,1423,336
Raw,34,1424,336
Raw,45,1426,336
Raw,65,1432,336
Raw,54,1434,336
Raw,41,1435,336
Raw,14,1438,336
Raw,20,1439,336
Raw,22,1442,336
Raw,90,1445,336
Raw,54,1448,336
Raw,22,1454,336
Raw,57,1456,336
Raw,86,1457,336
Raw,15,1459,336
Raw,50,1461,336
Raw,36,1464,336
Raw,45,1465,336
Raw,40,1467,336
Raw,31,1470,336
Raw,34,1473,336
Raw,23,1476,336
Raw,39,1482,336
Raw,53,1482,336
Raw,32,1484,336
Raw,38,1485,336
Raw,61,1486,336
Raw,49,1486,336
Raw,27,1489,336
Raw,18,1489,336
Raw,65,1491,336
Raw,21,1492,336
Raw,18,1493,336
Raw,17,1493,336
Raw,34,1494,336
Raw,30,1496,336
Raw,20,1497,336
Raw,82,1501,336
Raw,46,1502,336
Raw,37,1502,336
Raw,67,1505,336
Raw,27,1516,336
Raw,28,1516,336
Raw,25,1518,336
Raw,35,1520,336
Raw,24,1521,336
Raw,72,1524,336
Raw,20,1530,336
Raw,7,1530,336
Raw,20,1531,336
Raw,75,1536,336
Raw,42,1544,336
Raw,4,1544,336
Raw,27,1545,336
Raw,36,1551,336
Raw,19,1556,336
Raw,95,1557,336
Raw,23,1561,336
Raw,32,1566,336
Raw,98,1573,336
Raw,45,1575,336
Raw,77,1575,336
Raw,72,1576,336
Raw,78,1589,336
Raw,14,1590,336
Raw,72,1591,336
Raw,65,1592,336
Raw,23,1596,336
Raw,28,1599,336
Raw,21,1602,336
Raw,27,1605,336
Raw,36,1607,336
Raw,12,1608,336
Raw,34,1608,336
Raw,32,1609,336
Raw,16,1610,336
Raw,19,1612,336
Raw,32,1615,336
Raw,43,1616,336
Raw,23,1620,336
Raw,69,1622,336
Raw,27,1623,336
Raw,35,1625,336
Raw,27,1626,336
Raw,38,1629,336
Raw,23,1630,336
Raw,12,1630,336
Raw,43,1637,336
Raw,41,1638,336
Raw,94,1641,336
Raw,65,1643,336
Raw,26,1645,336
Raw,70,1647,336
Raw,78,1652,336
Raw,11,1659,336
Raw,23,1664,336
Raw,36,1664,336
Raw,13,1665,336
Raw,34,1668,336
Raw,52,1669,336
Raw,65,1670,336
Raw,47,1671,336
Raw,26,1672,336
Raw,41,1672,336
Raw,68,1673,336
Raw,69,1674,336
Raw,22,1679,336
Raw,48,1681,336
Raw,23,1682,336
Raw,12,1682,336
Raw,33,1688,336
Raw,73,1689,336
Raw,28,1692,336
Raw,14,1692,336
Raw,42,1693,336
Raw,31,1694,336
Raw,42,1699,336
Raw,61,1701,336
Raw,49,1707,336
Raw,18,1711,336
Raw,55,1711,336
Raw,44,1713,336
Raw,48,1714,336
Raw,60,1715,336
Raw,49,1716,336
Raw,24,1716,336
Raw,27,1719,336
Raw,27,1720,336
Raw,13,1722,336
Raw,31,1722,336
Raw,35,1729,336
Raw,19,1733,336
Raw,11,1740,336
Raw,12,1742,336
Raw,18,1744,336
Raw,19,1745,336
Raw,6,1746,336
Raw,69,1748,336
Raw,31,1748,336
Raw,33,1749,336
Raw,64,1757,336
Raw,27,1758,336
Raw,32,1759,336
Raw,31,1760,336
Raw,42,1761,336
Raw,47,1761,336
Raw,33,1764,336
Raw,68,1764,336
Raw,59,1767,336
Raw,43,1768,336
Raw,27,1770,336
Raw,18,1771,336
Raw,94,1772,336
Raw,27,1772,336
Raw,18,1774,336
Raw,21,1776,336
Raw,21,1779,336
Raw,71,1780,336
Raw,33,1781,336
Raw,40,1783,336
Raw,61,1787,336
Raw,29,1790,336
Raw,71,1792,336
Raw,26,1797,336
Raw,20,1798,336
Raw,25,1800,336
Raw,12,1803,336
Raw,17,1810,336
Raw,58,1814,336
Raw,35,1814,336
Raw,19,1817,336
Raw,31,1818,336
Raw,36,1818,336
Raw,58,1821,336
Raw,56,1822,336
Raw,22,1822,336
Raw,12,1824,336
Raw,31,1826,336
Raw,40,1829,336
Raw,47,1832,336
Raw,25,1837,336
Raw,22,1840,336
Raw,25,1840,336
Raw,32,1844,336
Raw,24,1846,336
Raw,76,1855,336
Raw,86,1856,336
Raw,18,1858,336
Raw,23,1859,336
Raw,26,1860,336
Raw,38,1866,336
Raw,29,1867,336
Raw,70,1869,336
Raw,35,1871,336
Raw,15,1875,336
Raw,28,1875,336
Raw,11,1882,336
Raw,77,1884,336
Raw,45,1885,336
Raw,85,1888,336
Raw,31,1890,336
Raw,32,1898,336
Raw,77,1899,336
Raw,47,1900,336
Raw,23,1903,336
Raw,35,1904,336
Raw,50,1904,336
Raw,69,1908,336
Raw,4,1909,336
Raw,60,1911,336
Raw,28,1911,336
Raw,61,1913,336
Raw,17,1915,336
Raw,95,1917,336
Raw,28,1925,336
Raw,34,1926,336
Raw,87,1926,336
Raw,31,1933,336
Raw,21,1933,336
Raw,31,1934,336
Raw,53,1941,336
Raw,39,1947,336
Raw,46,1949,336
Raw,40,1949,336
Raw,78,1950,336
Raw,37,1954,336
Raw,60,1954,336
Raw,22,1955,336
Raw,38,1956,336
Raw,47,1959,336
Raw,37,1960,336
Raw,20,1962,336
Raw,36,1964,336
Raw,66,1965,336
Raw,37,1966,336
Raw,20,1967,336
Raw,10,1969,336
Raw,35,1969,336
Raw,79,1973,336
Raw,43,1976,336
Raw,43,1980,336
Raw,21,1983,336
Raw,25,1983,336
Raw,69,1987,336
Raw,32,1987,336
Raw,35,1987,336
Raw,43,1989,336
Raw,40,1991,336
Raw,22,1995,336
Raw,57,1995,336
Raw,18,1998,336
Raw,25,1999,336
Raw,53,2004,336
Raw,33,2005,336
Raw,36,2006,336
Raw,40,2006,336
Raw,20,2007,336
Raw,7,2008,336
Raw,60,2008,336
Raw,15,2010,336
Raw,38,2014,336
Raw,41,2015,336
Raw,22,2015,336
Raw,27,2018,336
Raw,22,2021,336
Raw,36,2025,336
Raw,38,2027,336
Raw,86,2028,336
Raw,27,2031,336
Raw,11,2031,336
Raw,13,2034,336
Raw,32,2037,336
Raw,74,2038,336
Raw,3,2039,336
Raw,4,2044,336
Raw,51,2046,336
Raw,49,2046,336
Raw,80,2048,336
Raw,23,2051,336
Raw,18,2054,336
Raw,48,2056,336
Raw,31,2058,336
Raw,41,2060,336
Raw,32,2062,336
Raw,38,2065,336
Raw,43,2066,336
Raw,36,2066,336
Raw,74,2067,336
Raw,29,2069,336
Raw,28,2072,336
Raw,12,2079,336
Raw,67,2081,336
Raw,14,2082,336
Raw,20,2089,336
Raw,59,2091,336
Raw,48,2101,336
Raw,17,2103,336
Raw,42,2104,336
Raw,50,2115,336
Raw,51,2119,336
Raw,41,2122,336
Raw,30,2124,336
Raw,26,2125,336
Raw,21,2128,336
Raw,19,2129,336
Raw,55,2136,336
Raw,30,2137,336
Raw,35,2137,336
Raw,48,2142,336
Raw,25,2142,336
Raw,26,2144,336
Raw,31,2146,336
Raw,55,2147,336
Raw,36,2149,336
Raw,64,2151,336
Raw,90,2157,336
Raw,33,2158,336
Raw,25,2159,336
Raw,36,2159,336
Raw,11,2163,336
Raw,17,2163,336
Raw,42,2165,336
Raw,19,2166,336
Raw,37,2168,336
Raw,8,2174,336
Raw,88,2176,336
Raw,38,2177,336
Raw,12,2178,336
Raw,86,2182,336
Raw,70,2187,336
Raw,5,2188,336
Raw,40,2190,336
Raw,14,2190,336
Raw,59,2191,336
Raw,54,2193,336
Raw,49,2194,336
Raw,48,2199,336
Raw,45,2201,336
Raw,56,2202,336
Raw,27,2203,336
Raw,37,2204,336
Raw,19,2213,336
Raw,24,2213,336
Raw,27,2215,336
Raw,33,2218,336
Raw,43,2222,336
Raw,37,2223,336
Raw,21,2225,336
Raw,88,2226,336
Raw,36,2229,336
Raw,27,2231,336
Raw,30,2234,336
Raw,21,2236,336
Raw,67,2238,336
Raw,74,2239,336
Raw,29,2241,336
Raw,42,2241,336
Raw,24,2242,336
Raw,52,2244,336
Raw,12,2245,336
Raw,36,2246,336
Raw,23,2246,336
Raw,23,2248,336
Raw,61,2253,336
Raw,69,2254,336
Raw,35,2258,336
Raw,78,2259,336
Raw,60,2260,336
Raw,34,2261,336
Raw,22,2263,336
Raw,14,2266,336
Raw,31,2267,336
Raw,33,2267,336
Raw,25,2270,336
Raw,29,2274,336
Raw,64,2275,336
Raw,61,2276,336
Raw,18,2278,336
Raw,50,2280,336
Raw,17,2280,336
Raw,48,2281,336
Raw,21,2281,336
Raw,6,2284,336
Raw,42,2285,336
Raw,42,2286,336
Raw,97,2287,336
Raw,38,2292,336
Raw,31,2292,336
Raw,37,2293,336
Raw,50,2294,336
Raw,31,2298,336
Raw,56,2299,336
Raw,27,2301,336
Raw,66,2304,336
Raw,21,2311,336
Raw,21,2316,336
Raw,17,2316,336
Raw,43,2317,336
Raw,19,2323,336
Raw,35,2324,336
Raw,47,2326,336
Raw,15,2331,336
Raw,43,2333,336
Raw,33,2334,336
Raw,53,2339,336
Raw,22,2341,336
Raw,20,2341,336
Raw,32,2347,336
Raw,49,2349,336
Raw,60,2354,336
Raw,27,2354,336
Raw,67,2356,336
Raw,24,2361,336
Raw,45,2362,336
Raw,64,2363,336
Raw,16,2364,336
Raw,32,2367,336
Raw,19,2370,336
Raw,19,2371,336
Raw,37,2372,336
Raw,46,2376,336
Raw,38,2376,336
Raw,16,2377,336
Raw,54,2378,336
Raw,14,2380,336
Raw,28,2382,336
Raw,52,2384,336
Raw,30,2387,336
Raw,29,2389,336
Raw,20,2390,336
Raw,89,2391,336
Raw,59,2394,336
Raw,41,2397,336
Raw,13,2397,336
Raw,20,2401,336
Raw,31,2402,336
Raw,75,2403,336
Raw,37,2408,336
Raw,17,2412,336
Raw,71,2415,336
Raw,19,2415,336
Raw,20,2419,336
Raw,34,2419,336
Raw,41,2421,336
Raw,73,2421,336
Raw,35,2425,336
Raw,34,2430,336
Raw,86,2432,336
Raw,15,2433,336
Raw,13,2436,336
Raw,49,2438,336
Raw,28,2440,336
Raw,38,2441,336
Raw,16,2444,336
Raw,55,2445,336
Raw,39,2448,336
Raw,84,2450,336
Raw,18,2450,336
Raw,55,2454,336
Raw,74,2469,336
Raw,40,2470,336
Raw,24,2473,336
Raw,57,2473,336
Raw,35,2478,336
Raw,25,2479,336
Raw,24,2480,336
Raw,22,2482,336
Raw,43,2484,336
Raw,77,2484,336
Raw,56,2490,336
Raw,84,2493,336
Raw,73,2497,336
Raw,61,2500,336
Raw,16,2501,336
Raw,55,2501,336
Raw,42,2503,336
Raw,78,2504,336
Raw,28,2504,336
Raw,26,2506,336
Raw,44,2507,336
Raw,32,2509,336
Raw,16,2510,336
Raw,26,2511,336
Raw,33,2515,336
Raw,44,2517,336
Raw,51,2519,336
Raw,81,2520,336
Raw,29,2523,336
Raw,76,2524,336
Raw,34,2527,336
Raw,72,2528,336
Raw,31,2537,336
Raw,19,2538,336
Raw,63,2539,336
Raw,19,2542,336
Raw,19,2543,336
Raw,17,2552,336
Raw,92,2553,336
Raw,43,2554,336
Raw,60,2556,336
Raw,40,2561,336
Raw,73,2562,336
Raw,61,2563,336
Raw,15,2566,336
Raw,40,2568,336
Raw,19,2569,336
Raw,72,2572,336
Raw,10,2572,336
Raw,19,2581,336
Raw,29,2582,336
Raw,69,2589,336
Raw,12,2591,336
Raw,79,2592,336
Raw,35,2596,336
Raw,28,2606,336
Raw,46,2612,336
Raw,79,2613,336
Raw,35,2614,336
Raw,20,2614,336
Raw,21,2625,336
Raw,38,2629,336
Raw,12,2634,336
Raw,18,2636,336
Raw,17,2636,336
Raw,95,2637,336
Raw,44,2640,336
Raw,53,2641,336
Raw,17,2642,336
Raw,22,2646,336
Raw,37,2649,336
Raw,31,2649,336
Raw,36,2650,336
Raw,93,2652,336
Raw,60,2653,336
Raw,42,2655,336
Raw,12,2665,336
Raw,54,2668,336
Raw,26,2670,336
Raw,22,2673,336
Raw,8,2676,336
Raw,19,2677,336
Raw,43,2680,336
Raw,27,2681,336
Raw,45,2682,336
Raw,36,2687,336
Raw,33,2689,336
Raw,29,2692,336
Raw,25,2692,336
Raw,19,2697,336
Raw,43,2699,336
Raw,41,2706,336
Raw,58,2708,336
Raw,36,2708,336
Raw,27,2710,336
Raw,53,2710,336
Raw,46,2711,336
Raw,56,2714,336
Raw,37,2717,336
Raw,40,2719,336
Raw,37,2720,336
Raw,28,2721,336
Raw,42,2722,336
Raw,54,2722,336
Raw,11,2723,336
Raw,26,2732,336
Raw,35,2732,336
Raw,47,2733,336
Raw,29,2735,336
Raw,30,2736,336
Raw,18,2739,336
Raw,72,2740,336
Raw,37,2743,336
Raw,62,2745,336
Raw,11,2748,336
Raw,21,2749,336
Raw,19,2756,336
Raw,36,2765,336
Raw,68,2766,336
Raw,13,2768,336
Raw,19,2771,336
Raw,45,2772,336
Raw,31,2772,336
Raw,22,2773,336
Raw,51,2777,336
Raw,71,2779,336
Raw,43,2780,336
Raw,18,2787,336
Raw,15,2788,336
Raw,36,2788,336
Raw,74,2793,336
Raw,98,2794,336
Raw,42,2797,336
Raw,97,2803,336
Raw,27,2812,336
Raw,50,2813,336
Raw,93,2815,336
Raw,37,2818,336
Raw,39,2822,336
Raw,26,2823,336
Raw,39,2830,336
Raw,48,2831,336
Raw,23,2831,336
Raw,31,2832,336
Raw,64,2834,336
Raw,25,2835,336
Raw,57,2837,336
Raw,82,2838,336
Raw,9,2838,336
Raw,23,2840,336
Raw,64,2842,336
Raw,39,2843,336
Raw,34,2844,336
Raw,79,2849,336
Raw,27,2850,336
Raw,8,2850,336
Raw,91,2853,336
Raw,38,2856,336
Raw,26,2858,336
Raw,49,2859,336
Raw,32,2860,336
Raw,37,2861,336
Raw,57,2864,336
Raw,28,2867,336
Raw,30,2870,336
Raw,17,2873,336
Raw,37,2874,336
Raw,43,2875,336
Raw,85,2876,336
Raw,13,2883,336
Raw,32,2883,336
Raw,24,2885,336
Raw,53,2895,336
Raw,24,2898,336
Raw,42,2902,336
Raw,92,2903,336
Raw,16,2909,336
Raw,14,2909,336
Raw,10,2910,336
Raw,18,2911,336
Raw,15,2917,336
Raw,85,2918,336
Raw,76,2920,336
Raw,17,2922,336
Raw,20,2926,336
Raw,32,2928,336
Raw,49,2931,336
Raw,47,2931,336
Raw,92,2933,336
Raw,50,2938,336
Raw,52,2943,336
Raw,40,2947,336
Raw,26,2948,336
Raw,42,2949,336
Raw,27,2949,336
Raw,40,2952,336
Raw,33,2955,336
Raw,17,2959,336
Raw,34,2959,336
Raw,32,2962,336
Raw,50,2965,336
Raw,20,2966,336
Raw,12,2967,336
Raw,13,2968,336
Raw,24,2969,336
Raw,25,2971,336
Raw,45,2975,336
Raw,34,2977,336
Raw,53,2987,336
Raw,16,2989,336
Raw,73,2990,336
Raw,30,2991,336
Raw,67,2995,336
Raw,27,2996,336
Raw,15,2998,336
Raw,46,2998,336
Raw,81,3007,336
Raw,29,3008,336
Raw,48,3010,336
Raw,23,3012,336
Raw,30,3013,336
Raw,28,3014,336
Raw,38,3014,336
Raw,23,3015,336
Raw,83,3016,336
Raw,36,3017,336
Raw,11,3017,336
Raw,40,3023,336
Raw,13,3028,336
Raw,35,3028,336
Raw,15,3033,336
Raw,76,3034,336
Raw,48,3039,336
Raw,42,3040,336
Raw,34,3041,336
Raw,22,3043,336
Raw,45,3049,336
Raw,17,3052,336
Raw,67,3053,336
Raw,40,3059,336
Raw,98,3062,336
Raw,36,3067,336
Raw,17,3067,336
Raw,12,3072,336
Raw,36,3073,336
Raw,41,3079,336
Raw,22,3079,336
Raw,48,3086,336
Raw,43,3089,336
Raw,35,3096,336
Raw,12,3099,336
Raw,27,3101,336
Raw,20,3103,336
Raw,7,3106,336
Raw,10,3107,336
Raw,25,3113,336
Raw,20,3114,336
Raw,42,3116,336
Raw,23,3117,336
Raw,76,3118,336
Raw,29,3118,336
Raw,29,3119,336
Raw,39,3126,336
Raw,22,3127,336
Raw,50,3129,336
Raw,31,3132,336
Raw,14,3133,336
Raw,12,3137,336
Raw,24,3139,336
Raw,48,3141,336
Raw,10,3142,336
Raw,16,3142,336
Raw,56,3147,336
Raw,13,3152,336
Raw,13,3157,336
Raw,39,3159,336
Raw,35,3162,336
Raw,22,3166,336
Raw,16,3173,336
Raw,39,3178,336
Raw,40,3186,336
Raw,40,3190,336
Raw,71,3192,336
Raw,75,3194,336
Raw,49,3195,336
Raw,54,3195,336
Raw,28,3196,336
Raw,89,3197,336
Raw,22,3198,336
Raw,44,3199,336
Raw,28,3203,336
Raw,21,3203,336
Raw,28,3211,336
Raw,72,3212,336
Raw,22,3213,336
Raw,5,3214,336
Raw,40,3215,336
Raw,28,3219,336
Raw,62,3223,336
Raw,18,3229,336
Raw,55,3232,336
Raw,49,3234,336
Raw,22,3234,336
Raw,42,3235,336
Raw,34,3239,336
Raw,61,3240,336
Raw,10,3241,336
Raw,6,3242,336
Raw,64,3242,336
Raw,28,3246,336
Raw,31,3247,336
Raw,28,3248,336
Raw,34,3249,336
Raw,31,3250,336
Raw,21,3252,336
Raw,25,3252,336
Raw,53,3253,336
Raw,37,3254,336
Raw,39,3258,336
Raw,41,3260,336
Raw,54,3262,336
Raw,35,3266,336
Raw,34,3267,336
Raw,37,3267,336
Raw,78,3268,336
Raw,27,3270,336
Raw,40,3271,336
Raw,14,3273,336
Raw,65,3280,336
Raw,22,3286,336
Raw,15,3288,336
Raw,15,3291,336
Raw,30,3292,336
Raw,39,3294,336
Raw,36,3296,336
Raw,43,3296,336
Raw,42,3305,336
Raw,27,3305,336
Raw,29,3308,336
Raw,32,3311,336
Raw,8,3314,336
Raw,37,3314,336
Raw,28,3315,336
Raw,22,3317,336
Raw,73,3319,336
Raw,63,3319,336
Raw,7,3321,336
Raw,38,3322,336
Raw,34,3322,336
Raw,22,3322,336
Raw,8,3328,336
Raw,86,3331,336
Raw,80,3335,336
Raw,90,3339,336
Raw,35,3340,336
Raw,45,3342,336
Raw,51,3342,336
Raw,18,3343,336
Raw,17,3350,336
Raw,27,3351,336
Raw,57,3355,336
Raw,31,3356,336
Raw,60,3358,336
Raw,31,3364,336
Raw,8,3366,336
Raw,59,3369,336
Raw,74,3370,336
Raw,20,3370,336
Raw,46,3371,336
Raw,16,3373,336
Raw,26,3374,336
Raw,46,3379,336
Raw,20,3390,336
Raw,65,3394,336
Raw,29,3396,336
Raw,7,3396,336
Raw,38,3398,336
Raw,37,3399,336
Raw,37,3404,336
Raw,70,3407,336
Raw,37,3408,336
Raw,71,3411,336
Raw,40,3412,336
Raw,85,3414,336
Raw,34,3414,336
Raw,73,3415,336
Raw,81,3418,336
Raw,13,3422,336
Raw,44,3424,336
Raw,25,3430,336
Raw,10,3434,336
Raw,39,3436,336
Raw,25,3438,336
Raw,71,3440,336
Raw,18,3440,336
Raw,42,3442,336
Raw,23,3444,336
Raw,50,3446,336
Raw,48,3450,336
Raw,55,3452,336
Raw,54,3453,336
Raw,91,3458,336
Raw,42,3459,336
Raw,32,3460,336
Raw,54,3462,336
Raw,38,3462,336
Raw,22,3463,336
Raw,16,3465,336
Raw,39,3466,336
Raw,26,3467,336
Raw,27,3467,336
Raw,63,3469,336
Raw,11,3471,336
Raw,43,3474,336
Raw,82,3477,336
Raw,21,3478,336
Raw,41,3479,336
Raw,38,3479,336
Raw,19,3481,336
Raw,60,3483,336
Raw,36,3486,336
Raw,30,3495,336
Raw,28,3499,336
Raw,35,3500,336
Raw,6,3502,336
Raw,23,3507,336
Raw,82,3508,336
Raw,31,3509,336
Raw,79,3511,336
Raw,65,3512,336
Raw,51,3519,336
Raw,47,3522,336
Raw,29,3523,336
Raw,19,3525,336
Raw,44,3529,336
Raw,15,3529,336
Raw,52,3530,336
Raw,39,3531,336
Raw,62,3533,336
Raw,31,3537,336
Raw,27,3539,336
Raw,58,3541,336
Raw,37,3541,336
Raw,36,3547,336
Raw,97,3551,336
Raw,26,3556,336
Raw,74,3556,336
Raw,84,3557,336
Raw,61,3558,336
Raw,27,3562,336
Raw,20,3564,336
Raw,35,3564,336
Raw,28,3569,336
Raw,45,3577,336
Raw,41,3579,336
Raw,71,3582,336
Raw,65,3585,336
Raw,13,3587,336
Raw,4,3589,336
Raw,68,3592,336
Raw,65,3595,336
Raw,29,3600,336
Raw,32,3601,336
Raw,26,3602,336
Raw,46,3602,336
Raw,7,3605,336
Raw,40,3608,336
Raw,33,3608,336
Raw,33,3609,336
Raw,29,3616,336
Raw,31,3617,336
Raw,38,3623,336
Raw,66,3624,336
Raw,53,3624,336
Raw,17,3626,336
Raw,50,3631,336
Raw,75,3636,336
Raw,38,3638,336
Raw,37,3641,336
Raw,20,3641,336
Raw,24,3647,336
Raw,16,3651,336
Raw,14,3656,336
Raw,27,3658,336
Raw,17,3659,336
Raw,37,3661,336
Raw,84,3664,336
Raw,87,3672,336
Raw,23,3676,336
Raw,21,3677,336
Raw,46,3682,336
Raw,40,3684,336
Raw,51,3685,336
Raw,32,3689,336
Raw,37,3695,336
Raw,99,3697,336
Raw,58,3697,336
Raw,42,3704,336
Raw,47,3704,336
Raw,44,3705,336
Raw,32,3707,336
Raw,38,3708,336
Raw,40,3711,336
Raw,40,3711,336
Raw,75,3714,336
Raw,21,3715,336
Raw,21,3719,336
Raw,45,3722,336
Raw,31,3722,336
Raw,39,3725,336
Raw,54,3726,336
Raw,34,3728,336
Raw,32,3732,336
Raw,19,3737,336
Raw,35,3737,336
Raw,53,3740,336
Raw,49,3742,336
Raw,8,3743,336
Raw,58,3744,336
Raw,11,3745,336
Raw,38,3746,336
Raw,26,3746,336
Raw,55,3748,336
Raw,51,3749,336
Raw,40,3750,336
Raw,56,3750,336
Raw,21,3750,336
Raw,29,3752,336
Raw,17,3755,336
Raw,67,3756,336
Raw,18,3756,336
Raw,71,3758,336
Raw,36,3759,336
Raw,69,3763,336
Raw,37,3765,336
Raw,44,3766,336
Raw,75,3769,336
Raw,35,3774,336
Raw,33,3776,336
Raw,26,3777,336
Raw,22,3783,336
Raw,31,3783,336
Raw,43,3784,336
Raw,68,3788,336
Raw,64,3792,336
Raw,43,3794,336
Raw,22,3795,336
Raw,52,3796,336
Raw,17,3798,336
Raw,92,3801,336
Raw,55,3803,336
Raw,33,3806,336
Raw,15,3807,336
Raw,15,3807,336
Raw,44,3812,336
Raw,58,3815,336
Raw,25,3816,336
Raw,24,3819,336
Raw,12,3820,336
Raw,20,3821,336
Raw,21,3824,336
Raw,31,3826,336
Raw,45,3829,336
Raw,47,3832,336
Raw,14,3834,336
Raw,61,3836,336
Raw,37,3838,336
Raw,24,3840,336
Raw,26,3842,336
Raw,20,3842,336
Raw,34,3845,336
Raw,13,3850,336
Raw,35,3852,336
Raw,20,3859,336
Raw,36,3862,336
Raw,16,3864,336
Raw,30,3867,336
Raw,19,3869,336
Raw,22,3875,336
Raw,29,3875,336
Raw,36,3877,336
Raw,32,3879,336
Raw,8,3883,336
Raw,30,3884,336
Raw,75,3889,336
Raw,37,3891,336
Raw,24,3897,336
Raw,38,3901,336
Raw,28,3902,336
Raw,55,3903,336
Raw,29,3905,336
Raw,40,3913,336
Raw,25,3913,336
Raw,13,3915,336
Raw,13,3916,336
Raw,63,3916,336
Raw,29,3917,336
Raw,39,3917,336
Raw,42,3920,336
Raw,36,3921,336
Raw,40,3925,336
Raw,45,3927,336
Raw,21,3929,336
Raw,40,3931,336
Raw,60,3931,336
Raw,42,3932,336
Raw,24,3934,336
Raw,39,3934,336
Raw,14,3934,336
Raw,27,3935,336
Raw,13,3935,336
Raw,8,3937,336
Raw,44,3941,336
Raw,31,3942,336
Raw,26,3944,336
Raw,29,3945,336
Raw,20,3950,336
Raw,31,3951,336
Raw,14,3954,336
Raw,86,3955,336
Raw,30,3959,336
Raw,52,3961,336
Raw,31,3961,336
Raw,30,3964,336
Raw,15,3966,336
Raw,28,3967,336
Raw,37,3970,336
Raw,51,3973,336
Raw,33,3973,336
Raw,14,3974,336
Raw,41,3977,336
Raw,63,3981,336
Raw,23,3982,336
Raw,15,3983,336
Raw,51,3986,336
Raw,17,3986,336
Raw,93,3987,336
Raw,39,3988,336
Raw,48,3988,336
Raw,83,3990,336
Raw,7,3992,336
Raw,26,3993,336
Raw,48,3994,336
Raw,18,3995,336
Raw,15,3996,336
Raw,18,3996,336
Raw,46,3999,336
Raw,9,4000,336
Raw,30,4001,336
Raw,33,4002,336
Raw,90,4004,336
Raw,13,4004,336
Raw,75,4009,336
Raw,28,4012,336
Raw,40,4013,336
Raw,32,4016,336
Raw,65,4019,336
Raw,51,4021,336
Raw,52,4026,336
Raw,26,4027,336
Raw,10,4027,336
Raw,25,4037,336
Raw,93,4043,336
Raw,46,4043,336
Raw,35,4048,336
Raw,30,4048,336
Raw,18,4052,336
Raw,39,4052,336
Raw,41,4053,336
Raw,31,4053,336
Raw,32,4054,336
Raw,36,4054,336
Raw,51,4055,336
Raw,34,4057,336
Raw,32,4061,336
Raw,20,4067,336
Raw,53,4078,336
Raw,25,4082,336
Raw,13,4087,336
Raw,24,4088,336
Raw,20,4089,336
Raw,25,4090,336
Raw,58,4094,336
Raw,39,4094,336
Raw,51,4099,336
Raw,65,4103,336
Raw,15,4105,336
Raw,25,4106,336
Raw,42,4107,336
Raw,52,4108,336
Raw,33,4110,336
Raw,21,4116,336
Raw,25,4119,336
Raw,43,4122,336
Raw,25,4126,336
Raw,44,4126,336
Raw,73,4127,336
Raw,38,4127,336
Raw,20,4131,336
Raw,73,4134,336
Raw,37,4135,336
Raw,25,4135,336
Raw,56,4142,336
Raw,93,4143,336
Raw,36,4144,336
Raw,34,4146,336
Raw,71,4148,336
Raw,17,4148,336
Raw,49,4149,336
Raw,32,4149,336
Raw,32,4153,336
Raw,39,4159,336
Raw,48,4162,336
Raw,89,4163,336
Raw,71,4165,336
Raw,46,4167,336
Raw,35,4170,336
Raw,27,4175,336
Raw,24,4181,336
Raw,36,4182,336
Raw,67,4185,336
Raw,31,4186,336
Raw,42,4187,336
Raw,24,4187,336
Raw,37,4188,336
Raw,64,4188,336
Raw,21,4188,336
Raw,37,4193,336
Raw,20,4195,336
Raw,19,4196,336
Raw,45,4204,336
Raw,30,4207,336
Raw,66,4207,336
Raw,96,4211,336
Raw,14,4211,336
Raw,17,4214,336
Raw,11,4215,336
Raw,15,4216,336
Raw,61,4218,336
Raw,28,4219,336
Raw,24,4225,336
Raw,49,4226,336
Raw,77,4229,336
Raw,25,4230,336
Raw,12,4231,336
Raw,97,4235,336
Raw,28,4237,336
Raw,15,4242,336
Raw,35,4248,336
Raw,40,4248,336
Raw,19,4251,336
Raw,27,4255,336
Raw,28,4258,336
Raw,56,4260,336
Raw,53,4263,336
Raw,22,4271,336
Raw,54,4272,336
Raw,68,4274,336
Raw,18,4279,336
Raw,41,4284,336
Raw,38,4286,336
Raw,61,4288,336
Raw,36,4289,336
Raw,11,4290,336
Raw,16,4292,336
Raw,61,4293,336
Raw,58,4294,336
Raw,33,4302,336
Raw,53,4306,336
Raw,35,4306,336
Raw,62,4307,336
Raw,26,4308,336
Raw,60,4313,336
Raw,96,4316,336
Raw,18,4319,336
Raw,61,4324,336
Raw,21,4325,336
Raw,19,4329,336
Raw,55,4330,336
Raw,17,4330,336
Raw,35,4332,336
Raw,15,4334,336
Raw,57,4342,336
Raw,36,4343,336
Raw,28,4344,336
Raw,50,4344,336
Raw,18,4351,336
Raw,10,4352,336
Raw,27,4353,336
Raw,12,4355,336
Raw,74,4356,336
Raw,32,4357,336
Raw,28,4357,336
Raw,25,4361,336
Raw,6,4369,336
Raw,48,4369,336
Raw,52,4379,336
Raw,62,4379,336
Raw,22,4384,336
Raw,28,4388,336
Raw,21,4394,336
Raw,44,4397,336
Raw,42,4398,336
Raw,12,4402,336
Raw,46,4402,336
Raw,42,4409,336
Raw,37,4416,336
Raw,30,4417,336
Raw,51,4423,336
Raw,12,4424,336
Raw,33,4425,336
Raw,23,4426,336
Raw,35,4429,336
Raw,20,4436,336
Raw,83,4438,336
Raw,47,4442,336
Raw,62,4443,336
Raw,84,4444,336
Raw,28,4446,336
Raw,40,4447,336
Raw,31,4449,336
Raw,31,4449,336
Raw,39,4451,336
Raw,19,4451,336
Raw,26,4455,336
Raw,21,4455,336
Raw,41,4456,336
Raw,42,4458,336
Raw,64,4460,336
Raw,66,4461,336
Raw,27,4464,336
Raw,24,4465,336
Raw,64,4467,336
Raw,18,4468,336
Raw,33,4474,336
Raw,44,4476,336
Raw,28,4477,336
Raw,37,4479,336
Raw,38,4484,336
Raw,34,4485,336
Raw,38,4485,336
Raw,41,4490,336
Raw,31,4491,336
Raw,8,4498,336
Raw,87,4500,336
Raw,13,4502,336
Raw,30,4502,336
Raw,41,4507,336
Raw,24,4507,336
Raw,23,4512,336
Raw,52,4512,336
Raw,38,4515,336
Raw,54,4516,336
Raw,88,4523,336
Raw,72,4525,336
Raw,37,4528,336
Raw,23,4530,336
Raw,17,4530,336
Raw,33,4535,336
Raw,18,4538,336
Raw,34,4547,336
Raw,43,4547,336
Raw,35,4548,336
Raw,16,4550,336
Raw,42,4553,336
Raw,23,4554,336
Raw,28,4560,336
Raw,33,4562,336
Raw,22,4569,336
Raw,79,4570,336
Raw,68,4574,336
Raw,63,4583,336
Raw,34,4584,336
Raw,42,4584,336
Raw,63,4586,336
Raw,20,4588,336
Raw,23,4590,336
Raw,39,4590,336
Raw,20,4593,336
Raw,37,4595,336
Raw,35,4596,336
Raw,17,4598,336
Raw,89,4599,336
Raw,70,4602,336
Raw,58,4605,336
Raw,31,4605,336
Raw,37,4606,336
Raw,41,4608,336
Raw,24,4608,336
Raw,34,4610,336
Raw,48,4611,336
Raw,11,4613,336
Raw,26,4615,336
Raw,7,4616,336
Raw,43,4617,336
Raw,41,4619,336
Raw,67,4629,336
Raw,70,4631,336
Raw,24,4640,336
Raw,35,4640,336
Raw,50,4643,336
Raw,18,4646,336
Raw,66,4647,336
Raw,16,4648,336
Raw,45,4653,336
Raw,21,4656,336
Raw,28,4656,336
Raw,79,4658,336
Raw,13,4659,336
Raw,32,4660,336
Raw,41,4665,336
Raw,26,4673,336
Raw,54,4675,336
Raw,22,4675,336
Raw,76,4679,336
Raw,36,4681,336
Raw,20,4682,336
Raw,43,4685,336
Raw,13,4687,336
Raw,40,4693,336
Raw,56,4696,336
Raw,26,4702,336
Raw,19,4703,336
Raw,29,4704,336
Raw,33,4707,336
Raw,48,4709,336
Raw,61,4711,336
Raw,25,4714,336
Raw,53,4718,336
Raw,35,4723,336
Raw,83,4726,336
Raw,33,4727,336
Raw,27,4732,336
Raw,67,4733,336
Raw,22,4735,336
Raw,34,4738,336
Raw,45,4741,336
Raw,54,4745,336
Raw,24,4746,336
Raw,36,4748,336
Raw,38,4748,336
Raw,29,4750,336
Raw,5,4751,336
Raw,53,4752,336
Raw,30,4753,336
Raw,11,4754,336
Raw,20,4760,336
Raw,37,4761,336
Raw,95,4764,336
Raw,12,4768,336
Raw,26,4775,336
Raw,34,4775,336
Raw,9,4777,336
Raw,94,4778,336
Raw,19,4778,336
Raw,96,4779,336
Raw,32,4784,336
Raw,15,4788,336
Raw,34,4788,336
Raw,31,4790,336
Raw,40,4791,336
Raw,18,4793,336
Raw,40,4794,336
Raw,28,4797,336
Raw,67,4798,336
Raw,21,4802,336
Raw,90,4803,336
Raw,13,4803,336
Raw,12,4808,336
Raw,22,4808,336
Raw,47,4813,336
Raw,54,4814,336
Raw,4,4814,336
Raw,80,4816,336
Raw,13,4816,336
Raw,33,4820,336
Raw,22,4822,336
Raw,35,4822,336
Raw,43,4823,336
Raw,67,4824,336
Raw,6,4825,336
Raw,17,4826,336
Raw,85,4830,336
Raw,71,4831,336
Raw,56,4832,336
Raw,22,4833,336
Raw,36,4833,336
Raw,18,4835,336
Raw,20,4842,336
Raw,36,4842,336
Raw,40,4843,336
Raw,40,4846,336
Raw,32,4848,336
Raw,90,4850,336
Raw,28,4852,336
Raw,54,4853,336
Raw,37,4858,336
Raw,21,4867,336
Raw,37,4867,336
Raw,23,4868,336
Raw,43,4869,336
Raw,18,4872,336
Raw,42,4875,336
Raw,45,4875,336
Raw,18,4875,336
Raw,30,4876,336
Raw,50,4883,336
Raw,22,4884,336
Raw,53,4885,336
Raw,18,4886,336
Raw,81,4891,336
Raw,12,4896,336
Raw,75,4899,336
Raw,18,4902,336
Raw,45,4902,336
Raw,44,4904,336
Raw,8,4906,336
Raw,18,4913,336
Raw,19,4913,336
Raw,23,4920,336
Raw,95,4922,336
Raw,29,4925,336
Raw,34,4926,336
Raw,35,4937,336
Raw,11,4938,336
Raw,20,4938,336
Raw,36,4941,336
Raw,15,4945,336
Raw,9,4948,336
Raw,59,4948,336
Raw,36,4949,336
Raw,21,4952,336
Raw,16,4952,336
Raw,37,4955,336
Raw,26,4957,336
Raw,20,4957,336
Raw,21,4960,336
Raw,55,4961,336
Raw,57,4962,336
Raw,23,4965,336
Raw,45,4972,336
Raw,9,4975,336
Raw,13,4975,336
Raw,8,4982,336
Raw,33,4982,336
Raw,67,4985,336
Raw,77,4985,336
Raw,66,4986,336
Raw,36,4987,336
Raw,35,4989,336
Raw,30,4990,336
Raw,29,4991,336
Raw,25,4992,336
Raw,29,4993,336
Raw,38,4994,336
Raw,40,4994,336
Raw,55,4997,336
Raw,22,4999,336
Raw,23,4999,336
Raw,40,5000,336
Raw,58,5008,336
Raw,25,5012,336
Raw,32,5015,336
Raw,45,5018,336
Raw,62,5018,336
Raw,19,5019,336
Raw,41,5020,336
Raw,53,5022,336
Raw,37,5029,336
Raw,31,5033,336
Raw,19,5036,336
Raw,35,5038,336
Raw,23,5039,336
Raw,25,5043,336
Raw,43,5044,336
Raw,41,5048,336
Raw,26,5050,336
Raw,41,5054,336
Raw,9,5055,336
Raw,36,5057,336
Raw,50,5058,336
Raw,80,5060,336
Raw,73,5061,336
Raw,16,5061,336
Raw,27,5063,336
Raw,36,5068,336
Raw,33,5070,336
Raw,36,5073,336
Raw,21,5077,336
Raw,48,5078,336
Raw,9,5080,336
Raw,31,5085,336
Raw,32,5088,336
Raw,13,5092,336
Raw,12,5092,336
Raw,48,5093,336
Raw,39,5095,336
Raw,36,5097,336
Raw,44,5098,336
Raw,88,5103,336
Raw,36,5109,336
Raw,97,5110,336
Raw,23,5123,336
Raw,62,5124,336
Raw,52,5124,336
Raw,25,5125,336
Raw,62,5127,336
Raw,95,5129,336
Raw,35,5131,336
Raw,28,5137,336
Raw,27,5137,336
Raw,76,5138,336
Raw,31,5139,336
Raw,38,5139,336
Raw,89,5140,336
Raw,57,5143,336
Raw,83,5144,336
Raw,38,5145,336
Raw,24,5146,336
Raw,70,5148,336
Raw,38,5156,336
Raw,38,5158,336
Raw,37,5159,336
Raw,7,5160,336
Raw,86,5161,336
Raw,51,5162,336
Raw,34,5165,336
Raw,7,5170,336
Raw,41,5175,336
Raw,54,5175,336
Raw,30,5177,336
Raw,21,5178,336
Raw,36,5178,336
Raw,71,5179,336
Raw,14,5179,336
Raw,51,5182,336
Raw,34,5183,336
Raw,47,5186,336
Raw,30,5186,336
Raw,46,5191,336
Raw,57,5192,336
Raw,42,5195,336
Raw,33,5196,336
Raw,42,5197,336
Raw,26,5198,336
Raw,34,5198,336
Raw,54,5199,336
Raw,31,5200,336
Raw,41,5203,336
Raw,36,5204,336
Raw,28,5204,336
Raw,19,5205,336
Raw,76,5206,336
Raw,44,5206,336
Raw,14,5206,336
Raw,45,5209,336
Raw,40,5214,336
Raw,20,5225,336
Raw,31,5232,336
Raw,61,5233,336
Raw,61,5239,336
Raw,36,5245,336
Raw,46,5245,336
Raw,26,5248,336
Raw,53,5248,336
Raw,13,5249,336
Raw,42,5251,336
Raw,91,5252,336
Raw,63,5254,336
Raw,48,5258,336
Raw,16,5261,336
Raw,27,5262,336
Raw,21,5264,336
Raw,21,5267,336
Raw,44,5269,336
Raw,23,5274,336
Raw,28,5278,336
Raw,43,5280,336
Raw,30,5282,336
Raw,37,5283,336
Raw,20,5285,336
Raw,39,5288,336
Raw,19,5289,336
Raw,21,5290,336
Raw,10,5290,336
Raw,24,5292,336
Raw,9,5300,336
Raw,50,5300,336
Raw,27,5300,336
Raw,31,5301,336
Raw,25,5302,336
Raw,17,5302,336
Raw,36,5307,336
Raw,38,5309,336
Raw,52,5310,336
Raw,79,5313,336
Raw,43,5317,336
Raw,18,5319,336
Raw,28,5319,336
Raw,29,5324,336
Raw,50,5329,336
Raw,15,5329,336
Raw,34,5334,336
Raw,28,5334,336
Raw,17,5334,336
Raw,51,5337,336
Raw,7,5344,336
Raw,44,5352,336
Raw,44,5359,336
Raw,39,5362,336
Raw,16,5363,336
Raw,27,5363,336
Raw,29,5372,336
Raw,31,5373,336
Raw,49,5377,336
Raw,21,5382,336
Raw,10,5382,336
Raw,35,5383,336
Raw,5,5383,336
Raw,43,5389,336
Raw,52,5390,336
Raw,35,5393,336
Raw,34,5394,336
Raw,33,5396,336
Raw,33,5396,336
Raw,58,5397,336
Raw,35,5400,336
Raw,52,5400,336
Raw,16,5403,336
Raw,26,5404,336
Raw,60,5406,336
Raw,18,5407,336
Raw,32,5407,336
Raw,19,5409,336
Raw,35,5410,336
Raw,54,5411,336
Raw,42,5415,336
Raw,59,5418,336
Raw,8,5423,336
Raw,50,5427,336
Raw,33,5434,336
Raw,30,5435,336
Raw,31,5438,336
Raw,68,5441,336
Raw,4,5441,336
Raw,21,5443,336
Raw,26,5444,336
Raw,76,5445,336
Raw,39,5448,336
Raw,68,5453,336
Raw,29,5453,336
Raw,42,5454,336
Raw,27,5454,336
Raw,33,5456,336
Raw,25,5461,336
Raw,44,5464,336
Raw,18,5465,336
Raw,20,5469,336
Raw,39,5472,336
Raw,43,5476,336
Raw,43,5477,336
Raw,49,5479,336
Raw,45,5480,336
Raw,40,5483,336
Raw,60,5487,336
Raw,37,5489,336
Raw,35,5490,336
Raw,43,5490,336
Raw,39,5491,336
Raw,39,5492,336
Raw,40,5493,336
Raw,36,5495,336
Raw,38,5495,336
Raw,43,5498,336
Raw,78,5499,336
Raw,30,5500,336
Raw,23,5501,336
Raw,27,5506,336
Raw,23,5514,336
Raw,45,5515,336
Raw,16,5517,336
Raw,49,5517,336
Raw,31,5522,336
Raw,21,5524,336
Raw,19,5526,336
Raw,41,5531,336
Raw,30,5531,336
Raw,23,5538,336
Raw,30,5539,336
Raw,78,5542,336
Raw,67,5544,336
Raw,58,5546,336
Raw,13,5548,336
Raw,55,5549,336
Raw,21,5552,336
Raw,17,5555,336
Raw,39,5556,336
Raw,36,5558,336
Raw,46,5563,336
Raw,77,5565,336
Raw,45,5570,336
Raw,23,5571,336
Raw,32,5573,336
Raw,48,5579,336
Raw,27,5580,336
Raw,27,5583,336
Raw,43,5584,336
Raw,36,5587,336
Raw,24,5588,336
Raw,81,5591,336
Raw,72,5600,336
Raw,16,5604,336
Raw,46,5607,336
Raw,42,5610,336
Raw,96,5613,336
Raw,21,5617,336
Raw,33,5624,336
Raw,26,5625,336
Raw,23,5627,336
Raw,81,5630,336
Raw,30,5631,336
Raw,62,5633,336
Raw,57,5634,336
Raw,23,5637,336
Raw,17,5637,336
Raw,46,5639,336
Raw,14,5641,336
Raw,11,5645,336
Raw,26,5647,336
Raw,28,5650,336
Raw,21,5650,336
Raw,12,5655,336
Raw,35,5655,336
Raw,39,5658,336
Raw,28,5659,336
Raw,45,5659,336
Raw,78,5661,336
Raw,39,5664,336
Raw,57,5666,336
Raw,66,5671,336
Raw,48,5671,336
Raw,31,5672,336
Raw,15,5673,336
Raw,19,5676,336
Raw,82,5677,336
Raw,35,5679,336
Raw,15,5685,336
Raw,35,5685,336
Raw,26,5689,336
Raw,11,5689,336
Raw,53,5703,336
Raw,14,5704,336
Raw,62,5705,336
Raw,22,5706,336
Raw,33,5706,336
Raw,52,5709,336
Raw,30,5711,336
Raw,64,5712,336
Raw,24,5713,336
Raw,37,5714,336
Raw,44,5715,336
Raw,73,5721,336
Raw,39,5722,336
Raw,55,5723,336
Raw,60,5726,336
Raw,59,5730,336
Raw,72,5734,336
Raw,49,5736,336
Raw,71,5738,336
Raw,36,5741,336
Raw,33,5742,336
Raw,34,5746,336
Raw,22,5746,336
Raw,31,5748,336
Raw,10,5755,336
Raw,71,5758,336
Raw,35,5760,336
Raw,26,5768,336
Raw,20,5779,336
Raw,75,5784,336
Raw,30,5789,336
Raw,43,5791,336
Raw,36,5797,336
Raw,39,5797,336
Raw,66,5800,336
Raw,24,5800,336
Raw,16,5806,336
Raw,25,5806,336
Raw,31,5807,336
Raw,33,5807,336
Raw,19,5809,336
Raw,48,5812,336
Raw,83,5814,336
Raw,22,5815,336
Raw,14,5817,336
Raw,5,5820,336
Raw,77,5822,336
Raw,90,5823,336
Raw,31,5823,336
Raw,4,5827,336
Raw,21,5832,336
Raw,37,5833,336
Raw,59,5837,336
Raw,19,5838,336
Raw,32,5845,336
Raw,46,5846,336
Raw,55,5848,336
Raw,33,5854,336
Raw,69,5858,336
Raw,22,5858,336
Raw,42,5859,336
Raw,28,5859,336
Raw,45,5859,336
Raw,36,5861,336
Raw,27,5863,336
Raw,38,5863,336
Raw,38,5863,336
Raw,56,5865,336
Raw,31,5865,336
Raw,14,5871,336
Raw,46,5875,336
Raw,43,5881,336
Raw,18,5881,336
Raw,29,5886,336
Raw,50,5898,336
Raw,40,5899,336
Raw,84,5901,336
Raw,35,5902,336
Raw,9,5903,336
Raw,53,5904,336
Raw,33,5905,336
Raw,12,5908,336
Raw,33,5913,336
Raw,11,5917,336
Raw,51,5918,336
Raw,31,5920,336
Raw,30,5922,336
Raw,60,5926,336
Raw,28,5931,336
Raw,12,5936,336
Raw,30,5938,336
Raw,10,5942,336
Raw,12,5946,336
Raw,30,5953,336
Raw,6,5954,336
Raw,8,5954,336
Raw,35,5957,336
Raw,46,5958,336
Raw,37,5959,336
Raw,70,5960,336
Raw,19,5962,336
Raw,42,5964,336
Raw,70,5964,336
Raw,17,5965,336
Raw,18,5969,336
Raw,49,5971,336
Raw,24,5972,336
Raw,56,5975,336
Raw,21,5979,336
Raw,52,5980,336
Raw,35,5984,336
Raw,23,5986,336
Raw,38,5987,336
Raw,19,5989,336
Raw,32,5990,336
Raw,34,5992,336
Raw,84,6003,336
Raw,41,6008,336
Raw,56,6017,336
Raw,39,6017,336
Raw,36,6019,336
Raw,46,6021,336
Raw,27,6024,336
Raw,18,6026,336
Raw,22,6027,336
Raw,26,6030,336
Raw,16,6031,336
Raw,43,6032,336
Raw,27,6034,336
Raw,60,6036,336
Raw,45,6038,336
Raw,19,6038,336
Raw,35,6042,336
Raw,24,6052,336
Raw,69,6053,336
Raw,8,6059,336
Raw,31,6065,336
Raw,13,6077,336
Raw,33,6078,336
Raw,17,6078,336
Raw,34,6080,336
Raw,57,6081,336
Raw,49,6087,336
Raw,20,6090,336
Raw,48,6092,336
Raw,8,6094,336
Raw,37,6095,336
Raw,59,6102,336
Raw,14,6103,336
Raw,79,6113,336
Raw,22,6118,336
Raw,36,6123,336
Raw,33,6124,336
Raw,17,6125,336
Raw,33,6130,336
Raw,39,6134,336
Raw,5,6137,336
Raw,29,6142,336
Raw,64,6144,336
Raw,34,6147,336
Raw,65,6148,336
Raw,65,6151,336
Raw,24,6155,336
Raw,33,6155,336
Raw,35,6157,336
Raw,28,6161,336
Raw,31,6162,336
Raw,39,6164,336
Raw,41,6169,336
Raw,21,6170,336
Raw,28,6173,336
Raw,27,6176,336
Raw,92,6178,336
Raw,36,6179,336
Raw,24,6179,336
Raw,24,6182,336
Raw,61,6183,336
Raw,76,6185,336
Raw,64,6187,336
Raw,88,6189,336
Raw,95,6192,336
Raw,38,6193,336
Raw,33,6195,336
Raw,24,6201,336
Raw,49,6203,336
Raw,76,6206,336
Raw,28,6211,336
Raw,25,6216,336
Raw,50,6223,336
Raw,55,6224,336
Raw,30,6224,336
Raw,47,6227,336
Raw,34,6227,336
Raw,32,6228,336
Raw,32,6229,336
Raw,30,6237,336
Raw,56,6238,336
Raw,12,6248,336
Raw,6,6252,336
Raw,93,6253,336
Raw,15,6256,336
Raw,41,6256,336
Raw,54,6260,336
Raw,33,6262,336
Raw,51,6263,336
Raw,15,6264,336
Raw,38,6265,336
Raw,34,6267,336
Raw,31,6268,336
Raw,35,6274,336
Raw,40,6277,336
Raw,36,6278,336
Raw,13,6280,336
Raw,46,6280,336
Raw,24,6281,336
Raw,61,6283,336
Raw,35,6284,336
Raw,34,6288,336
Raw,16,6289,336
Raw,48,6289,336
Raw,36,6290,336
Raw,47,6292,336
Raw,32,6302,336
Raw,17,6303,336
Raw,11,6305,336
Raw,68,6307,336
Raw,38,6308,336
Raw,54,6310,336
Raw,41,6311,336
Raw,13,6311,336
Raw,16,6312,336
Raw,52,6312,336
Raw,47,6313,336
Raw,54,6317,336
Raw,88,6318,336
Raw,5,6321,336
Raw,45,6327,336
Raw,51,6336,336
Raw,56,6337,336
Raw,97,6338,336
Raw,37,6340,336
Raw,27,6342,336
Raw,72,6346,336
Raw,14,6346,336
Raw,25,6349,336
Raw,18,6350,336
Raw,67,6357,336
Raw,23,6358,336
Raw,23,6360,336
Raw,17,6362,336
Raw,39,6363,336
Raw,56,6364,336
Raw,47,6367,336
Raw,36,6369,336
Raw,7,6369,336
Raw,72,6370,336
Raw,85,6371,336
Raw,81,6372,336
Raw,29,6374,336
Raw,36,6374,336
Raw,63,6375,336
Raw,36,6375,336
Raw,18,6376,336
Raw,18,6376,336
Raw,19,6382,336
Raw,33,6384,336
Raw,37,6387,336
Raw,68,6390,336
Raw,40,6392,336
Raw,24,6392,336
Raw,57,6396,336
Raw,80,6399,336
Raw,25,6402,336
Raw,67,6403,336
Raw,44,6405,336
Raw,58,6406,336
Raw,43,6407,336
Raw,15,6411,336
Raw,16,6416,336
Raw,47,6423,336
Raw,35,6429,336
Raw,79,6437,336
Raw,33,6440,336
Raw,88,6442,336
Raw,49,6443,336
Raw,4,6444,336
Raw,24,6446,336
Raw,38,6447,336
Raw,56,6448,336
Raw,62,6450,336
Raw,33,6451,336
Raw,19,6451,336
Raw,4,6455,336
Raw,21,6456,336
Raw,49,6457,336
Raw,21,6459,336
Raw,17,6459,336
Raw,24,6459,336
Raw,20,6461,336
Raw,38,6468,336
Raw,28,6470,336
Raw,39,6472,336
Raw,53,6474,336
Raw,69,6475,336
Raw,14,6477,336
Raw,23,6478,336
Raw,21,6478,336
Raw,17,6484,336
Raw,44,6487,336
Raw,21,6488,336
Raw,27,6488,336
Raw,11,6493,336
Raw,56,6493,336
Raw,34,6496,336
Raw,38,6496,336
Raw,36,6498,336
Raw,89,6502,336
Raw,77,6503,336
Raw,34,6505,336
Raw,15,6505,336
Raw,74,6510,336
Raw,7,6516,336
Raw,17,6518,336
Raw,43,6522,336
Raw,64,6523,336
Raw,51,6524,336
Raw,43,6526,336
Raw,34,6535,336
Raw,50,6535,336
Raw,21,6541,336
Raw,40,6541,336
Raw,37,6542,336
Raw,34,6544,336
Raw,31,6545,336
Raw,15,6547,336
Raw,29,6554,336
Raw,45,6554,336
Raw,59,6567,336
Raw,28,6570,336
Raw,65,6572,336
Raw,58,6575,336
Raw,42,6576,336
Raw,54,6576,336
Raw,58,6579,336
Raw,81,6582,336
Raw,16,6593,336
Raw,17,6595,336
Raw,43,6597,336
Raw,55,6597,336
Raw,44,6601,336
Raw,33,6606,336
Raw,89,6608,336
Raw,16,6610,336
Raw,18,6612,336
Raw,21,6625,336
Raw,38,6631,336
Raw,87,6632,336
Raw,35,6636,336
Raw,31,6636,336
Raw,66,6641,336
Raw,26,6641,336
Raw,14,6643,336
Raw,41,6644,336
Raw,32,6647,336
Raw,32,6650,336
Raw,42,6650,336
Raw,45,6651,336
Raw,28,6652,336
Raw,33,6659,336
Raw,59,6662,336
Raw,19,6663,336
Raw,27,6665,336
Raw,10,6665,336
Raw,39,6669,336
Raw,20,6670,336
Raw,15,6670,336
Raw,21,6671,336
Raw,26,6673,336
Raw,74,6675,336
Raw,34,6679,336
Raw,34,6679,336
Raw,41,6680,336
Raw,16,6682,336
Raw,27,6684,336
Raw,34,6686,336
Raw,31,6689,336
Raw,35,6690,336
Raw,24,6700,336
Raw,33,6701,336
Raw,11,6712,336
Raw,19,6713,336
Raw,32,6714,336
Raw,25,6715,336
Raw,29,6717,336
Raw,23,6723,336
Raw,35,6724,336
Raw,31,6727,336
Raw,53,6729,336
Raw,38,6729,336
Raw,30,6735,336
Raw,31,6737,336
Raw,44,6743,336
Raw,25,6745,336
Raw,61,6745,336
Raw,13,6748,336
Raw,59,6748,336
Raw,43,6752,336
Raw,46,6758,336
Raw,26,6759,336
Raw,48,6760,336
Raw,14,6766,336
Raw,49,6766,336
Raw,29,6769,336
Raw,27,6769,336
Raw,67,6773,336
Raw,20,6773,336
Raw,71,6775,336
Raw,45,6777,336
Raw,54,6778,336
Raw,62,6780,336
Raw,25,6782,336
Raw,65,6783,336
Raw,52,6783,336
Raw,17,6791,336
Raw,71,6795,336
Raw,29,6802,336
Raw,15,6803,336
Raw,38,6807,336
Raw,12,6809,336
Raw,10,6813,336
Raw,42,6815,336
Raw,31,6821,336
Raw,17,6824,336
Raw,28,6829,336
Raw,32,6831,336
Raw,24,6832,336
Raw,16,6837,336
Raw,11,6838,336
Raw,53,6839,336
Raw,30,6841,336
Raw,47,6844,336
Raw,30,6849,336
Raw,24,6849,336
Raw,35,6851,336
Raw,54,6858,336
Raw,27,6859,336
Raw,32,6859,336
Raw,17,6860,336
Raw,64,6862,336
Raw,24,6864,336
Raw,29,6866,336
Raw,37,6866,336
Raw,49,6867,336
Raw,81,6868,336
Raw,34,6870,336
Raw,54,6872,336
Raw,36,6872,336
Raw,22,6873,336
Raw,65,6876,336
Raw,38,6877,336
Raw,45,6878,336
Raw,67,6882,336
Raw,13,6885,336
Raw,71,6885,336
Raw,26,6886,336
Raw,59,6889,336
Raw,57,6890,336
Raw,19,6896,336
Raw,24,6903,336
Raw,52,6903,336
Raw,28,6906,336
Raw,20,6915,336
Raw,34,6917,336
Raw,6,6917,336
Raw,37,6918,336
Raw,32,6919,336
Raw,49,6920,336
Raw,27,6920,336
Raw,32,6921,336
Raw,55,6924,336
Raw,39,6926,336
Raw,8,6926,336
Raw,59,6929,336
Raw,6,6931,336
Raw,42,6934,336
Raw,36,6935,336
Raw,40,6935,336
Raw,43,6938,336
Raw,80,6943,336
Raw,25,6944,336
Raw,55,6944,336
Raw,65,6945,336
Raw,75,6946,336
Raw,28,6947,336
Raw,33,6949,336
Raw,29,6955,336
Raw,16,6957,336
Raw,19,6957,336
Raw,30,6958,336
Raw,21,6958,336
Raw,23,6958,336
Raw,81,6960,336
Raw,86,6962,336
Raw,60,6963,336
Raw,72,6964,336
Raw,77,6965,336
Raw,42,6970,336
Raw,48,6972,336
Raw,49,6974,336
Raw,40,6976,336
Raw,8,6977,336
Raw,15,6977,336
Raw,13,6979,336
Raw,24,6982,336
Raw,31,6984,336
Raw,65,6985,336
Raw,8,6986,336
Raw,28,6987,336
Raw,56,6988,336
Raw,42,6991,336
Raw,19,6992,336
Raw,38,6993,336
Raw,27,6994,336
Raw,31,6996,336
Raw,27,6998,336
Raw,30,7000,336
Raw,37,7005,336
Raw,56,7006,336
Raw,56,7007,336
Raw,30,7012,336
Raw,50,7013,336
Raw,22,7022,336
Raw,24,7028,336
Raw,17,7030,336
Raw,98,7032,336
Raw,70,7034,336
Raw,25,7035,336
Raw,98,7037,336
Raw,29,7041,336
Raw,49,7041,336
Raw,13,7041,336
Raw,12,7046,336
Raw,27,7047,336
Raw,14,7048,336
Raw,17,7050,336
Raw,61,7050,336
Raw,24,7054,336
Raw,16,7058,336
Raw,84,7059,336
Raw,31,7060,336
Raw,36,7061,336
Raw,34,7062,336
Raw,41,7063,336
Raw,18,7068,336
Raw,12,7071,336
Raw,25,7072,336
Raw,32,7079,336
Raw,59,7081,336
Raw,30,7081,336
Raw,51,7082,336
Raw,26,7084,336
Raw,23,7085,336
Raw,23,7087,336
Raw,68,7092,336
Raw,18,7095,336
Raw,62,7095,336
Raw,77,7096,336
Raw,70,7098,336
Raw,24,7101,336
Raw,40,7101,336
Raw,76,7106,336
Raw,16,7106,336
Raw,25,7107,336
Raw,36,7107,336
Raw,39,7109,336
Raw,52,7112,336
Raw,18,7119,336
Raw,9,7120,336
Raw,50,7122,336
Raw,90,7123,336
Raw,18,7125,336
Raw,28,7127,336
Raw,19,7132,336
Raw,31,7139,336
Raw,49,7139,336
Raw,57,7140,336
Raw,68,7142,336
Raw,74,7146,336
Raw,20,7148,336
Raw,29,7150,336
Raw,46,7152,336
Raw,37,7153,336
Raw,11,7153,336
Raw,31,7157,336
Raw,32,7162,336
Raw,34,7165,336
Raw,77,7166,336
Raw,32,7166,336
Raw,61,7168,336
Raw,80,7169,336
Raw,22,7169,336
Raw,33,7172,336
Raw,81,7177,336
Raw,49,7179,336
Raw,25,7180,336
Raw,53,7182,336
Raw,34,7184,336
Raw,29,7186,336
Raw,52,7187,336
Raw,36,7189,336
Raw,28,7193,336
Raw,53,7196,336
Raw,38,7197,336
Raw,23,7197,336
Raw,41,7198,336
Raw,72,7200,336
Raw,15,7200,336
Raw,47,7201,336
Raw,47,7202,336
Raw,35,7202,336
Raw,37,7210,336
Raw,28,7210,336
Raw,23,7219,336
Raw,22,7220,336
Raw,6,7220,336
Raw,94,7221,336
Raw,40,7225,336
Raw,64,7229,336
Raw,28,7230,336
Raw,43,7232,336
Raw,49,7233,336
Raw,34,7237,336
Raw,21,7239,336
Raw,34,7243,336
Raw,15,7243,336
Raw,35,7244,336
Raw,44,7245,336
Raw,60,7245,336
Raw,56,7246,336
Raw,31,7247,336
Raw,30,7247,336
Raw,31,7252,336
Raw,28,7255,336
Raw,22,7256,336
Raw,87,7258,336
Raw,38,7259,336
Raw,28,7260,336
Raw,61,7264,336
Raw,22,7265,336
Raw,37,7265,336
Raw,42,7268,336
Raw,15,7272,336
Raw,50,7272,336
Raw,23,7273,336
Raw,67,7279,336
Raw,32,7287,336
Raw,34,7288,336
Raw,29,7291,336
Raw,9,7291,336
Raw,27,7295,336
Raw,37,7299,336
Raw,41,7303,336
Raw,46,7304,336
Raw,20,7306,336
Raw,44,7307,336
Raw,32,7311,336
Raw,13,7312,336
Raw,17,7312,336
Raw,78,7315,336
Raw,31,7318,336
Raw,34,7321,336
Raw,25,7321,336
Raw,91,7323,336
Raw,25,7325,336
Raw,45,7330,336
Raw,60,7332,336
Raw,37,7333,336
Raw,76,7336,336
Raw,32,7337,336
Raw,42,7340,336
Raw,18,7342,336
Raw,39,7347,336
Raw,32,7347,336
Raw,65,7349,336
Raw,35,7350,336
Raw,45,7355,336
Raw,34,7355,336
Raw,53,7362,336
Raw,18,7363,336
Raw,14,7363,336
Raw,61,7364,336
Raw,32,7364,336
Raw,36,7367,336
Raw,22,7378,336
Raw,18,7378,336
Raw,28,7379,336
Raw,23,7381,336
Raw,29,7386,336
Raw,27,7387,336
Raw,18,7387,336
Raw,22,7388,336
Raw,30,7393,336
Raw,64,7394,336
Raw,91,7395,336
Raw,78,7396,336
Raw,61,7397,336
Raw,68,7398,336
Raw,18,7398,336
Raw,21,7401,336
Raw,12,7405,336
Raw,10,7410,336
Raw,19,7413,336
Raw,79,7415,336
Raw,51,7421,336
Raw,61,7422,336
Raw,35,7425,336
Raw,44,7425,336
Raw,44,7426,336
Raw,68,7427,336
Raw,57,7435,336
Raw,30,7436,336
Raw,26,7436,336
Raw,21,7437,336
Raw,16,7437,336
Raw,31,7440,336
Raw,35,7450,336
Raw,3,7451,336
Raw,42,7452,336
Raw,63,7454,336
Raw,41,7454,336
Raw,54,7457,336
Raw,31,7457,336
Raw,67,7464,336
Raw,58,7465,336
Raw,43,7470,336
Raw,49,7471,336
Raw,52,7477,336
Raw,60,7480,336
Raw,22,7481,336
Raw,23,7481,336
Raw,35,7483,336
Raw,60,7487,336
Raw,64,7489,336
Raw,28,7491,336
Raw,6,7493,336
Raw,13,7497,336
Raw,6,7497,336
Raw,43,7502,336
Raw,26,7502,336
Raw,12,7507,336
Raw,33,7513,336
Raw,85,7515,336
Raw,17,7516,336
Raw,73,7518,336
Raw,21,7521,336
Raw,5,7523,336
Raw,14,7523,336
Raw,63,7526,336
Raw,34,7526,336
Raw,28,7533,336
Raw,15,7536,336
Raw,32,7537,336
Raw,50,7539,336
Raw,15,7542,336
Raw,52,7545,336
Raw,43,7546,336
Raw,28,7547,336
Raw,93,7552,336
Raw,23,7559,336
Raw,24,7560,336
Raw,38,7561,336
Raw,62,7567,336
Raw,39,7569,336
Raw,74,7570,336
Raw,73,7581,336
Raw,29,7582,336
Raw,24,7582,336
Raw,21,7583,336
Raw,35,7585,336
Raw,75,7586,336
Raw,23,7588,336
Raw,31,7594,336
Raw,23,7597,336
Raw,16,7600,336
Raw,10,7601,336
Raw,23,7602,336
Raw,63,7604,336
Raw,34,7605,336
Raw,66,7606,336
Raw,48,7607,336
Raw,22,7609,336
Raw,8,7609,336
Raw,64,7610,336
Raw,46,7612,336
Raw,74,7613,336
Raw,79,7615,336
Raw,30,7620,336
Raw,58,7621,336
Raw,48,7624,336
Raw,32,7629,336
Raw,73,7631,336
Raw,97,7633,336
Raw,74,7635,336
Raw,14,7635,336
Raw,40,7636,336
Raw,35,7637,336
Raw,38,7641,336
Raw,28,7645,336
Raw,95,7649,336
Raw,83,7651,336
Raw,20,7651,336
Raw,6,7651,336
Raw,26,7653,336
Raw,30,7656,336
Raw,35,7667,336
Raw,42,7668,336
Raw,70,7669,336
Raw,26,7677,336
Raw,8,7683,336
Raw,25,7686,336
Raw,44,7686,336
Raw,67,7688,336
Raw,26,7689,336
Raw,50,7692,336
Raw,29,7700,336
Raw,21,7700,336
Raw,51,7701,336
Raw,33,7702,336
Raw,69,7703,336
Raw,23,7707,336
Raw,11,7707,336
Raw,28,7707,336
Raw,40,7708,336
Raw,96,7712,336
Raw,43,7717,336
Raw,32,7717,336
Raw,69,7718,336
Raw,61,7719,336
Raw,48,7722,336
Raw,53,7724,336
Raw,11,7726,336
Raw,26,7727,336
Raw,31,7727,336
Raw,49,7729,336
Raw,40,7731,336
Raw,67,7738,336
Raw,43,7739,336
Raw,34,7739,336
Raw,35,7741,336
Raw,42,7744,336
Raw,89,7755,336
Raw,18,7761,336
Raw,21,7763,336
Raw,23,7763,336
Raw,32,7765,336
Raw,37,7767,336
Raw,36,7767,336
Raw,14,7768,336
Raw,35,7770,336
Raw,43,7770,336
Raw,84,7771,336
Raw,10,7772,336
Raw,46,7775,336
Raw,46,7778,336
Raw,25,7778,336
Raw,93,7779,336
Raw,38,7785,336
Raw,35,7785,336
Raw,77,7790,336
Raw,30,7793,336
Raw,29,7798,336
Raw,23,7798,336
Raw,33,7801,336
Raw,63,7807,336
Raw,29,7808,336
Raw,12,7810,336
Raw,32,7811,336
Raw,20,7812,336
Raw,84,7813,336
Raw,18,7822,336
Raw,27,7823,336
Raw,61,7826,336
Raw,42,7827,336
Raw,70,7828,336
Raw,38,7828,336
Raw,16,7833,336
Raw,37,7833,336
Raw,54,7835,336
Raw,24,7836,336
Raw,37,7838,336
Raw,38,7839,336
Raw,37,7843,336
Raw,70,7844,336
Raw,35,7846,336
Raw,28,7848,336
Raw,32,7849,336
Raw,51,7855,336
Raw,40,7857,336
Raw,19,7857,336
Raw,62,7858,336
Raw,91,7859,336
Raw,62,7863,336
Raw,11,7867,336
Raw,45,7867,336
Raw,18,7871,336
Raw,35,7872,336
Raw,43,7877,336
Raw,22,7887,336
Raw,38,7888,336
Raw,65,7899,336
Raw,46,7907,336
Raw,38,7910,336
Raw,36,7913,336
Raw,37,7914,336
Raw,27,7916,336
Raw,33,7916,336
Raw,8,7918,336
Raw,61,7919,336
Raw,36,7920,336
Raw,15,7921,336
Raw,39,7927,336
Raw,39,7929,336
Raw,62,7930,336
Raw,28,7930,336
Raw,35,7931,336
Raw,39,7934,336
Raw,31,7935,336
Raw,36,7936,336
Raw,44,7937,336
Raw,77,7941,336
Raw,51,7942,336
Raw,8,7943,336
Raw,41,7955,336
Raw,20,7957,336
Raw,27,7957,336
Raw,19,7957,336
Raw,86,7958,336
Raw,28,7959,336
Raw,14,7961,336
Raw,52,7963,336
Raw,83,7964,336
Raw,40,7965,336
Raw,92,7973,336
Raw,25,7974,336
Raw,79,7976,336
Raw,33,7979,336
Raw,87,7984,336
Raw,20,7987,336
Raw,45,7994,336
Raw,10,7998,336
Raw,23,7999,336
Raw,38,8001,336
Raw,16,8003,336
Raw,27,8004,336
Raw,49,8007,336
Raw,43,8008,336
Raw,17,8008,336
Raw,27,8009,336
Raw,39,8009,336
Raw,22,8010,336
Raw,10,8012,336
Raw,68,8012,336
Raw,24,8018,336
Raw,26,8019,336
Raw,25,8020,336
Raw,39,8023,336
Raw,11,8032,336
Raw,20,8034,336
Raw,16,8043,336
Raw,50,8047,336
Raw,53,8055,336
Raw,28,8060,336
Raw,64,8061,336
Raw,15,8062,336
Raw,41,8063,336
Raw,38,8067,336
Raw,24,8079,336
Raw,18,8082,336
Raw,21,8084,336
Raw,32,8089,336
Raw,90,8091,336
Raw,70,8092,336
Raw,31,8092,336
Raw,44,8093,336
Raw,10,8096,336
Raw,52,8101,336
Raw,28,8103,336
Raw,46,8107,336
Raw,50,8107,336
Raw,37,8110,336
Raw,36,8113,336
Raw,98,8117,336
Raw,30,8120,336
Raw,36,8121,336
Raw,14,8125,336
Raw,38,8126,336
Raw,24,8126,336
Raw,45,8126,336
Raw,33,8128,336
Raw,34,8128,336
Raw,24,8129,336
Raw,33,8133,336
Raw,33,8135,336
Raw,23,8142,336
Raw,18,8143,336
Raw,30,8145,336
Raw,21,8149,336
Raw,13,8151,336
Raw,74,8155,336
Raw,64,8160,336
Raw,29,8166,336
Raw,36,8166,336
Raw,58,8168,336
Raw,40,8172,336
Raw,13,8184,336
Raw,52,8185,336
Raw,29,8188,336
Raw,30,8191,336
Raw,82,8193,336
Raw,29,8194,336
Raw,23,8195,336
Raw,61,8198,336
Raw,23,8202,336
Raw,38,8204,336
Raw,8,8205,336
Raw,28,8213,336
Raw,18,8215,336
Raw,80,8218,336
Raw,20,8220,336
Raw,22,8228,336
Raw,31,8228,336
Raw,13,8228,336
Raw,17,8232,336
Raw,34,8233,336
Raw,37,8234,336
Raw,20,8235,336
Raw,38,8236,336
Raw,92,8240,336
Raw,27,8242,336
Raw,26,8243,336
Raw,12,8251,336
Raw,34,8254,336
Raw,25,8258,336
Raw,68,8259,336
Raw,45,8259,336
Raw,4,8259,336
Raw,24,8260,336
Raw,42,8262,336
Raw,85,8263,336
Raw,77,8265,336
Raw,13,8267,336
Raw,32,8267,336
Raw,36,8270,336
Raw,32,8271,336
Raw,65,8281,336
Raw,20,8284,336
Raw,29,8287,336
Raw,99,8288,336
Raw,38,8288,336
Raw,21,8289,336
Raw,12,8289,336
Raw,15,8294,336
Raw,65,8294,336
Raw,39,8295,336
Raw,45,8295,336
Raw,35,8296,336
Raw,39,8298,336
Raw,58,8299,336
Raw,41,8301,336
Raw,38,8301,336
Raw,44,8303,336
Raw,26,8306,336
Raw,21,8307,336
Raw,32,8307,336
Raw,30,8310,336
Raw,47,8312,336
Raw,15,8314,336
Raw,32,8316,336
Raw,37,8317,336
Raw,31,8319,336
Raw,36,8320,336
Raw,34,8322,336
Raw,89,8324,336
Raw,46,8325,336
Raw,67,8326,336
Raw,71,8327,336
Raw,15,8330,336
Raw,36,8331,336
Raw,42,8338,336
Raw,68,8339,336
Raw,18,8345,336
Raw,27,8346,336
Raw,32,8346,336
Raw,21,8347,336
Raw,50,8349,336
Raw,60,8352,336
Raw,49,8354,336
Raw,19,8361,336
Raw,20,8361,336
Raw,14,8363,336
Raw,71,8365,336
Raw,23,8365,336
Raw,43,8367,336
Raw,35,8368,336
Raw,96,8369,336
Raw,63,8370,336
Raw,36,8371,336
Raw,37,8372,336
Raw,30,8374,336
Raw,33,8374,336
Raw,15,8380,336
Raw,43,8380,336
Raw,32,8391,336
Raw,74,8394,336
Raw,64,8395,336
Raw,9,8397,336
Raw,10,8398,336
Raw,47,8398,336
Raw,44,8399,336
Raw,55,8401,336
Raw,34,8404,336
Raw,22,8408,336
Raw,55,8410,336
Raw,36,8412,336
Raw,48,8415,336
Raw,42,8420,336
Raw,21,8421,336
Raw,37,8427,336
Raw,13,8434,336
Raw,43,8436,336
Raw,28,8441,336
Raw,69,8443,336
Raw,30,8445,336
Raw,31,8450,336
Raw,24,8452,336
Raw,37,8455,336
Raw,28,8456,336
Raw,39,8456,336
Raw,36,8458,336
Raw,16,8458,336
Raw,60,8460,336
Raw,40,8462,336
Raw,40,8464,336
Raw,46,8464,336
Raw,57,8467,336
Raw,33,8468,336
Raw,84,8469,336
Raw,4,8473,336
Raw,91,8476,336
Raw,40,8477,336
Raw,27,8477,336
Raw,39,8480,336
Raw,22,8481,336
Raw,20,8483,336
Raw,34,8483,336
Raw,32,8488,336
Raw,25,8488,336
Raw,50,8489,336
Raw,31,8497,336
Raw,32,8498,336
Raw,84,8499,336
Raw,34,8501,336
Raw,42,8504,336
Raw,43,8505,336
Raw,31,8505,336
Raw,84,8506,336
Raw,14,8512,336
Raw,31,8513,336
Raw,53,8516,336
Raw,20,8525,336
Raw,20,8527,336
Raw,21,8527,336
Raw,49,8528,336
Raw,19,8532,336
Raw,51,8533,336
Raw,32,8535,336
Raw,57,8539,336
Raw,70,8540,336
Raw,21,8541,336
Raw,26,8542,336
Raw,3,8546,336
Raw,91,8547,336
Raw,46,8550,336
Raw,23,8551,336
Raw,34,8553,336
Raw,16,8553,336
Raw,39,8555,336
Raw,28,8556,336
Raw,41,8557,336
Raw,24,8557,336
Raw,10,8559,336
Raw,8,8560,336
Raw,33,8561,336
Raw,54,8565,336
Raw,37,8567,336
Raw,42,8570,336
Raw,13,8572,336
Raw,48,8574,336
Raw,20,8574,336
Raw,69,8577,336
Raw,32,8578,336
Raw,34,8579,336
Raw,40,8580,336
Raw,21,8584,336
Raw,42,8586,336
Raw,13,8587,336
Raw,66,8589,336
Raw,33,8592,336
Raw,43,8594,336
Raw,23,8604,336
Raw,62,8609,336
Raw,45,8613,336
Raw,59,8614,336
Raw,36,8614,336
Raw,33,8615,336
Raw,30,8617,336
Raw,65,8618,336
Raw,78,8620,336
Raw,35,8624,336
Raw,87,8624,336
Raw,27,8628,336
Raw,96,8631,336
Raw,28,8631,336
Raw,13,8637,336
Raw,17,8637,336
Raw,26,8643,336
Raw,28,8645,336
Raw,17,8646,336
Raw,35,8646,336
Raw,71,8648,336
Raw,64,8651,336
Raw,12,8652,336
Raw,29,8655,336
Raw,48,8656,336
Raw,36,8658,336
Raw,58,8664,336
Raw,21,8666,336
Raw,32,8666,336
Raw,33,8667,336
Raw,46,8667,336
Raw,45,8667,336
Raw,22,8671,336
Raw,28,8675,336
Raw,40,8679,336
Raw,38,8679,336
Raw,26,8680,336
Raw,64,8683,336
Raw,35,8685,336
Raw,32,8688,336
Raw,24,8688,336
Raw,32,8692,336
Raw,22,8696,336
Raw,48,8696,336
Raw,37,8698,336
Raw,4,8698,336
Raw,35,8699,336
Raw,16,8699,336
Raw,56,8700,336
Raw,40,8706,336
Raw,25,8706,336
Raw,68,8707,336
Raw,45,8710,336
Raw,24,8712,336
Raw,7,8713,336
Raw,33,8714,336
Raw,49,8715,336
Raw,34,8719,336
Raw,30,8721,336
Raw,41,8725,336
Raw,40,8726,336
Raw,19,8728,336
Raw,14,8729,336
Raw,86,8731,336
Raw,55,8733,336
Raw,23,8736,336
Raw,34,8739,336
Raw,77,8749,336
Raw,34,8751,336
Raw,31,8752,336
Raw,47,8753,336
Raw,78,8754,336
Raw,35,8761,336
Raw,54,8762,336
Raw,21,8763,336
Raw,25,8764,336
Raw,33,8765,336
Raw,35,8769,336
Raw,29,8774,336
Raw,52,8774,336
Raw,63,8775,336
Raw,25,8780,336
Raw,21,8782,336
Raw,22,8790,336
Raw,83,8792,336
Raw,43,8792,336
Raw,22,8793,336
Raw,42,8794,336
Raw,34,8797,336
Raw,31,8797,336
Raw,33,8799,336
Raw,15,8799,336
Raw,23,8800,336
Raw,26,8805,336
Raw,32,8807,336
Raw,35,8813,336
Raw,40,8815,336
Raw,77,8817,336
Raw,12,8819,336
Raw,58,8822,336
Raw,84,8824,336
Raw,55,8828,336
Raw,24,8833,336
Raw,25,8836,336
Raw,37,8838,336
Raw,27,8838,336
Raw,34,8839,336
Raw,22,8840,336
Raw,38,8841,336
Raw,23,8843,336
Raw,73,8845,336
Raw,12,8845,336
Raw,41,8847,336
Raw,22,8848,336
Raw,22,8851,336
Raw,15,8852,336
Raw,34,8852,336
Raw,26,8855,336
Raw,33,8858,336
Raw,62,8860,336
Raw,24,8864,336
Raw,13,8870,336
Raw,36,8871,336
Raw,32,8871,336
Raw,28,8873,336
Raw,17,8873,336
Raw,54,8876,336
Raw,14,8876,336
Raw,19,8876,336
Raw,30,8877,336
Raw,15,8878,336
Raw,96,8881,336
Raw,31,8882,336
Raw,59,8883,336
Raw,97,8885,336
Raw,75,8886,336
Raw,62,8887,336
Raw,24,8889,336
Raw,24,8894,336
Raw,42,8897,336
Raw,29,8898,336
Raw,55,8903,336
Raw,32,8908,336
Raw,33,8911,336
Raw,13,8914,336
Raw,13,8915,336
Raw,70,8921,336
Raw,9,8923,336
Raw,35,8931,336
Raw,90,8933,336
Raw,33,8935,336
Raw,84,8939,336
Raw,37,8945,336
Raw,23,8948,336
Raw,78,8952,336
Raw,22,8954,336
Raw,16,8955,336
Raw,47,8959,336
Raw,48,8962,336
Raw,50,8964,336
Raw,35,8966,336
Raw,36,8966,336
Raw,42,8968,336
Raw,21,8969,336
Raw,61,8970,336
Raw,62,8971,336
Raw,33,8971,336
Raw,93,8974,336
Raw,28,8975,336
Raw,53,8977,336
Raw,51,8978,336
Raw,29,8980,336
Raw,34,8981,336
Raw,11,8983,336
Raw,25,8985,336
Raw,32,8989,336
Raw,57,8995,336
Raw,28,8995,336
Raw,32,8996,336
Raw,75,8999,336
Raw,62,9001,336
Raw,59,9003,336
Raw,70,9005,336
Raw,46,9007,336
Raw,98,9010,336
Raw,86,9011,336
Raw,48,9015,336
Raw,36,9017,336
Raw,19,9019,336
Raw,27,9020,336
Raw,31,9022,336
Raw,24,9025,336
Raw,61,9028,336
Raw,58,9030,336
Raw,32,9030,336
Raw,53,9032,336
Raw,15,9036,336
Raw,16,9042,336
Raw,20,9046,336
Raw,41,9049,336
Raw,20,9058,336
Raw,41,9058,336
Raw,38,9059,336
Raw,62,9062,336
Raw,20,9069,336
Raw,40,9071,336
Raw,28,9074,336
Raw,37,9076,336
Raw,12,9076,336
Raw,28,9077,336
Raw,53,9079,336
Raw,32,9079,336
Raw,32,9080,336
Raw,34,9081,336
Raw,39,9082,336
Raw,35,9083,336
Raw,31,9084,336
