Cut?,Counts,eventNumber,runNumber
Raw,57757.267,0,339
Raw,1.44377819e+05,1,339
Raw,52130.114,2,339
Raw,57781.58,3,339
Raw,71455.3,4,339
Raw,38859.788,4,339
Raw,59099.502,5,339
Raw,37344.513,6,339
Raw,58544.104,6,339
Raw,52851.074,7,339
Raw,24187.42,7,339
Raw,1.03591763e+05,8,339
Raw,1.60353931e+05,9,339
Raw,58511.697,10,339
Raw,10478.337,10,339
Raw,42207.498,11,339
Raw,30276.212,11,339
Raw,51372.481,12,339
Raw,1.40193964e+05,13,339
Raw,76569.407,14,339
Raw,66771.666,14,339
Raw,1.02970159e+05,15,339
Raw,1.57721073e+05,16,339
Raw,50503.722,17,339
Raw,80112.763,19,339
Raw,47261.414,23,339
Raw,71536.017,23,339
Raw,52311.261,24,339
Raw,24193.477,24,339
Raw,1.27891468e+05,25,339
Raw,45789.061,25,339
Raw,31480.893,25,339
Raw,66835.506,26,339
Raw,1.30493053e+05,27,339
Raw,97723.569,30,339
Raw,57459.778,31,339
Raw,52685.843,31,339
Raw,55237.22,34,339
Raw,99084.173,36,339
Raw,12084.213,37,339
Raw,41212.17,37,339
Raw,1.42884261e+05,38,339
Raw,1.66788086e+05,39,339
Raw,87326.172,40,339
Raw,84039.17,42,339
Raw,32298.031,42,339
Raw,56101.327,43,339
Raw,25605.681,43,339
Raw,75258.895,45,339
Raw,89799.838,46,339
Raw,60073.824,47,339
Raw,26747.019,47,339
Raw,1.206285e+05,49,339
Raw,1.08716086e+05,50,339
Raw,1.25582182e+05,51,339
Raw,57714.662,52,339
Raw,21060.002,52,339
Raw,65502.747,53,339
Raw,1.11675686e+05,53,339
Raw,38884.706,54,339
Raw,30058.779,56,339
Raw,1.73816172e+05,56,339
Raw,59917.068,57,339
Raw,89095.653,58,339
Raw,31768.936,59,339
Raw,41506.834,59,339
Raw,1.59723217e+05,60,339
Raw,34043.53,61,339
Raw,82913.135,62,339
Raw,48403.587,63,339
Raw,50967.293,64,339
Raw,37930.553,64,339
Raw,1.69356569e+05,65,339
Raw,99868.753,66,339
Raw,84540.021,68,339
Raw,88893.615,69,339
Raw,1.6011766e+05,70,339
Raw,1.14308639e+05,72,339
Raw,1.2368855e+05,73,339
Raw,1.71942474e+05,74,339
Raw,23915.389,74,339
Raw,81738.858,75,339
Raw,1.46549427e+05,77,339
Raw,31547.155,77,339
Raw,76546.27,78,339
Raw,68802.431,78,339
Raw,59591.853,79,339
Raw,57022.403,80,339
Raw,87880.316,81,339
Raw,1.10458648e+05,82,339
Raw,72608.794,83,339
Raw,45372.454,84,339
Raw,30440.185,84,339
Raw,68252.092,85,339
Raw,51441.354,86,339
Raw,43932.767,87,339
Raw,51741.848,88,339
Raw,51802.547,88,339
Raw,47678.496,89,339
Raw,41137.349,91,339
Raw,80576.403,92,339
Raw,53360.009,93,339
Raw,95147.052,94,339
Raw,33882.753,95,339
Raw,27202.74,96,339
Raw,21148.97,97,339
Raw,46198.367,97,339
Raw,77290.106,98,339
Raw,52775.078,99,339
Raw,81722.989,100,339
Raw,1.08613894e+05,102,339
Raw,39725.1,102,339
Raw,36253.955,103,339
Raw,72597.724,103,339
Raw,48034.405,105,339
Raw,82743.21,106,339
Raw,28710.403,107,339
Raw,67857.596,108,339
Raw,65485.003,109,339
Raw,38587.752,110,339
Raw,1.2692907e+05,111,339
Raw,77538.826,112,339
Raw,50986.394,113,339
Raw,76848.256,114,339
Raw,29757.715,114,339
Raw,56346.727,115,339
Raw,60363.667,116,339
Raw,27640.076,118,339
Raw,35786.818,118,339
Raw,71914.101,118,339
Raw,1.09593133e+05,119,339
Raw,1.22163036e+05,123,339
Raw,1.5315548e+05,124,339
Raw,81454.697,124,339
Raw,20234.045,126,339
Raw,65255.807,127,339
Raw,74767.402,127,339
Raw,99260.217,130,339
Raw,34273.16,130,339
Raw,64568.111,131,339
Raw,26572.037,131,339
Raw,68223.313,132,339
Raw,58994.217,133,339
Raw,97641.538,134,339
Raw,55609.488,135,339
Raw,1.0049445e+05,136,339
Raw,35029.675,136,339
Raw,38058.649,138,339
Raw,50998.891,138,339
Raw,22493.318,138,339
Raw,85519.52,139,339
Raw,45308.471,140,339
Raw,80517.789,141,339
Raw,66854.239,142,339
Raw,1.02350762e+05,143,339
Raw,64414.382,145,339
Raw,68961.666,146,339
Raw,37283.508,146,339
Raw,1.58362436e+05,147,339
Raw,32866.626,148,339
Raw,1.04541015e+05,149,339
Raw,18495.397,149,339
Raw,52916.64,150,339
Raw,33798.142,151,339
Raw,1.08526177e+05,153,339
Raw,48733.765,154,339
Raw,72760.627,155,339
Raw,77903.26,156,339
Raw,1.34187991e+05,157,339
Raw,57631.199,157,339
Raw,33804.583,158,339
Raw,1.51688465e+05,159,339
Raw,1.09768493e+05,160,339
Raw,89688.579,161,339
Raw,13812.623,161,339
Raw,25393.657,161,339
Raw,67059.655,163,339
Raw,35890.696,164,339
Raw,58626.311,165,339
Raw,32312.745,165,339
Raw,54612.656,166,339
Raw,1.52550533e+05,168,339
Raw,60868.652,169,339
Raw,40798.442,169,339
Raw,58364.561,171,339
Raw,46217.5,172,339
Raw,80294.587,173,339
Raw,83625.545,174,339
Raw,1.33447295e+05,174,339
Raw,39533.688,176,339
Raw,35224.328,176,339
Raw,40804.508,177,339
Raw,1.07376884e+05,178,339
Raw,1.03197298e+05,179,339
Raw,1.59302427e+05,180,339
Raw,83520.174,181,339
Raw,70001.31,182,339
Raw,24173.925,182,339
Raw,36050.579,182,339
Raw,1.26193854e+05,184,339
Raw,77878.189,185,339
Raw,82985.124,186,339
Raw,89715.365,187,339
Raw,1.68145524e+05,188,339
Raw,23933.11,189,339
Raw,36281.491,189,339
Raw,23581.265,189,339
Raw,1.00551413e+05,190,339
Raw,47466.575,190,339
Raw,89076.654,191,339
Raw,41683.175,192,339
Raw,85163.391,193,339
Raw,98649.826,193,339
Raw,1.03934215e+05,194,339
Raw,1.2551214e+05,196,339
Raw,39750.348,196,339
Raw,33610.297,197,339
Raw,13710.556,197,339
Raw,13196.218,197,339
Raw,1.66742597e+05,198,339
Raw,47832.569,199,339
Raw,71246.387,199,339
Raw,25247.087,200,339
Raw,74764.771,200,339
Raw,66558.145,201,339
Raw,33321.368,201,339
Raw,81240.23,202,339
Raw,23236.395,203,339
Raw,88551.264,203,339
Raw,49979.207,204,339
Raw,33680.872,205,339
Raw,1.67338436e+05,208,339
Raw,1.62312179e+05,209,339
Raw,55651.842,210,339
Raw,1.50401168e+05,211,339
Raw,40182.509,211,339
Raw,1.21006526e+05,212,339
Raw,1.40637202e+05,213,339
Raw,94908.608,214,339
Raw,53044.898,214,339
Raw,42507.518,216,339
Raw,23335.577,216,339
Raw,1.73394931e+05,217,339
Raw,76426.53,218,339
Raw,53530.258,219,339
Raw,81430.943,220,339
Raw,1.20469093e+05,221,339
Raw,73060.299,222,339
Raw,28441.641,222,339
Raw,72460.384,224,339
Raw,28097.162,225,339
Raw,79759.049,225,339
Raw,62239.696,227,339
Raw,1.15235279e+05,229,339
Raw,1.32455962e+05,230,339
Raw,39863.407,231,339
Raw,92065.934,231,339
Raw,43889.711,232,339
Raw,1.20505403e+05,232,339
Raw,53662.182,233,339
Raw,39979.345,235,339
Raw,89110.589,235,339
Raw,74107.858,236,339
Raw,72932.428,237,339
Raw,62455.901,238,339
Raw,49407.196,239,339
Raw,45861.744,240,339
Raw,25292.657,240,339
Raw,1.41782362e+05,241,339
Raw,49783.707,241,339
Raw,82600.786,242,339
Raw,65215.216,242,339
Raw,70349.118,243,339
Raw,83585.796,243,339
Raw,76841.924,244,339
Raw,18039.067,247,339
Raw,58764.827,249,339
Raw,1.08038142e+05,250,339
Raw,1.54110462e+05,251,339
Raw,41391.527,252,339
Raw,44945.604,252,339
Raw,71153.357,253,339
Raw,85435.644,254,339
Raw,1.49596428e+05,255,339
Raw,1.05376937e+05,256,339
Raw,24222.919,256,339
Raw,30591.686,257,339
Raw,1.42454624e+05,258,339
Raw,1.53161835e+05,259,339
Raw,56734.328,260,339
Raw,86365.646,260,339
Raw,97662.935,261,339
Raw,1.03561274e+05,261,339
Raw,77916.009,262,339
Raw,1.03428906e+05,263,339
Raw,98526.56,264,339
Raw,32831.054,265,339
Raw,72306.73,266,339
Raw,1.17485017e+05,267,339
Raw,20440.94,267,339
Raw,1.46085345e+05,268,339
Raw,59247.171,269,339
Raw,1.6705226e+05,270,339
Raw,88834.288,271,339
Raw,1.70562616e+05,272,339
Raw,20607.237,272,339
Raw,91241.099,275,339
Raw,58204.153,276,339
Raw,54491.089,278,339
Raw,36510.31,278,339
Raw,35744.019,280,339
Raw,21902.483,280,339
Raw,32097.7,282,339
Raw,92124.059,282,339
Raw,53007.648,283,339
Raw,67787.152,284,339
Raw,32404.757,287,339
Raw,65727.412,288,339
Raw,55451.082,289,339
Raw,36639.592,289,339
Raw,29330.218,289,339
Raw,1.16928076e+05,291,339
Raw,1.10061429e+05,293,339
Raw,58995.117,295,339
Raw,58194.947,296,339
Raw,1.14288703e+05,297,339
Raw,1.1714125e+05,299,339
Raw,60796.455,303,339
Raw,61761.414,304,339
Raw,49760.02,304,339
Raw,46922.761,305,339
Raw,55005.646,307,339
Raw,79734.191,308,339
Raw,20433.355,308,339
Raw,34203.286,311,339
Raw,1.30095913e+05,312,339
Raw,63342.276,314,339
Raw,34182.994,314,339
Raw,55513.239,316,339
Raw,81804.308,317,339
Raw,59890.206,318,339
Raw,77774.849,320,339
Raw,30916.288,321,339
Raw,75178.926,321,339
Raw,1.4857281e+05,323,339
Raw,42595.845,326,339
Raw,58570.986,327,339
Raw,70840.112,328,339
Raw,77523.991,330,339
Raw,73052.402,332,339
Raw,31664.196,333,339
Raw,1.1608998e+05,333,339
Raw,96477.986,334,339
Raw,23555.586,334,339
Raw,70352.622,335,339
Raw,34541.951,337,339
Raw,32618.144,338,339
Raw,99614.581,338,339
Raw,1.11980496e+05,341,339
Raw,36285.21,342,339
Raw,37232.641,342,339
Raw,1.12220131e+05,343,339
Raw,80466.219,343,339
Raw,54204.508,345,339
Raw,24000.818,346,339
Raw,45048.954,346,339
Raw,40501.221,347,339
Raw,62338.57,348,339
Raw,40955.955,350,339
Raw,1.11142026e+05,350,339
Raw,1.29910275e+05,351,339
Raw,1.08722655e+05,352,339
Raw,22778.658,353,339
Raw,6827.2519,353,339
Raw,1.03959403e+05,354,339
Raw,42929.877,354,339
Raw,1.40361712e+05,355,339
Raw,66850.79,356,339
Raw,22712.268,356,339
Raw,44596.51,357,339
Raw,58218.975,358,339
Raw,1.11194303e+05,359,339
Raw,1.03598936e+05,361,339
Raw,64483.787,362,339
Raw,68813.378,363,339
Raw,41195.741,364,339
Raw,1.50283047e+05,366,339
Raw,16292.396,367,339
Raw,75159.391,368,339
Raw,46594.036,368,339
Raw,1.36465861e+05,369,339
Raw,1.71816954e+05,370,339
Raw,56784.406,371,339
Raw,30198.788,372,339
Raw,45322.101,373,339
Raw,38641.262,373,339
Raw,51388.938,374,339
Raw,71644.357,375,339
Raw,1.68667276e+05,376,339
Raw,55207.666,377,339
Raw,1.53858175e+05,378,339
Raw,61857.317,378,339
Raw,26507.638,378,339
Raw,66400.408,379,339
Raw,71355.183,380,339
Raw,1.12318134e+05,381,339
Raw,66851.978,384,339
Raw,65533.156,384,339
Raw,56978.439,387,339
Raw,30709.06,387,339
Raw,92774.136,390,339
Raw,1.02098784e+05,391,339
Raw,19038.144,391,339
Raw,1.57136343e+05,392,339
Raw,99768.146,393,339
Raw,50993.834,394,339
Raw,44417.191,394,339
Raw,53931.435,395,339
Raw,40099.603,396,339
Raw,1.15862917e+05,396,339
Raw,30216.363,397,339
Raw,1.15617508e+05,397,339
Raw,65342.183,398,339
Raw,55199.044,401,339
Raw,41169.925,401,339
Raw,1.11607526e+05,402,339
Raw,53519.923,403,339
Raw,94086.7,405,339
Raw,51607.479,406,339
Raw,14337.046,407,339
Raw,1.05925341e+05,407,339
Raw,10292.387,408,339
Raw,53840.33,408,339
Raw,92948.813,409,339
Raw,86634.595,410,339
Raw,64730.132,411,339
Raw,28081.683,411,339
Raw,1.0303658e+05,412,339
Raw,22556.499,412,339
Raw,35165.611,413,339
Raw,80817.013,414,339
Raw,65889.522,418,339
Raw,70705.249,419,339
Raw,10310.329,420,339
Raw,84684.47,421,339
Raw,1.05323271e+05,422,339
Raw,1.07987979e+05,423,339
Raw,55812.07,424,339
Raw,67181.306,425,339
Raw,68087.697,428,339
Raw,59869.832,429,339
Raw,1.7405123e+05,430,339
Raw,1.05833453e+05,431,339
Raw,31868.072,431,339
Raw,30944.276,433,339
Raw,45403.171,434,339
Raw,6894.6909,434,339
Raw,73496.927,436,339
Raw,30146.13,436,339
Raw,65839.8,437,339
Raw,1.22412698e+05,437,339
Raw,77320.589,439,339
Raw,1.36646387e+05,440,339
Raw,60879.022,441,339
Raw,55438.199,443,339
Raw,22815.673,444,339
Raw,90015.893,445,339
Raw,61716.212,447,339
Raw,27519.935,448,339
Raw,92945.156,449,339
Raw,94447.984,449,339
Raw,41077.874,450,339
Raw,91872.795,450,339
Raw,62054.537,451,339
Raw,97235.844,452,339
Raw,57401.233,453,339
Raw,76279.05,454,339
Raw,1.4874851e+05,454,339
Raw,1.55412898e+05,455,339
Raw,52489.245,456,339
Raw,1.08474061e+05,457,339
Raw,27538.482,457,339
Raw,43323.988,458,339
Raw,68598.974,458,339
Raw,1.04225317e+05,459,339
Raw,11122.241,460,339
Raw,1.29548497e+05,460,339
Raw,83672.757,461,339
Raw,68398.879,462,339
Raw,41027.68,463,339
Raw,65451.373,463,339
Raw,87046.858,466,339
Raw,1.24029156e+05,466,339
Raw,27045.404,466,339
Raw,1.48066913e+05,467,339
Raw,71447.124,468,339
Raw,1.66367752e+05,469,339
Raw,49645.057,471,339
Raw,77874.938,472,339
Raw,77249.461,474,339
Raw,48883.959,475,339
Raw,1.29810102e+05,476,339
Raw,40434.091,478,339
Raw,61454.296,479,339
Raw,55599.563,480,339
Raw,31398.029,481,339
Raw,55504.203,482,339
Raw,74501.967,483,339
Raw,53814.187,484,339
Raw,59130.85,486,339
Raw,60056.159,487,339
Raw,33728.075,489,339
Raw,61444.195,489,339
Raw,1.22695384e+05,490,339
Raw,95686.383,492,339
Raw,58835.015,493,339
Raw,28557.469,493,339
Raw,52033.613,493,339
Raw,57077.893,494,339
Raw,1.02245376e+05,495,339
Raw,55762.635,496,339
Raw,69827.696,496,339
Raw,45600.417,500,339
Raw,63825.719,500,339
Raw,1.03121176e+05,501,339
Raw,52916.247,504,339
Raw,59775.531,504,339
Raw,55280.638,505,339
Raw,56513.805,506,339
Raw,33020.639,506,339
Raw,63817.838,508,339
Raw,34172.394,508,339
Raw,38967.102,510,339
Raw,45208.942,511,339
Raw,26139.75,511,339
Raw,1.08450252e+05,512,339
Raw,63633.828,513,339
Raw,75565.466,514,339
Raw,75166.87,515,339
Raw,55918.703,517,339
Raw,33856.076,517,339
Raw,50888.007,518,339
Raw,54450.079,519,339
Raw,47249.485,519,339
Raw,1.27229302e+05,520,339
Raw,23568.516,521,339
Raw,46781.746,523,339
Raw,1.60573982e+05,524,339
Raw,1.10377701e+05,525,339
Raw,24044.845,526,339
Raw,12965.725,526,339
Raw,28064.18,527,339
Raw,1.60197315e+05,528,339
Raw,35940.784,528,339
Raw,78576.87,530,339
Raw,1.23823828e+05,531,339
Raw,1.14446885e+05,532,339
Raw,1.27153675e+05,533,339
Raw,99585.683,534,339
Raw,1.10204041e+05,536,339
Raw,53099.955,537,339
Raw,88502.729,538,339
Raw,46409.305,539,339
Raw,28738.254,540,339
Raw,48997.551,541,339
Raw,81724.813,542,339
Raw,55821.508,545,339
Raw,42921.623,545,339
Raw,71005.096,546,339
Raw,1.14629501e+05,547,339
Raw,39989.157,548,339
Raw,48747.495,549,339
Raw,20213.42,549,339
Raw,51593.732,550,339
Raw,59913.314,551,339
Raw,45262.981,552,339
Raw,49375.253,552,339
Raw,77447.101,553,339
Raw,63740.715,555,339
Raw,24973.242,555,339
Raw,44051.611,556,339
Raw,94734.652,557,339
Raw,68613.973,558,339
Raw,54822.53,560,339
Raw,49085.172,561,339
Raw,23545.278,562,339
Raw,43748.464,562,339
Raw,65058.338,563,339
Raw,96887.358,564,339
Raw,45851.984,565,339
Raw,1.26566092e+05,566,339
Raw,88325.183,568,339
Raw,97993.287,570,339
Raw,45827.892,571,339
Raw,54738.889,572,339
Raw,72862.008,573,339
Raw,70540.476,578,339
Raw,34452.149,578,339
Raw,34977.759,579,339
Raw,1.02917475e+05,580,339
Raw,28680.505,581,339
Raw,48547.807,582,339
Raw,16768.263,583,339
Raw,51577.505,584,339
Raw,59794.15,584,339
Raw,1.59620762e+05,585,339
Raw,65790.928,587,339
Raw,1.29593e+05,588,339
Raw,59144.153,589,339
Raw,1.14329738e+05,590,339
Raw,54787.085,591,339
Raw,53805.247,591,339
Raw,69816.789,592,339
Raw,90080.521,593,339
Raw,74140.284,594,339
Raw,55137.942,595,339
Raw,98368.873,597,339
Raw,91539.204,599,339
Raw,62934.164,600,339
Raw,1.02843493e+05,601,339
Raw,40494.573,601,339
Raw,58078.062,602,339
Raw,65152.164,603,339
Raw,63859.242,605,339
Raw,21917.325,606,339
Raw,1.19660728e+05,608,339
Raw,38635.854,609,339
Raw,49190.438,610,339
Raw,59454.462,610,339
Raw,61449.538,611,339
Raw,78309.964,612,339
Raw,73804.072,613,339
Raw,1.38399778e+05,614,339
Raw,1.32634647e+05,616,339
Raw,1.23294042e+05,616,339
Raw,53924.24,617,339
Raw,78558.972,618,339
Raw,31981.371,619,339
Raw,54457.287,620,339
Raw,67252.673,623,339
Raw,56871.323,624,339
Raw,86590.524,624,339
Raw,29907.838,627,339
Raw,60934.813,627,339
Raw,39982.904,627,339
Raw,81279.297,628,339
Raw,81189.326,631,339
Raw,65279.851,632,339
Raw,1.43905454e+05,633,339
Raw,40963.51,633,339
Raw,1.48645192e+05,634,339
Raw,62907.848,635,339
Raw,1.14559193e+05,636,339
Raw,33461.85,636,339
Raw,1.36911445e+05,637,339
Raw,73311.208,638,339
Raw,36694.031,638,339
Raw,52970.87,639,339
Raw,72145.87,640,339
Raw,48066.928,641,339
Raw,81547.231,642,339
Raw,23397.23,643,339
Raw,1.16585308e+05,643,339
Raw,59171.638,644,339
Raw,24573.569,644,339
Raw,22689.036,645,339
Raw,1.30831224e+05,645,339
Raw,94521.052,647,339
Raw,67109.859,648,339
Raw,63072.889,648,339
Raw,1.45370551e+05,649,339
Raw,52664.872,652,339
Raw,88195.457,653,339
Raw,1.1406731e+05,654,339
Raw,52011.135,655,339
Raw,93343.989,656,339
Raw,1.54738661e+05,657,339
Raw,1.31398683e+05,658,339
Raw,56806.015,659,339
Raw,98470.475,660,339
Raw,57334.68,662,339
Raw,34584.56,666,339
Raw,95001.328,666,339
Raw,1.54246619e+05,667,339
Raw,53066.45,668,339
Raw,12063.989,668,339
Raw,71043.675,670,339
Raw,27445.954,670,339
Raw,11767.679,670,339
Raw,81060.155,671,339
Raw,86763.73,672,339
Raw,1.17228757e+05,673,339
Raw,46513.181,673,339
Raw,1.31863863e+05,674,339
Raw,1.15363023e+05,675,339
Raw,82408.512,676,339
Raw,1.48418059e+05,677,339
Raw,33040.214,677,339
Raw,15476.994,678,339
Raw,86598.539,679,339
Raw,1.06821052e+05,679,339
Raw,1.05480613e+05,680,339
Raw,1.22594982e+05,681,339
Raw,78905.962,682,339
Raw,45814.526,683,339
Raw,1.45699161e+05,684,339
Raw,25569.616,685,339
Raw,1.60323368e+05,685,339
Raw,71283.582,686,339
Raw,1.15950439e+05,686,339
Raw,1.3245956e+05,687,339
Raw,85519.63,687,339
Raw,46861.02,688,339
Raw,46151.138,688,339
Raw,71451.853,689,339
Raw,36882.579,691,339
Raw,29860.859,691,339
Raw,83961.27,691,339
Raw,42041.132,692,339
Raw,1.67381715e+05,693,339
Raw,74696.661,694,339
Raw,70673.727,695,339
Raw,67232.549,696,339
Raw,1.51362417e+05,697,339
Raw,1.17216159e+05,698,339
Raw,35676.339,698,339
Raw,1.23004322e+05,699,339
Raw,85705.338,700,339
Raw,26197.81,701,339
Raw,6488.1393,701,339
Raw,1.14506922e+05,702,339
Raw,1.23228282e+05,704,339
Raw,67812.083,704,339
Raw,1.29405028e+05,705,339
Raw,52869.496,706,339
Raw,1.00994388e+05,707,339
Raw,20869.91,708,339
Raw,1.14617636e+05,709,339
Raw,71013.321,711,339
Raw,9488.3728,711,339
Raw,62487.162,713,339
Raw,8265.1853,713,339
Raw,1.66308148e+05,715,339
Raw,56905.108,716,339
Raw,1.24682129e+05,716,339
Raw,1.47560768e+05,717,339
Raw,58492.365,719,339
Raw,60280.686,720,339
Raw,30796.787,721,339
Raw,94393.508,722,339
Raw,33788.233,722,339
Raw,1.48729758e+05,723,339
Raw,48115.604,724,339
Raw,50007.509,725,339
Raw,31356.794,725,339
Raw,94615.793,727,339
Raw,1.05010732e+05,728,339
Raw,56944.147,729,339
Raw,1.33204809e+05,730,339
Raw,30286.451,731,339
Raw,59933.123,731,339
Raw,54799.556,731,339
Raw,82598.519,732,339
Raw,76047.274,733,339
Raw,33266.753,734,339
Raw,55851.936,735,339
Raw,6368.7966,735,339
Raw,90013.349,736,339
Raw,19321.978,737,339
Raw,30725.731,737,339
Raw,1.10941824e+05,737,339
Raw,57469.521,738,339
Raw,60530.537,738,339
Raw,1.49803611e+05,739,339
Raw,56462.62,740,339
Raw,60373.197,740,339
Raw,82113.856,742,339
Raw,24471.215,743,339
Raw,1.726921e+05,743,339
Raw,1.28925312e+05,745,339
Raw,1.52300939e+05,747,339
Raw,1.66973266e+05,748,339
Raw,88797.766,749,339
Raw,15984.769,752,339
Raw,1.15735066e+05,753,339
Raw,85858.216,755,339
Raw,87572.914,757,339
Raw,70501.287,758,339
Raw,69257.238,758,339
Raw,56057.2,759,339
Raw,83411.46,760,339
Raw,50459.492,761,339
Raw,41077.761,761,339
Raw,84606.124,763,339
Raw,83831.962,765,339
Raw,17996.73,766,339
Raw,59180.058,768,339
Raw,1.2979615e+05,770,339
Raw,61766.066,771,339
Raw,31535.699,771,339
Raw,75775.114,772,339
Raw,1.35793605e+05,773,339
Raw,1.01708426e+05,774,339
Raw,27817.711,774,339
Raw,66747.622,775,339
Raw,44461.235,776,339
Raw,32837.58,776,339
Raw,87369.097,777,339
Raw,80520.559,778,339
Raw,14477.083,779,339
Raw,91710.103,780,339
Raw,72425.979,781,339
Raw,65825.434,782,339
Raw,1.42189814e+05,783,339
Raw,98979.607,784,339
Raw,43785.719,784,339
Raw,1.04268988e+05,785,339
Raw,23397.68,785,339
Raw,92669.344,786,339
Raw,80542.782,786,339
Raw,60328.88,787,339
Raw,31477.929,787,339
Raw,66212.12,788,339
Raw,13723.62,788,339
Raw,77227.053,789,339
Raw,44412.465,790,339
Raw,43217.991,790,339
Raw,78597.126,792,339
Raw,93843.2,794,339
Raw,1.14253786e+05,795,339
Raw,62952.701,796,339
Raw,1.2279671e+05,797,339
Raw,46989.712,798,339
Raw,84871.456,800,339
Raw,59438.624,801,339
Raw,75049.075,802,339
Raw,88190.451,803,339
Raw,87464.04,805,339
Raw,81750.168,806,339
Raw,12107.635,806,339
Raw,52442.77,807,339
Raw,29955.435,808,339
Raw,1.32406729e+05,808,339
Raw,1.05937029e+05,809,339
Raw,60568.653,810,339
Raw,62295.289,812,339
Raw,37056.216,813,339
Raw,1.21856924e+05,814,339
Raw,1.21215667e+05,816,339
Raw,1.30305972e+05,817,339
Raw,1.68838635e+05,818,339
Raw,58296.831,819,339
Raw,71828.778,820,339
Raw,27607.235,821,339
Raw,77282.649,821,339
Raw,62000.079,822,339
Raw,1.37029235e+05,823,339
Raw,1.16804735e+05,824,339
Raw,50611.182,825,339
Raw,78293.878,826,339
Raw,24758.784,827,339
Raw,53135.357,828,339
Raw,25865.813,828,339
Raw,79042.924,829,339
Raw,7046.1852,829,339
Raw,94037.895,830,339
Raw,60013.44,832,339
Raw,1.48139575e+05,833,339
Raw,69414.379,833,339
Raw,98714.837,834,339
Raw,99624.901,836,339
Raw,1.27011071e+05,837,339
Raw,45983.068,837,339
Raw,1.71979269e+05,838,339
Raw,1.36462668e+05,840,339
Raw,40481.646,841,339
Raw,67200.123,842,339
Raw,15260.193,842,339
Raw,54780.717,843,339
Raw,78765.786,844,339
Raw,79348.677,845,339
Raw,49019.279,846,339
Raw,7072.2798,846,339
Raw,1.31816091e+05,847,339
Raw,1.37578826e+05,849,339
Raw,1.49850968e+05,851,339
Raw,61939.377,852,339
Raw,63625.592,853,339
Raw,40746.335,854,339
Raw,43421.464,855,339
Raw,50303.147,855,339
Raw,27926.282,856,339
Raw,72427.744,856,339
Raw,1.47394057e+05,857,339
Raw,95820.376,858,339
Raw,46629.925,858,339
Raw,83772.845,859,339
Raw,1.52920425e+05,860,339
Raw,60718.386,860,339
Raw,1.39447128e+05,862,339
Raw,26006.324,863,339
Raw,1.72050186e+05,864,339
Raw,60638.899,865,339
Raw,8602.62,865,339
Raw,60360.452,866,339
Raw,51215.34,866,339
Raw,1.48215617e+05,867,339
Raw,84389.211,868,339
Raw,72644.051,870,339
Raw,1.25510461e+05,872,339
Raw,1.01449458e+05,874,339
Raw,1.46802776e+05,875,339
Raw,33867.854,877,339
Raw,36406.369,877,339
Raw,67167.441,879,339
Raw,41939.862,880,339
Raw,1.6067576e+05,881,339
Raw,62297.28,884,339
Raw,57226.333,884,339
Raw,20768.593,884,339
Raw,61596.235,886,339
Raw,1.03652048e+05,887,339
Raw,29478.807,888,339
Raw,40852.731,888,339
Raw,22587.587,889,339
Raw,85957.103,890,339
Raw,87282.396,891,339
Raw,1.04464138e+05,892,339
Raw,59022.892,893,339
Raw,50860.968,893,339
Raw,91018.25,894,339
Raw,77489.967,894,339
Raw,60391.731,895,339
Raw,1.06083685e+05,896,339
Raw,1.17278251e+05,897,339
Raw,42025.459,898,339
Raw,44564.444,900,339
Raw,62470.394,900,339
Raw,76930.344,901,339
Raw,59819.286,901,339
Raw,1.42712522e+05,902,339
Raw,40420.206,905,339
Raw,34792.716,905,339
Raw,12737.227,905,339
Raw,97341.488,906,339
Raw,87507.903,908,339
Raw,1.46852041e+05,909,339
Raw,1.02635533e+05,911,339
Raw,35607.32,911,339
Raw,67089.735,913,339
Raw,60328.146,913,339
Raw,1.00677676e+05,914,339
Raw,51413.119,915,339
Raw,1.0999648e+05,916,339
Raw,62303.841,917,339
Raw,36837.092,918,339
Raw,65117.474,919,339
Raw,27931.221,920,339
Raw,1.10578026e+05,921,339
Raw,1.31266897e+05,922,339
Raw,78989.91,923,339
Raw,52956.54,923,339
Raw,29942.47,924,339
Raw,91275.566,924,339
Raw,42521.98,925,339
Raw,68225.528,925,339
Raw,1.17685561e+05,927,339
Raw,1.6164359e+05,928,339
Raw,76242.115,930,339
Raw,1.54198994e+05,931,339
Raw,53097.151,932,339
Raw,90126.37,933,339
Raw,51089.312,934,339
Raw,1.40695002e+05,935,339
Raw,33580.413,935,339
Raw,1.29223115e+05,936,339
Raw,67686.374,937,339
Raw,1.46080245e+05,938,339
Raw,54788.699,938,339
Raw,26440.604,940,339
Raw,91289.4,940,339
Raw,1.47446868e+05,941,339
Raw,1.25673873e+05,942,339
Raw,79706.489,943,339
Raw,85810.992,944,339
Raw,56047.605,945,339
Raw,1.08258526e+05,946,339
Raw,60527.061,947,339
Raw,49038.282,948,339
Raw,98012.686,948,339
Raw,44627.129,949,339
Raw,49560.938,950,339
Raw,74941.8,950,339
Raw,1.24851387e+05,951,339
Raw,85978.703,952,339
Raw,39505.848,952,339
Raw,1.17118201e+05,953,339
Raw,1.11187878e+05,954,339
Raw,50605.87,955,339
Raw,53187.8,955,339
Raw,87041.144,956,339
Raw,35564.577,957,339
Raw,29010.164,957,339
Raw,93315.143,958,339
Raw,1.03350702e+05,959,339
Raw,1.21495625e+05,961,339
Raw,71747.983,961,339
Raw,83912.778,961,339
Raw,56436.839,963,339
Raw,36428.018,963,339
Raw,12804.494,963,339
Raw,49436.744,964,339
Raw,1.18648524e+05,964,339
Raw,1.39977463e+05,965,339
Raw,71889.122,966,339
Raw,1.5186803e+05,967,339
Raw,37915.492,969,339
Raw,59457.329,971,339
Raw,36589.541,972,339
Raw,85437.254,972,339
Raw,1.72253239e+05,973,339
Raw,97014.321,974,339
Raw,58586.36,975,339
Raw,31589.488,976,339
Raw,78185.414,976,339
Raw,40159.733,977,339
Raw,35707.15,977,339
Raw,65062.574,978,339
Raw,80050.151,979,339
Raw,56470.161,980,339
Raw,98957.107,981,339
Raw,53009.381,982,339
Raw,73843.412,983,339
Raw,87593.331,985,339
Raw,1.73460428e+05,985,339
Raw,99038.434,986,339
Raw,1.49685077e+05,987,339
Raw,1.20881162e+05,989,339
Raw,22224.656,990,339
Raw,9743.8111,990,339
Raw,27281.762,991,339
Raw,1.31029709e+05,992,339
Raw,57911.314,993,339
Raw,50307.727,994,339
Raw,35242.007,994,339
Raw,48829.415,995,339
Raw,83670.333,999,339
Raw,55919.951,1000,339
Raw,58452.195,1001,339
Raw,47058.766,1001,339
Raw,48635.611,1002,339
Raw,53036.114,1003,339
Raw,19481.672,1003,339
Raw,67036.567,1005,339
Raw,66078.026,1006,339
Raw,69704.852,1007,339
Raw,80760.427,1009,339
Raw,1.13173942e+05,1010,339
Raw,50234.868,1011,339
Raw,1.1026275e+05,1012,339
Raw,57434.348,1012,339
Raw,1.12739935e+05,1013,339
Raw,42017.893,1013,339
Raw,1.52628129e+05,1015,339
Raw,59175.63,1016,339
Raw,91111.324,1017,339
Raw,1.294225e+05,1018,339
Raw,69267.444,1019,339
Raw,78971.072,1019,339
Raw,62783.11,1020,339
Raw,60351.53,1021,339
Raw,1.03999681e+05,1022,339
Raw,61419.608,1023,339
Raw,71493.575,1024,339
Raw,74572.557,1026,339
Raw,94793.359,1026,339
Raw,1.32798692e+05,1027,339
Raw,63743.964,1028,339
Raw,46655.543,1029,339
Raw,1.17408389e+05,1029,339
Raw,1.17369479e+05,1030,339
Raw,46631.22,1032,339
Raw,42899.852,1032,339
Raw,72965.086,1033,339
Raw,93629.825,1034,339
Raw,1.31873052e+05,1035,339
Raw,1.05880339e+05,1036,339
Raw,1.53410392e+05,1037,339
Raw,54760.882,1038,339
Raw,39224.147,1039,339
Raw,1.30351396e+05,1039,339
Raw,1.41020784e+05,1041,339
Raw,48337.096,1042,339
Raw,30183.606,1043,339
Raw,30721.557,1043,339
Raw,42829.914,1043,339
Raw,85351.559,1044,339
Raw,78908.304,1046,339
Raw,51978.569,1047,339
Raw,31131.18,1048,339
Raw,55302.236,1049,339
Raw,1.22367774e+05,1050,339
Raw,77657.86,1051,339
Raw,23791.535,1051,339
Raw,90333.348,1052,339
Raw,84430.005,1054,339
Raw,41809.168,1055,339
Raw,1.00263529e+05,1055,339
Raw,36619.541,1056,339
Raw,88218.987,1056,339
Raw,60463.677,1058,339
Raw,78173.573,1059,339
Raw,52897.172,1062,339
Raw,42387.861,1062,339
Raw,66107.036,1063,339
Raw,50948.976,1063,339
Raw,83943.885,1064,339
Raw,52915.457,1065,339
Raw,27971.985,1065,339
Raw,89858.57,1066,339
Raw,69248.692,1067,339
Raw,52371.738,1068,339
Raw,50299.21,1069,339
Raw,20575.508,1069,339
Raw,44187.553,1070,339
Raw,33524.729,1071,339
Raw,1.54501941e+05,1071,339
Raw,73807.035,1072,339
Raw,55726.302,1073,339
Raw,1.01079142e+05,1074,339
Raw,93010.497,1075,339
Raw,22072.699,1076,339
Raw,70512.989,1077,339
Raw,18831.547,1077,339
Raw,56205.228,1078,339
Raw,37051.153,1079,339
Raw,31530.891,1079,339
Raw,1.30394267e+05,1080,339
Raw,63486.532,1082,339
Raw,1.58848562e+05,1084,339
Raw,49563.777,1084,339
Raw,1.43392222e+05,1085,339
Raw,59886.266,1088,339
Raw,71785.024,1089,339
Raw,65307.099,1089,339
Raw,1.72677525e+05,1090,339
Raw,29297.42,1091,339
Raw,66724.291,1092,339
Raw,86326.269,1093,339
Raw,73997.533,1094,339
Raw,49122.737,1094,339
Raw,56150.359,1095,339
Raw,1.22990663e+05,1096,339
Raw,26715.774,1097,339
Raw,41972.877,1098,339
Raw,1.03224733e+05,1098,339
Raw,74528.322,1101,339
Raw,44622.575,1104,339
Raw,81618.249,1104,339
Raw,61825.767,1105,339
Raw,1.11129881e+05,1106,339
Raw,99660.678,1106,339
Raw,1.31530246e+05,1107,339
Raw,1.08525079e+05,1108,339
Raw,15332.648,1109,339
Raw,92085.598,1109,339
Raw,88970.952,1111,339
Raw,23972.503,1111,339
Raw,66330.534,1112,339
Raw,6661.2941,1112,339
Raw,1.00944978e+05,1113,339
Raw,13512.246,1113,339
Raw,70364.756,1115,339
Raw,53577.737,1116,339
Raw,13325.816,1116,339
Raw,1.72071096e+05,1117,339
Raw,27029.075,1118,339
Raw,61378.382,1119,339
Raw,43894.285,1120,339
Raw,58538.461,1120,339
Raw,30590.557,1120,339
Raw,56102.102,1121,339
Raw,54882.872,1122,339
Raw,72078.071,1123,339
Raw,29430.799,1124,339
Raw,55610.08,1125,339
Raw,80756.209,1126,339
Raw,53262.243,1128,339
Raw,53338.942,1129,339
Raw,44536.023,1130,339
Raw,1.71907604e+05,1131,339
Raw,57662.918,1132,339
Raw,1.11831968e+05,1133,339
Raw,53340.3,1134,339
Raw,92883.544,1135,339
Raw,1.43187754e+05,1136,339
Raw,50970.337,1136,339
Raw,1.14595389e+05,1137,339
Raw,53555.232,1138,339
Raw,59076.955,1138,339
Raw,1.47460753e+05,1141,339
Raw,62778.538,1142,339
Raw,79446.764,1143,339
Raw,16899.637,1143,339
Raw,1.22433623e+05,1144,339
Raw,38185.801,1145,339
Raw,70045.77,1146,339
Raw,25055.278,1146,339
Raw,1.38209056e+05,1147,339
Raw,53823.464,1148,339
Raw,24230.564,1149,339
Raw,90989.24,1150,339
Raw,57212.969,1151,339
Raw,73074.081,1152,339
Raw,71732.884,1154,339
Raw,75070.885,1155,339
Raw,92454.269,1156,339
Raw,1.67294667e+05,1156,339
Raw,28032.023,1157,339
Raw,13596.787,1157,339
Raw,60845.299,1161,339
Raw,66555.69,1162,339
Raw,71833.503,1163,339
Raw,47502.083,1164,339
Raw,54526.393,1165,339
Raw,96328.091,1165,339
Raw,99436.438,1167,339
Raw,90218.405,1167,339
Raw,68316.12,1168,339
Raw,1.21516322e+05,1170,339
Raw,47398.025,1171,339
Raw,1.27191939e+05,1172,339
Raw,94799.896,1173,339
Raw,82355.751,1174,339
Raw,39164.465,1175,339
Raw,1.01548627e+05,1175,339
Raw,44221.782,1176,339
Raw,59767.307,1177,339
Raw,19129.102,1177,339
Raw,48360.634,1178,339
Raw,97459.987,1179,339
Raw,74875.957,1180,339
Raw,1.56574749e+05,1181,339
Raw,1.55923917e+05,1183,339
Raw,63429.402,1184,339
Raw,20865.904,1184,339
Raw,69183.069,1185,339
Raw,60159.069,1186,339
Raw,1.2427817e+05,1188,339
Raw,99971.504,1190,339
Raw,1.66633871e+05,1191,339
Raw,61869.826,1192,339
Raw,51740.544,1192,339
Raw,1.36548651e+05,1193,339
Raw,73848.992,1194,339
Raw,43439.393,1197,339
Raw,15150.591,1198,339
Raw,88272.476,1198,339
Raw,1.54223921e+05,1199,339
Raw,62374.901,1200,339
Raw,1.44417325e+05,1201,339
Raw,66978.498,1202,339
Raw,1.43367744e+05,1203,339
Raw,36784.494,1203,339
Raw,1.39017706e+05,1204,339
Raw,34625.217,1205,339
Raw,20996.126,1205,339
Raw,89786.784,1206,339
Raw,58394.307,1207,339
Raw,54676.701,1208,339
Raw,87852.638,1210,339
Raw,1.29545689e+05,1211,339
Raw,71288.623,1212,339
Raw,80954.094,1213,339
Raw,77129.992,1213,339
Raw,71809.822,1214,339
Raw,62259.098,1216,339
Raw,1.15158034e+05,1217,339
Raw,37827.539,1218,339
Raw,45452.084,1219,339
Raw,1.16085653e+05,1220,339
Raw,60924.544,1221,339
Raw,44030.54,1221,339
Raw,62792.238,1222,339
Raw,40141.641,1224,339
Raw,86899.443,1225,339
Raw,51245.547,1226,339
Raw,1.22421326e+05,1227,339
Raw,25616.567,1231,339
Raw,47580.627,1233,339
Raw,32073.568,1233,339
Raw,62890.558,1234,339
Raw,47732.601,1235,339
Raw,99378.365,1235,339
Raw,78773.953,1238,339
Raw,73155.685,1240,339
Raw,1.6212676e+05,1241,339
Raw,70948.176,1242,339
Raw,1.18475001e+05,1243,339
Raw,68462.341,1243,339
Raw,50170.841,1245,339
Raw,1.54267367e+05,1246,339
Raw,24603.082,1248,339
Raw,1.1983896e+05,1248,339
Raw,56025.117,1249,339
Raw,25292.148,1250,339
Raw,1.06442964e+05,1251,339
Raw,81419.046,1253,339
Raw,98053.786,1254,339
Raw,66782.279,1255,339
Raw,65178.853,1255,339
Raw,22525.813,1256,339
Raw,28715.321,1257,339
Raw,5246.7184,1257,339
Raw,54158.08,1258,339
Raw,24086.973,1258,339
Raw,1.14761246e+05,1259,339
Raw,42048.724,1260,339
Raw,1.59439635e+05,1260,339
Raw,1.06871371e+05,1261,339
Raw,57819.731,1263,339
Raw,1.66452353e+05,1264,339
Raw,1.7262076e+05,1265,339
Raw,74959.482,1268,339
Raw,1.36739374e+05,1269,339
Raw,26119.809,1269,339
Raw,88669.406,1270,339
Raw,85935.849,1271,339
Raw,99603.12,1272,339
Raw,13772.173,1272,339
Raw,1.38734342e+05,1273,339
Raw,72013.374,1275,339
Raw,58491.926,1276,339
Raw,35443.708,1276,339
Raw,81063.792,1277,339
Raw,53531.473,1278,339
Raw,88590.498,1279,339
Raw,90370.687,1280,339
Raw,67477.339,1280,339
Raw,1.00071641e+05,1282,339
Raw,1.07940734e+05,1284,339
Raw,28515.022,1284,339
Raw,14872.462,1285,339
Raw,1.06483778e+05,1285,339
Raw,64271.78,1286,339
Raw,1.73141906e+05,1287,339
Raw,1.1018399e+05,1288,339
Raw,59005.434,1289,339
Raw,41788.12,1289,339
Raw,63160.121,1290,339
Raw,91285.308,1291,339
Raw,5092.016,1291,339
Raw,43724.302,1292,339
Raw,51611.45,1293,339
Raw,72508.571,1294,339
Raw,66290.545,1295,339
Raw,45342.6,1296,339
Raw,1.07198833e+05,1297,339
Raw,72750.08,1298,339
Raw,38624.3,1298,339
Raw,40069.3,1299,339
Raw,27915.015,1300,339
Raw,1.06460674e+05,1300,339
Raw,27128.617,1300,339
Raw,46727.373,1301,339
Raw,15812.008,1301,339
Raw,20638.727,1302,339
Raw,71660.324,1303,339
Raw,1.06515345e+05,1303,339
Raw,89312.286,1304,339
Raw,57991.486,1305,339
Raw,94850.491,1306,339
Raw,67595.455,1307,339
Raw,62180.674,1307,339
Raw,49040.289,1307,339
Raw,1.09908241e+05,1308,339
Raw,24784.515,1308,339
Raw,1.06502373e+05,1309,339
Raw,90593.926,1309,339
Raw,50103.537,1310,339
Raw,28270.898,1310,339
Raw,51820.087,1311,339
Raw,1.10661576e+05,1314,339
Raw,75454.441,1314,339
Raw,27507.007,1315,339
Raw,1.61943171e+05,1316,339
Raw,1.55169651e+05,1317,339
Raw,86362.701,1318,339
Raw,32771.312,1319,339
Raw,33427.338,1320,339
Raw,35002.195,1320,339
Raw,54381.887,1320,339
Raw,66226.602,1321,339
Raw,71429.701,1322,339
Raw,1.04976628e+05,1323,339
Raw,94919.283,1323,339
Raw,51549.008,1325,339
Raw,40342.791,1325,339
Raw,70102.25,1326,339
Raw,44806.224,1326,339
Raw,1.52872566e+05,1328,339
Raw,69483.207,1328,339
Raw,1.340742e+05,1329,339
Raw,1.03482813e+05,1330,339
Raw,63215.477,1332,339
Raw,55559.685,1333,339
Raw,69452.364,1334,339
Raw,52884.056,1334,339
Raw,1.15308978e+05,1336,339
Raw,30426.76,1337,339
Raw,18637.799,1338,339
Raw,61948.349,1338,339
Raw,99717.412,1338,339
Raw,85226.047,1339,339
Raw,53522.105,1339,339
Raw,8758.9835,1340,339
Raw,46781.028,1340,339
Raw,61781.926,1340,339
Raw,1.52390952e+05,1341,339
Raw,35314.171,1341,339
Raw,1.37502674e+05,1342,339
Raw,23880.963,1344,339
Raw,83587.172,1346,339
Raw,32810.235,1347,339
Raw,68996.083,1348,339
Raw,38511.141,1349,339
Raw,33171.527,1349,339
Raw,51203.75,1350,339
Raw,1.44381714e+05,1350,339
Raw,56352.038,1351,339
Raw,1.71766242e+05,1353,339
Raw,34047.528,1354,339
Raw,60566.252,1355,339
Raw,42045.102,1356,339
Raw,57042.271,1357,339
Raw,44771.122,1357,339
Raw,1.33657989e+05,1358,339
Raw,46585.711,1359,339
Raw,45046.957,1359,339
Raw,74367.576,1360,339
Raw,80099.48,1361,339
Raw,1.30771416e+05,1363,339
Raw,1.00001885e+05,1365,339
Raw,1.20519646e+05,1366,339
Raw,1.59259014e+05,1367,339
Raw,1.50701176e+05,1368,339
Raw,78089.898,1369,339
Raw,45922.119,1370,339
Raw,62592.815,1371,339
Raw,44366.58,1371,339
Raw,74391.232,1373,339
Raw,88405.581,1373,339
Raw,64077.561,1373,339
Raw,36292.636,1374,339
Raw,34338.501,1375,339
Raw,46681.888,1375,339
Raw,51692.31,1376,339
Raw,51817.698,1377,339
Raw,1.2515545e+05,1378,339
Raw,85060.081,1379,339
Raw,1.22625191e+05,1380,339
Raw,50868.631,1381,339
Raw,57507.346,1382,339
Raw,88822.731,1382,339
Raw,1.51849073e+05,1383,339
Raw,61431.207,1384,339
Raw,38753.139,1385,339
Raw,95048.789,1385,339
Raw,67242.493,1386,339
Raw,1.47863914e+05,1387,339
Raw,54653.175,1388,339
Raw,72387.439,1390,339
Raw,8798.7106,1391,339
Raw,63654.185,1392,339
Raw,65470.343,1394,339
Raw,51947.505,1397,339
Raw,51740.333,1397,339
Raw,92202.497,1398,339
Raw,1.73823497e+05,1399,339
Raw,52866.083,1400,339
Raw,39860.827,1400,339
Raw,57737.385,1401,339
Raw,78616.858,1402,339
Raw,97492.529,1403,339
Raw,45270.096,1404,339
Raw,68534.621,1405,339
Raw,35871.788,1405,339
Raw,1.43534179e+05,1406,339
Raw,91124.799,1408,339
Raw,95198.958,1409,339
Raw,66634.739,1410,339
Raw,48886.732,1412,339
Raw,35951.725,1412,339
Raw,65594.289,1413,339
Raw,64944.891,1414,339
Raw,79415.482,1415,339
Raw,1.42573377e+05,1416,339
Raw,99454.773,1417,339
Raw,93555.282,1418,339
Raw,45161.946,1419,339
Raw,58046.545,1420,339
Raw,1.03546661e+05,1421,339
Raw,1.13497189e+05,1422,339
Raw,1.00209572e+05,1423,339
Raw,1.1845505e+05,1425,339
Raw,36264.377,1426,339
Raw,1.64875997e+05,1427,339
Raw,98220.345,1428,339
Raw,90559.56,1429,339
Raw,52219.717,1430,339
Raw,1.13385621e+05,1431,339
Raw,59402.964,1432,339
Raw,1.12585255e+05,1433,339
Raw,1.499244e+05,1434,339
Raw,36166.756,1434,339
Raw,1.26981108e+05,1435,339
Raw,62215.299,1436,339
Raw,63256.85,1438,339
Raw,1.45126336e+05,1438,339
Raw,41961.46,1439,339
Raw,1.40374953e+05,1440,339
Raw,40602.404,1441,339
Raw,51808.015,1443,339
Raw,53194.585,1443,339
Raw,64391.329,1445,339
Raw,1.3899354e+05,1446,339
Raw,1.12113523e+05,1447,339
Raw,75412.053,1448,339
Raw,94616.428,1449,339
Raw,47226.927,1452,339
Raw,13427.573,1452,339
Raw,47056.351,1453,339
Raw,94721.461,1454,339
Raw,1.47053892e+05,1456,339
Raw,73892.74,1457,339
Raw,68257.789,1458,339
Raw,1.37187824e+05,1459,339
Raw,1.16906865e+05,1460,339
Raw,29001.192,1460,339
Raw,97380,1460,339
Raw,61740.45,1461,339
Raw,28588.7,1461,339
Raw,56448.582,1462,339
Raw,36109.94,1463,339
Raw,17144.453,1463,339
Raw,51719.378,1465,339
Raw,25114.376,1465,339
Raw,14790.131,1465,339
Raw,98431.069,1466,339
Raw,63337.782,1467,339
Raw,21332.449,1468,339
Raw,37762.303,1469,339
Raw,1.24560954e+05,1469,339
Raw,55402.923,1472,339
Raw,30342.735,1473,339
Raw,38045.306,1474,339
Raw,35113.457,1474,339
Raw,49436.607,1475,339
Raw,23785.035,1477,339
Raw,71281.942,1477,339
Raw,70066.168,1478,339
Raw,72025.011,1479,339
Raw,1.60192922e+05,1481,339
Raw,1.26079404e+05,1482,339
Raw,67013.737,1483,339
Raw,83432.149,1484,339
Raw,1.46252428e+05,1486,339
Raw,50710.683,1487,339
Raw,50436.489,1489,339
Raw,1.13044427e+05,1490,339
Raw,48882.103,1491,339
Raw,1.06777842e+05,1491,339
Raw,65237.742,1492,339
Raw,97004.209,1493,339
Raw,1.49604596e+05,1494,339
Raw,36325.657,1494,339
Raw,8983.1371,1494,339
Raw,13125.186,1495,339
Raw,17079.381,1495,339
Raw,1.1978025e+05,1497,339
Raw,56831.612,1497,339
Raw,63243.916,1498,339
Raw,1.12033356e+05,1499,339
Raw,77455.892,1500,339
Raw,57529.673,1501,339
Raw,25640.369,1501,339
Raw,22430.914,1502,339
Raw,1.28624041e+05,1503,339
Raw,97096.779,1504,339
Raw,74477.308,1505,339
Raw,55432.866,1506,339
Raw,27015.357,1506,339
Raw,71987.601,1507,339
Raw,22567.605,1507,339
Raw,57542.796,1508,339
Raw,40752.178,1510,339
Raw,1.12460352e+05,1510,339
Raw,48232.392,1511,339
Raw,66856.751,1511,339
Raw,37916.843,1512,339
Raw,23100.049,1512,339
Raw,46288.241,1512,339
Raw,1.4120272e+05,1514,339
Raw,52457.623,1515,339
Raw,49214.194,1516,339
Raw,91339.445,1516,339
Raw,33747.338,1516,339
Raw,62325.908,1517,339
Raw,1.18868096e+05,1518,339
Raw,1.49317416e+05,1519,339
Raw,60631.809,1521,339
Raw,22283.259,1521,339
Raw,52227.611,1522,339
Raw,38781.434,1523,339
Raw,22872.301,1524,339
Raw,17299.065,1524,339
Raw,32396.668,1524,339
Raw,95437.084,1525,339
Raw,23828.272,1527,339
Raw,83233.52,1527,339
Raw,51017.846,1528,339
Raw,31989.65,1528,339
Raw,38055.943,1529,339
Raw,58253.976,1530,339
Raw,56918.974,1531,339
Raw,1.63935329e+05,1532,339
Raw,1.70441244e+05,1533,339
Raw,31457.467,1535,339
Raw,86213.032,1535,339
Raw,1.22363765e+05,1536,339
Raw,88355.223,1537,339
Raw,56273.374,1539,339
Raw,96112.203,1540,339
Raw,39171.922,1540,339
Raw,1.00152251e+05,1541,339
Raw,72692.724,1543,339
Raw,1.09755768e+05,1545,339
Raw,1.67901977e+05,1546,339
Raw,43448.492,1546,339
Raw,80523.259,1547,339
Raw,1.48282269e+05,1548,339
Raw,1.14639225e+05,1549,339
Raw,1.7191827e+05,1551,339
Raw,52259.223,1552,339
Raw,59214.946,1552,339
Raw,30423.227,1552,339
Raw,60152.148,1555,339
Raw,45171.145,1556,339
Raw,91765.784,1558,339
Raw,56869.569,1559,339
Raw,38113.912,1560,339
Raw,46172.903,1560,339
Raw,52894.711,1561,339
Raw,76692.05,1562,339
Raw,36730.223,1563,339
Raw,80932.232,1564,339
Raw,68261.736,1567,339
Raw,19709.127,1567,339
Raw,76810.56,1568,339
Raw,52056.44,1570,339
Raw,1.7412427e+05,1571,339
Raw,1.20929933e+05,1572,339
Raw,1.61065953e+05,1573,339
Raw,30204.485,1573,339
Raw,75560.103,1574,339
Raw,46514.053,1575,339
Raw,77087.238,1575,339
Raw,1.47407911e+05,1576,339
Raw,1.38776357e+05,1577,339
Raw,94001.908,1578,339
Raw,1.54328866e+05,1579,339
Raw,71733.757,1580,339
Raw,32995.936,1581,339
Raw,59081.427,1581,339
Raw,58124.876,1582,339
Raw,30259.457,1583,339
Raw,34641.265,1583,339
Raw,47389.467,1584,339
Raw,64047.803,1586,339
Raw,1.58360899e+05,1588,339
Raw,1.51247901e+05,1589,339
Raw,90196.938,1591,339
Raw,1.56643314e+05,1592,339
Raw,74057.857,1593,339
Raw,49380.728,1594,339
Raw,1.13098075e+05,1595,339
Raw,1.14069364e+05,1596,339
Raw,1.19682862e+05,1597,339
Raw,1.69541348e+05,1597,339
Raw,39690.102,1599,339
Raw,65246.75,1600,339
Raw,89817.284,1601,339
Raw,1.09175256e+05,1603,339
Raw,63709.021,1604,339
Raw,41424.217,1605,339
Raw,77294.989,1605,339
Raw,1.31148226e+05,1606,339
Raw,1.1094916e+05,1607,339
Raw,45604.743,1608,339
Raw,1.54236998e+05,1609,339
Raw,1.61597263e+05,1609,339
Raw,77868.211,1610,339
Raw,43549.444,1610,339
Raw,46376.091,1611,339
Raw,16122.651,1611,339
Raw,72707.682,1612,339
Raw,59870.655,1613,339
Raw,87626.107,1614,339
Raw,66017.489,1614,339
Raw,53803.999,1615,339
Raw,62822.056,1617,339
Raw,1.19189007e+05,1618,339
Raw,1.0353636e+05,1619,339
Raw,40964.28,1621,339
Raw,1.4157721e+05,1622,339
Raw,56480.996,1623,339
Raw,1.29376725e+05,1624,339
Raw,70682.597,1625,339
Raw,14908.627,1625,339
Raw,1.40804525e+05,1626,339
Raw,49993.21,1627,339
Raw,79952.448,1627,339
Raw,61128.617,1628,339
Raw,49126.873,1628,339
Raw,57551.337,1629,339
Raw,11053.559,1629,339
Raw,43010.537,1630,339
Raw,26336.152,1630,339
Raw,1.12324038e+05,1631,339
Raw,33045.627,1632,339
Raw,99767.646,1632,339
Raw,47249.067,1632,339
Raw,58314.709,1634,339
Raw,73617.495,1635,339
Raw,97611.951,1636,339
Raw,49901.296,1637,339
Raw,82203.993,1638,339
Raw,1.18656033e+05,1639,339
Raw,36936.841,1640,339
Raw,77227.635,1641,339
Raw,26329.866,1642,339
Raw,1.10359566e+05,1642,339
Raw,60165.661,1643,339
Raw,60681.733,1644,339
Raw,79636.853,1645,339
Raw,44204.044,1646,339
Raw,1.32871359e+05,1647,339
Raw,62635.621,1649,339
Raw,84474.659,1650,339
Raw,69109.022,1652,339
Raw,17650.508,1652,339
Raw,33500.061,1654,339
Raw,32287.032,1655,339
Raw,33179.039,1655,339
Raw,78824.911,1656,339
Raw,46510.218,1657,339
Raw,55498.896,1658,339
Raw,63581.311,1660,339
Raw,53146.052,1660,339
Raw,28272.163,1661,339
Raw,83671.3,1661,339
Raw,62321.199,1663,339
Raw,36078.78,1663,339
Raw,19200.671,1666,339
Raw,80023.271,1667,339
Raw,1.10416711e+05,1668,339
Raw,65348.843,1669,339
Raw,77082.745,1669,339
Raw,1.11380459e+05,1671,339
Raw,22644.636,1671,339
Raw,1.01863539e+05,1672,339
Raw,1.26926172e+05,1672,339
Raw,91838.169,1673,339
Raw,58251.97,1674,339
Raw,71639.481,1675,339
Raw,66616.416,1676,339
Raw,76360.063,1677,339
Raw,1.40460479e+05,1678,339
Raw,95429.555,1679,339
Raw,55144.85,1680,339
Raw,1.36510099e+05,1681,339
Raw,63123.6,1682,339
Raw,38799.493,1683,339
Raw,45710.898,1684,339
Raw,70063.929,1685,339
Raw,78348.147,1687,339
Raw,30804.878,1689,339
Raw,36426.609,1689,339
Raw,1.63524616e+05,1690,339
Raw,46130.67,1690,339
Raw,1.57451562e+05,1691,339
Raw,62327.326,1691,339
Raw,1.68609587e+05,1693,339
Raw,22031.854,1694,339
Raw,1.19144292e+05,1695,339
Raw,46672.386,1696,339
Raw,33100.894,1696,339
Raw,79868.181,1697,339
Raw,94642.374,1697,339
Raw,96213.448,1698,339
Raw,1.62914364e+05,1699,339
Raw,1.68043962e+05,1700,339
Raw,58432.773,1701,339
Raw,59391.52,1702,339
Raw,1.21543931e+05,1703,339
Raw,43259.991,1703,339
Raw,75182.166,1704,339
Raw,25839.486,1706,339
Raw,61819.087,1706,339
Raw,1.22393065e+05,1707,339
Raw,40251.794,1707,339
Raw,40169.837,1707,339
Raw,1.0432862e+05,1709,339
Raw,43728.704,1710,339
Raw,89528.33,1711,339
Raw,72012.184,1712,339
Raw,59046.611,1713,339
Raw,80115.935,1715,339
Raw,59827.644,1716,339
Raw,96850.395,1717,339
Raw,12764.738,1717,339
Raw,44884.275,1719,339
Raw,28209.423,1719,339
Raw,1.72974055e+05,1720,339
Raw,25400.217,1720,339
Raw,68952.915,1721,339
Raw,62628.209,1722,339
Raw,28538.198,1724,339
Raw,56745.168,1724,339
Raw,29223.339,1725,339
Raw,1.25488759e+05,1725,339
Raw,76487.232,1726,339
Raw,40493.683,1726,339
Raw,84053.943,1727,339
Raw,53732.045,1728,339
Raw,59973.129,1729,339
Raw,69123.011,1730,339
Raw,70871.207,1731,339
Raw,53109.869,1732,339
Raw,30714.728,1732,339
Raw,1.2016845e+05,1733,339
Raw,84487.777,1734,339
Raw,18013.37,1735,339
Raw,55303.922,1736,339
Raw,34292.922,1736,339
Raw,50440.519,1737,339
Raw,1.11044666e+05,1738,339
Raw,85824.737,1739,339
Raw,64232.736,1739,339
Raw,85981.238,1740,339
Raw,91501.481,1741,339
Raw,1.10736666e+05,1742,339
Raw,26293.409,1742,339
Raw,61282.3,1743,339
Raw,1.02307182e+05,1744,339
Raw,32883.408,1744,339
Raw,27333.683,1745,339
Raw,23496.049,1745,339
Raw,55470.501,1748,339
Raw,1.06419027e+05,1750,339
Raw,94488.015,1751,339
Raw,87277.132,1752,339
Raw,65668.119,1753,339
Raw,65490.034,1754,339
Raw,43543.28,1754,339
Raw,28618.229,1755,339
Raw,47497.598,1755,339
Raw,35958.923,1756,339
Raw,71919.745,1756,339
Raw,94641.419,1757,339
Raw,94175.522,1760,339
Raw,45601.103,1760,339
Raw,77171.721,1762,339
Raw,86285.991,1763,339
Raw,58603.65,1765,339
Raw,79085.866,1766,339
Raw,56835.354,1767,339
Raw,72222.474,1769,339
Raw,57959.97,1769,339
Raw,1.4539096e+05,1770,339
Raw,1.4762921e+05,1771,339
Raw,1.05605984e+05,1772,339
Raw,1.50738678e+05,1774,339
Raw,63704.035,1775,339
Raw,44057.324,1776,339
Raw,58721.278,1776,339
Raw,1.44812605e+05,1777,339
Raw,1.04833176e+05,1778,339
Raw,1.72454512e+05,1779,339
Raw,1.15937392e+05,1780,339
Raw,99878.327,1780,339
Raw,49728.131,1781,339
Raw,89679.4,1782,339
Raw,1.32247377e+05,1784,339
Raw,1.48800809e+05,1785,339
Raw,56876.19,1786,339
Raw,84786.813,1786,339
Raw,52556.778,1787,339
Raw,1.30825074e+05,1788,339
Raw,1.12336213e+05,1789,339
Raw,1.1386013e+05,1790,339
Raw,36380.215,1791,339
Raw,61251.129,1792,339
Raw,43999.66,1794,339
Raw,1.0714841e+05,1795,339
Raw,45539.649,1795,339
Raw,63814.566,1796,339
Raw,34696.556,1796,339
Raw,25306.755,1796,339
Raw,57615.387,1797,339
Raw,56897.786,1797,339
Raw,1.06221797e+05,1798,339
Raw,1.56136213e+05,1798,339
Raw,52381.538,1800,339
Raw,46199.813,1800,339
Raw,23538.09,1801,339
Raw,75953.616,1802,339
Raw,54554.238,1802,339
Raw,76245.012,1803,339
Raw,75471.448,1805,339
Raw,76183.323,1806,339
Raw,71507.576,1806,339
Raw,55831.108,1810,339
Raw,58963.797,1811,339
Raw,75984.352,1813,339
Raw,5921.248,1813,339
Raw,65500.355,1815,339
Raw,76194.203,1815,339
Raw,53858.053,1816,339
Raw,49913.671,1816,339
Raw,44690.139,1817,339
Raw,1.45695905e+05,1818,339
Raw,48146.443,1819,339
Raw,1.5256814e+05,1821,339
Raw,52370.464,1821,339
Raw,77728.549,1822,339
Raw,98821.008,1823,339
Raw,1.26750466e+05,1826,339
Raw,1.3530128e+05,1827,339
Raw,75853.438,1828,339
Raw,57603.539,1829,339
Raw,64185.807,1832,339
Raw,66282.705,1833,339
Raw,23305.933,1835,339
Raw,24690.621,1835,339
Raw,64927.928,1836,339
Raw,47500.539,1836,339
Raw,30709.834,1836,339
Raw,79274.598,1838,339
Raw,1.07266311e+05,1839,339
Raw,35394.568,1840,339
Raw,73255.151,1840,339
Raw,53498.229,1841,339
Raw,1.62056223e+05,1842,339
Raw,58587.345,1843,339
Raw,1.36010583e+05,1844,339
Raw,56113.738,1846,339
Raw,23952.674,1846,339
Raw,65599.144,1847,339
Raw,52851.656,1847,339
Raw,1.04192161e+05,1849,339
Raw,28430.653,1850,339
Raw,1.61617982e+05,1851,339
Raw,61057.435,1852,339
Raw,1.49304692e+05,1853,339
Raw,60148.573,1854,339
Raw,67505.628,1855,339
Raw,1.34480373e+05,1857,339
Raw,1.02410998e+05,1858,339
Raw,63818.405,1859,339
Raw,82311.764,1860,339
Raw,62006.026,1861,339
Raw,44108.525,1862,339
Raw,51978.915,1862,339
Raw,99826.1,1863,339
Raw,1.01308247e+05,1864,339
Raw,1.52688133e+05,1865,339
Raw,47627.287,1866,339
Raw,45236.346,1867,339
Raw,59169.698,1868,339
Raw,50642.368,1869,339
Raw,76156.53,1869,339
Raw,1.55281205e+05,1870,339
Raw,79469.431,1870,339
Raw,95117.135,1872,339
Raw,1.41248876e+05,1877,339
Raw,1.07597586e+05,1878,339
Raw,52223.719,1881,339
Raw,36537.836,1881,339
Raw,41363.969,1883,339
Raw,75701.948,1884,339
Raw,45827.169,1885,339
Raw,38851.444,1885,339
Raw,52122.121,1886,339
Raw,15264.973,1888,339
Raw,1.04336794e+05,1889,339
Raw,41113.774,1890,339
Raw,88881.877,1890,339
Raw,1.61287993e+05,1892,339
Raw,1.60268604e+05,1893,339
Raw,78743.486,1894,339
Raw,67867.037,1895,339
Raw,77391.636,1896,339
Raw,1.39747348e+05,1897,339
Raw,76718.862,1898,339
Raw,1.02711194e+05,1899,339
Raw,97723.577,1900,339
Raw,1.45350871e+05,1900,339
Raw,1.10308437e+05,1901,339
Raw,1.08552402e+05,1902,339
Raw,69640.887,1904,339
Raw,76044.384,1905,339
Raw,59644.152,1906,339
Raw,99933.499,1906,339
Raw,1.1146862e+05,1908,339
Raw,46403.622,1908,339
Raw,11415.516,1909,339
Raw,77084.102,1909,339
Raw,1.13994216e+05,1910,339
Raw,1.51484784e+05,1911,339
Raw,36066.343,1912,339
Raw,62952.6,1913,339
Raw,20165.676,1914,339
Raw,69283.707,1914,339
Raw,72335.463,1915,339
Raw,30888.087,1915,339
Raw,1.02511066e+05,1916,339
Raw,90457.386,1917,339
Raw,86468.654,1918,339
Raw,33035.719,1919,339
Raw,1.05059485e+05,1919,339
Raw,80903.377,1924,339
Raw,54599.196,1926,339
Raw,38147.74,1928,339
Raw,22003.115,1928,339
Raw,49955.352,1929,339
Raw,1.27834804e+05,1930,339
Raw,70913.141,1931,339
Raw,68179.149,1932,339
Raw,96858.613,1933,339
Raw,48097.547,1935,339
Raw,1.57253528e+05,1936,339
Raw,18414.526,1936,339
Raw,48377.353,1937,339
Raw,97568.404,1938,339
Raw,59505.155,1939,339
Raw,46787.715,1939,339
Raw,31521.992,1941,339
Raw,1.40343388e+05,1942,339
Raw,30596.158,1945,339
Raw,1.22085349e+05,1945,339
Raw,66610.07,1946,339
Raw,72700.113,1947,339
Raw,51127.824,1948,339
Raw,50671.167,1949,339
Raw,71760.671,1950,339
Raw,48732.008,1950,339
Raw,1.09699898e+05,1951,339
Raw,31423.821,1952,339
Raw,1.16282893e+05,1952,339
Raw,39596.676,1953,339
Raw,74710.427,1953,339
Raw,41525.992,1953,339
Raw,25300.862,1954,339
Raw,92671.473,1955,339
Raw,50849.74,1956,339
Raw,43722.228,1956,339
Raw,1.29514729e+05,1958,339
Raw,1.36868847e+05,1959,339
Raw,1.05462515e+05,1962,339
Raw,1.15550989e+05,1963,339
Raw,1.34193713e+05,1965,339
Raw,62654.618,1966,339
Raw,97125.642,1967,339
Raw,41752.83,1967,339
Raw,73215.031,1968,339
Raw,1.11555186e+05,1970,339
Raw,17152.278,1970,339
Raw,31439.002,1971,339
Raw,61058.34,1972,339
Raw,1.15479377e+05,1973,339
Raw,40238.019,1973,339
Raw,72017.757,1974,339
Raw,63023.45,1976,339
Raw,1.05003511e+05,1977,339
Raw,46095.405,1978,339
Raw,21541.611,1978,339
Raw,62928.889,1979,339
Raw,14031.7,1980,339
Raw,59956.797,1980,339
Raw,1.64778852e+05,1981,339
Raw,43443.071,1982,339
Raw,41664.88,1983,339
Raw,1.03763128e+05,1983,339
Raw,10478.126,1985,339
Raw,46198.846,1985,339
Raw,36663.675,1985,339
Raw,22739.573,1985,339
Raw,1.4750686e+05,1986,339
Raw,96099.779,1988,339
Raw,43939.65,1991,339
Raw,1.21225017e+05,1991,339
Raw,1.13245743e+05,1992,339
Raw,1.17331982e+05,1993,339
Raw,57683.571,1994,339
Raw,78796.499,1995,339
Raw,1.42665886e+05,1996,339
Raw,44451.421,1996,339
Raw,43450.389,1997,339
Raw,95241.663,1997,339
Raw,1.65363313e+05,1998,339
Raw,66422.346,1999,339
Raw,59357.81,2000,339
Raw,31345.212,2002,339
Raw,66166.781,2003,339
Raw,23850.356,2004,339
Raw,1.05916447e+05,2005,339
Raw,78768.537,2006,339
Raw,68481.632,2007,339
Raw,38537.83,2008,339
Raw,66981.704,2009,339
Raw,35432.121,2010,339
Raw,57092.793,2011,339
Raw,46221.444,2012,339
Raw,94491.935,2013,339
Raw,1.42294361e+05,2014,339
Raw,99061.069,2015,339
Raw,52957.169,2016,339
Raw,12754.366,2018,339
Raw,65139.065,2020,339
Raw,1.68324795e+05,2022,339
Raw,63983.655,2023,339
Raw,33870.347,2024,339
Raw,67866.093,2025,339
Raw,85838.176,2026,339
Raw,48246.223,2026,339
Raw,34516.761,2028,339
Raw,47565.885,2029,339
Raw,37510.204,2029,339
Raw,26517.784,2029,339
Raw,1.21803817e+05,2030,339
Raw,55092.546,2032,339
Raw,16904.709,2032,339
Raw,81303.308,2033,339
Raw,89759.61,2034,339
Raw,73225.401,2035,339
Raw,1.04550893e+05,2036,339
Raw,53094.446,2037,339
Raw,1.12374297e+05,2037,339
Raw,42046.485,2038,339
Raw,63769.676,2038,339
Raw,83032.328,2039,339
Raw,87986.005,2039,339
Raw,54285.369,2041,339
Raw,32540.111,2043,339
Raw,1.51301353e+05,2043,339
Raw,21967.165,2044,339
Raw,73697.964,2045,339
Raw,30405.192,2046,339
Raw,31342.134,2046,339
Raw,58995.512,2047,339
Raw,27774.629,2048,339
Raw,1.37235947e+05,2049,339
Raw,77330.193,2050,339
Raw,1.2554445e+05,2051,339
Raw,79372.729,2052,339
Raw,55152.948,2053,339
Raw,1.46127473e+05,2054,339
Raw,4965.4952,2054,339
Raw,59786.371,2055,339
Raw,96926.824,2057,339
Raw,30343.62,2058,339
Raw,1.06260669e+05,2059,339
Raw,50591.329,2059,339
Raw,66550.281,2060,339
Raw,76243.242,2061,339
Raw,30723.699,2061,339
Raw,1.14719535e+05,2062,339
Raw,56089.581,2064,339
Raw,30032.624,2065,339
Raw,47534.628,2066,339
Raw,81058.883,2067,339
Raw,36650.83,2067,339
Raw,49931.635,2068,339
Raw,80781.575,2069,339
Raw,64972.086,2070,339
Raw,1.6271439e+05,2072,339
Raw,27605.386,2072,339
Raw,59957.809,2074,339
Raw,36214.988,2075,339
Raw,69143.376,2077,339
Raw,55794.31,2078,339
Raw,80729.544,2078,339
Raw,79759.003,2079,339
Raw,48277.2,2079,339
Raw,89085.917,2080,339
Raw,63994.285,2081,339
Raw,95899.45,2082,339
Raw,76935.562,2083,339
Raw,58234.684,2085,339
Raw,43980.532,2085,339
Raw,55506.507,2086,339
Raw,61584.247,2087,339
Raw,41505.354,2087,339
Raw,40879.3,2087,339
Raw,54790.423,2088,339
Raw,1.6904928e+05,2089,339
Raw,49104.264,2089,339
Raw,48942.525,2090,339
Raw,1.2663259e+05,2090,339
Raw,1.21011792e+05,2091,339
Raw,45955.737,2091,339
Raw,9700.2273,2092,339
Raw,1.05002482e+05,2093,339
Raw,32782.834,2093,339
Raw,52150.806,2094,339
Raw,48077.321,2095,339
Raw,94050.383,2096,339
Raw,1.00908967e+05,2097,339
Raw,40684.262,2097,339
Raw,17534.091,2097,339
Raw,76279.543,2098,339
Raw,94286.435,2101,339
Raw,1.05736624e+05,2102,339
Raw,52889.544,2102,339
Raw,37317.391,2102,339
Raw,64178.158,2103,339
Raw,57755.471,2105,339
Raw,23016.147,2105,339
Raw,56782.692,2106,339
Raw,33111.169,2106,339
Raw,66862.386,2107,339
Raw,1.09764603e+05,2109,339
Raw,22729.722,2110,339
Raw,1.14305362e+05,2110,339
Raw,67631.15,2111,339
Raw,65331.3,2112,339
Raw,51608.369,2113,339
Raw,35033.919,2114,339
Raw,53654.527,2115,339
Raw,51161.137,2115,339
Raw,46960.939,2116,339
Raw,5193.0314,2116,339
Raw,96991.433,2117,339
Raw,60795.586,2119,339
Raw,1.71453154e+05,2121,339
Raw,65581.814,2126,339
Raw,82831.459,2127,339
Raw,67708.215,2127,339
Raw,52884.291,2128,339
Raw,1.46625593e+05,2129,339
Raw,91364.828,2131,339
Raw,1.58911976e+05,2134,339
Raw,64567.344,2135,339
Raw,1.35552815e+05,2136,339
Raw,47391.378,2137,339
Raw,1.0823839e+05,2138,339
Raw,33110.559,2139,339
Raw,93545.678,2139,339
Raw,1.08866644e+05,2140,339
Raw,1.0447882e+05,2142,339
Raw,74362.577,2143,339
Raw,38520.87,2144,339
Raw,78833.872,2145,339
Raw,1.31039597e+05,2146,339
Raw,64091.997,2147,339
Raw,25027.226,2148,339
Raw,85340.938,2148,339
Raw,73334.457,2153,339
Raw,51006.761,2156,339
Raw,1.63760036e+05,2157,339
Raw,83639.416,2160,339
Raw,58327.019,2160,339
Raw,91461.006,2161,339
Raw,78907.423,2162,339
Raw,60226.096,2163,339
Raw,25706.641,2163,339
Raw,42855.666,2165,339
Raw,25534.011,2166,339
Raw,1.0780518e+05,2166,339
Raw,68356.77,2167,339
Raw,52219.443,2168,339
Raw,55535.171,2168,339
Raw,30603.859,2169,339
Raw,72651.024,2170,339
Raw,53024.793,2171,339
Raw,52587.107,2172,339
Raw,27509.603,2172,339
Raw,48972.339,2172,339
Raw,35742.362,2173,339
Raw,14711.111,2173,339
Raw,20205.914,2173,339
Raw,13627.108,2174,339
Raw,96822.361,2175,339
Raw,71043.166,2176,339
Raw,1.57643151e+05,2177,339
Raw,56667.523,2178,339
Raw,38663.319,2178,339
Raw,34105.052,2180,339
Raw,1.12252648e+05,2181,339
Raw,55588.931,2182,339
Raw,64207.415,2183,339
Raw,56194.117,2184,339
Raw,47857.53,2185,339
Raw,60924.537,2186,339
Raw,45519.239,2187,339
Raw,30336.084,2190,339
Raw,1.56647083e+05,2190,339
Raw,60906.075,2191,339
Raw,55662.889,2192,339
Raw,15559.246,2192,339
Raw,92766.84,2193,339
Raw,66480.496,2194,339
Raw,1.65374628e+05,2196,339
Raw,58824.023,2197,339
Raw,75539.709,2197,339
Raw,61269.041,2198,339
Raw,88596.679,2198,339
Raw,58223.337,2199,339
Raw,25635.731,2200,339
Raw,1.07433613e+05,2200,339
Raw,30572.431,2201,339
Raw,36968.674,2201,339
Raw,52602.114,2202,339
Raw,47197.425,2203,339
Raw,1.70345487e+05,2204,339
Raw,76370.755,2205,339
Raw,20557.208,2208,339
Raw,75067.904,2208,339
Raw,37565.743,2208,339
Raw,57988.541,2210,339
Raw,29170.445,2210,339
Raw,56534.942,2211,339
Raw,52181.076,2213,339
Raw,47733.837,2213,339
Raw,57881.172,2214,339
Raw,56834.29,2215,339
Raw,51891.69,2217,339
Raw,28184.532,2221,339
Raw,32931.998,2221,339
Raw,59126.393,2222,339
Raw,15038.101,2222,339
Raw,43006.824,2223,339
Raw,57437.496,2224,339
Raw,85082.106,2225,339
Raw,44158.845,2225,339
Raw,28179.807,2226,339
Raw,13450.318,2226,339
Raw,1.45888258e+05,2227,339
Raw,1.37630593e+05,2228,339
Raw,83380.483,2229,339
Raw,66856.54,2231,339
Raw,92137.6,2232,339
Raw,50162.516,2233,339
Raw,1.47759526e+05,2234,339
Raw,29727.979,2234,339
Raw,40769.477,2235,339
Raw,64777.041,2236,339
Raw,96838.43,2237,339
Raw,1.30221077e+05,2238,339
Raw,1.52716511e+05,2239,339
Raw,67286.496,2240,339
Raw,1.45456955e+05,2241,339
Raw,1.46796761e+05,2242,339
Raw,25154.82,2243,339
Raw,39583.562,2243,339
Raw,39607.689,2244,339
Raw,74265.08,2245,339
Raw,32409.573,2246,339
Raw,93239.216,2247,339
Raw,47786.188,2249,339
Raw,37175.845,2252,339
Raw,1.21342605e+05,2253,339
Raw,1.3213768e+05,2254,339
Raw,23801.655,2255,339
Raw,72270.785,2255,339
Raw,9037.8443,2256,339
Raw,54062.104,2256,339
Raw,80137.973,2257,339
Raw,35829.663,2258,339
Raw,14923.8,2258,339
Raw,1.51902175e+05,2259,339
Raw,71500.743,2260,339
Raw,45735.53,2260,339
Raw,42088.007,2261,339
Raw,85714.329,2262,339
Raw,23962.054,2263,339
Raw,94752.066,2264,339
Raw,34400.693,2265,339
Raw,1.0400781e+05,2267,339
Raw,82195.125,2267,339
Raw,22211.452,2268,339
Raw,1.19562826e+05,2268,339
Raw,63821.143,2269,339
Raw,45759.4,2269,339
Raw,53625.164,2270,339
Raw,55901.227,2271,339
Raw,48877.741,2272,339
Raw,60308.876,2273,339
Raw,16301.418,2274,339
Raw,78601.537,2274,339
Raw,28832.541,2274,339
Raw,38827.127,2277,339
Raw,45088.891,2277,339
Raw,1.38542124e+05,2278,339
Raw,15258.724,2279,339
Raw,84945.364,2282,339
Raw,60058.941,2283,339
Raw,84491.126,2285,339
Raw,53005.422,2285,339
Raw,72360.736,2286,339
Raw,43505.299,2288,339
Raw,41465.467,2288,339
Raw,1.02139516e+05,2289,339
Raw,56212.607,2289,339
Raw,61838.196,2291,339
Raw,46340.638,2292,339
Raw,56932.653,2292,339
Raw,1.30635806e+05,2293,339
Raw,1.03501757e+05,2295,339
Raw,37165.927,2295,339
Raw,49040.356,2296,339
Raw,50139.231,2298,339
Raw,58964.22,2298,339
Raw,1.5247559e+05,2299,339
Raw,28613.351,2300,339
Raw,46723.052,2300,339
Raw,1.54772689e+05,2301,339
Raw,76347.78,2302,339
Raw,38942.182,2303,339
Raw,44898.28,2304,339
Raw,62654.927,2305,339
Raw,35626.669,2307,339
Raw,77374.596,2307,339
Raw,18246.287,2308,339
Raw,1.42826089e+05,2309,339
Raw,1.04273533e+05,2310,339
Raw,1.08095553e+05,2311,339
Raw,11480.44,2311,339
Raw,7567.201,2314,339
Raw,62890.954,2319,339
Raw,50600.575,2320,339
Raw,35582.079,2320,339
Raw,57358.392,2321,339
Raw,50391.17,2322,339
Raw,1.20898085e+05,2323,339
Raw,88423.856,2324,339
Raw,1.45081277e+05,2326,339
Raw,1.65821184e+05,2327,339
Raw,70826.71,2328,339
Raw,25897.68,2329,339
Raw,91610.051,2329,339
Raw,68201.082,2331,339
Raw,61072.189,2333,339
Raw,64710.791,2334,339
Raw,92732.672,2336,339
Raw,1.14584914e+05,2337,339
Raw,1.1014363e+05,2338,339
Raw,60150.233,2338,339
Raw,22364.181,2338,339
Raw,82989.861,2340,339
Raw,31513.123,2341,339
Raw,75121.43,2341,339
Raw,84610.073,2342,339
Raw,38787.388,2342,339
Raw,58382.344,2343,339
Raw,50962.27,2345,339
Raw,1.40493006e+05,2346,339
Raw,44646.909,2347,339
Raw,60836.403,2348,339
Raw,70001.457,2349,339
Raw,5396.8174,2349,339
Raw,58993.41,2351,339
Raw,85630.889,2352,339
Raw,1.37229234e+05,2353,339
Raw,1.33754626e+05,2354,339
Raw,31348.931,2355,339
Raw,1.24518193e+05,2355,339
Raw,52256.105,2357,339
Raw,47709.666,2358,339
Raw,76402.517,2359,339
Raw,52951.09,2361,339
Raw,41333.206,2361,339
Raw,79062.877,2363,339
Raw,60779.29,2365,339
Raw,21811.08,2366,339
Raw,66853.843,2367,339
Raw,39750.822,2368,339
Raw,10508.755,2368,339
Raw,63907.257,2369,339
Raw,41342.358,2370,339
Raw,77568.43,2370,339
Raw,78489.563,2371,339
Raw,32448.787,2371,339
Raw,69186.234,2372,339
Raw,1.22536988e+05,2373,339
Raw,68377.29,2374,339
Raw,53631.759,2376,339
Raw,94025.856,2377,339
Raw,26863,2377,339
Raw,29783.332,2378,339
Raw,76674.547,2378,339
Raw,16744.558,2378,339
Raw,52201.366,2379,339
Raw,20440.98,2379,339
Raw,1.38871441e+05,2380,339
Raw,1.29768155e+05,2383,339
Raw,1.07462709e+05,2383,339
Raw,94203.208,2385,339
Raw,46227.649,2386,339
Raw,1.64948988e+05,2387,339
Raw,1.20014694e+05,2389,339
Raw,71884.15,2390,339
Raw,79323.635,2391,339
Raw,1.38732903e+05,2392,339
Raw,23877.434,2393,339
Raw,62281.524,2394,339
Raw,60523.283,2395,339
Raw,36339.166,2396,339
Raw,95980.046,2397,339
Raw,31161.319,2398,339
Raw,1.20034459e+05,2398,339
Raw,51257.731,2399,339
Raw,83759.099,2400,339
Raw,40952.445,2400,339
Raw,1.4595119e+05,2401,339
Raw,5774.3214,2401,339
Raw,1.62277479e+05,2402,339
Raw,82923.967,2402,339
Raw,64790.64,2403,339
Raw,97605.786,2404,339
Raw,1.30253102e+05,2405,339
Raw,81214.587,2406,339
Raw,76723.213,2407,339
Raw,1.37000058e+05,2408,339
Raw,50750.854,2411,339
Raw,1.30759425e+05,2412,339
Raw,75890.901,2412,339
Raw,1.27637072e+05,2415,339
Raw,43912.094,2416,339
Raw,12594.899,2416,339
Raw,75843.703,2418,339
Raw,68016.172,2419,339
Raw,59235.13,2419,339
Raw,60090.42,2420,339
