Cut?,Counts,eventNumber,runNumber
Raw,44366.813,2,340
Raw,9543.0765,10,340
Raw,45456.056,11,340
Raw,28356.954,13,340
Raw,63761.837,23,340
Raw,32419.635,25,340
Raw,1.43284464e+05,30,340
Raw,45748.922,31,340
Raw,80528.894,39,340
Raw,23514.192,39,340
Raw,99652.281,45,340
Raw,1.20860086e+05,59,340
Raw,44324.775,62,340
Raw,45288.557,67,340
Raw,12686.299,67,340
Raw,32251.968,75,340
Raw,50060.283,88,340
Raw,19102.129,88,340
Raw,1.24195171e+05,94,340
Raw,45546.34,101,340
Raw,20469.368,101,340
Raw,49756.155,111,340
Raw,53632.385,111,340
Raw,48658.307,113,340
Raw,53179.052,113,340
Raw,36471.292,116,340
Raw,56236.467,118,340
Raw,42976.058,118,340
Raw,26991.968,121,340
Raw,77218.16,124,340
Raw,89834.046,125,340
Raw,57123.258,135,340
Raw,53956.127,141,340
Raw,1.08237112e+05,149,340
Raw,45832.947,157,340
Raw,1.28965234e+05,161,340
Raw,34891.073,161,340
Raw,37227.826,164,340
Raw,64859.775,164,340
Raw,34824.65,166,340
Raw,55651.339,168,340
Raw,1.3853833e+05,171,340
Raw,31844.151,172,340
Raw,34894.674,172,340
Raw,68448.399,175,340
Raw,11016.039,177,340
Raw,43355.713,179,340
Raw,40537.389,187,340
Raw,43419.836,200,340
Raw,31725.475,206,340
Raw,37308.217,208,340
Raw,48938.326,208,340
Raw,38688.847,213,340
Raw,49895.322,224,340
Raw,51188.609,229,340
Raw,46791.134,239,340
Raw,37738.854,241,340
Raw,99964.04,241,340
Raw,67817.779,251,340
Raw,55830.534,251,340
Raw,1.02833281e+05,256,340
Raw,1.40116604e+05,259,340
Raw,52224.159,269,340
Raw,48727.141,270,340
Raw,36803.523,277,340
Raw,47684.56,282,340
Raw,28079.135,290,340
Raw,84998.258,290,340
Raw,30406.444,290,340
Raw,14648.203,291,340
Raw,22599.54,298,340
Raw,66906.121,301,340
Raw,38339.131,301,340
Raw,31852.293,303,340
Raw,76925.598,303,340
Raw,45360.271,310,340
Raw,51762.246,315,340
Raw,18446.271,315,340
Raw,63592.55,317,340
Raw,64994.702,324,340
Raw,61843.957,332,340
Raw,50918.062,333,340
Raw,28826.184,333,340
Raw,47417.703,337,340
Raw,34477.472,342,340
Raw,36399.174,346,340
Raw,53438.143,352,340
Raw,43705.284,361,340
Raw,40945.608,361,340
Raw,44741.811,362,340
Raw,57157.54,364,340
Raw,1.08515613e+05,370,340
Raw,90979.931,375,340
Raw,59073.817,376,340
Raw,12142.342,378,340
Raw,17621.093,394,340
Raw,58483.735,396,340
Raw,30977.65,399,340
Raw,26115.683,400,340
Raw,39291.937,409,340
Raw,48879.851,414,340
Raw,34112.575,422,340
Raw,18708.49,422,340
Raw,1.04913681e+05,434,340
Raw,16562.049,439,340
Raw,42596.394,439,340
Raw,47474.22,439,340
Raw,50821.089,440,340
Raw,69547.48,442,340
Raw,94280.147,443,340
Raw,71663.054,469,340
Raw,32459.104,469,340
Raw,1.07186232e+05,472,340
Raw,97140.505,484,340
Raw,43382.032,485,340
Raw,20464.806,486,340
Raw,1.03334803e+05,487,340
Raw,55136.624,487,340
Raw,29742.849,489,340
Raw,46375.395,491,340
Raw,17061.304,494,340
Raw,1.14337615e+05,494,340
Raw,31641.607,499,340
Raw,54385.37,502,340
Raw,51344.737,502,340
Raw,79513.906,504,340
Raw,45230.126,504,340
Raw,25697.5,507,340
Raw,1.13073997e+05,513,340
Raw,39964.713,518,340
Raw,55650.259,524,340
Raw,68941.578,529,340
Raw,14390.669,538,340
Raw,63550.896,539,340
Raw,44906.544,556,340
Raw,27990.105,556,340
Raw,1.1906679e+05,556,340
Raw,99296.015,558,340
Raw,41704.748,563,340
Raw,60854.67,568,340
Raw,54344.996,569,340
Raw,38998.624,578,340
Raw,32532.004,579,340
Raw,39533.876,579,340
Raw,38599.778,585,340
Raw,54734.004,587,340
Raw,39679.957,587,340
Raw,58486.259,588,340
Raw,37296.109,588,340
Raw,30217.909,589,340
Raw,1.20343686e+05,589,340
Raw,1.07219424e+05,591,340
Raw,40429.712,591,340
Raw,38240.965,593,340
Raw,47602.396,593,340
Raw,42459.379,600,340
Raw,91177.331,601,340
Raw,1.11160002e+05,605,340
Raw,48924.567,613,340
Raw,78945.885,619,340
Raw,24323.744,620,340
Raw,48441.728,620,340
Raw,47033.846,620,340
Raw,1.27378072e+05,621,340
Raw,34615.815,643,340
Raw,33328.083,650,340
Raw,57397.348,653,340
Raw,70264.229,655,340
Raw,79631.263,656,340
Raw,66141.286,657,340
Raw,44486.776,659,340
Raw,1.18874806e+05,664,340
Raw,76346.375,669,340
Raw,23831.463,670,340
Raw,1.1187152e+05,671,340
Raw,48970.993,676,340
Raw,70240.044,676,340
Raw,62948.734,682,340
Raw,50637.437,682,340
Raw,7228.7556,688,340
Raw,44355.305,689,340
Raw,80449.555,692,340
Raw,30729.295,693,340
Raw,24021.928,694,340
Raw,35767.814,705,340
Raw,1.06197066e+05,712,340
Raw,65947.579,713,340
Raw,22035.385,732,340
Raw,8026.9734,734,340
Raw,77068.645,741,340
Raw,33033.294,741,340
Raw,42409.979,744,340
Raw,34587.875,775,340
Raw,1.23358685e+05,775,340
Raw,30445.81,791,340
Raw,65900.504,804,340
Raw,22827.076,808,340
Raw,26383.664,809,340
Raw,74466.814,811,340
Raw,58416.64,812,340
Raw,48029.484,814,340
Raw,43978.607,822,340
Raw,47182.118,824,340
Raw,50327.376,827,340
Raw,66138.744,842,340
Raw,51872.937,843,340
Raw,1.07891521e+05,843,340
Raw,50780.375,850,340
Raw,84846.892,850,340
Raw,81232.104,854,340
Raw,41481.464,863,340
Raw,29655.907,866,340
Raw,48990.521,869,340
Raw,11999.924,869,340
Raw,51310.654,873,340
Raw,1.07998785e+05,881,340
Raw,55584.133,885,340
Raw,60500.776,896,340
Raw,17250.11,896,340
Raw,44977.759,903,340
Raw,50947.715,912,340
Raw,39237.501,915,340
Raw,31453.423,924,340
Raw,60319.786,939,340
Raw,56929.952,942,340
Raw,77084.882,949,340
Raw,49639.296,950,340
Raw,31407.058,963,340
Raw,65845.704,968,340
Raw,13503.834,973,340
Raw,66347.891,973,340
Raw,60357.767,974,340
Raw,50827.037,974,340
Raw,10429.282,980,340
Raw,15349.368,980,340
Raw,58605.017,985,340
Raw,46897.915,986,340
Raw,40306.309,988,340
Raw,36895.123,988,340
Raw,1.00289801e+05,997,340
Raw,16744.502,1000,340
Raw,51304.181,1000,340
Raw,17727.336,1009,340
Raw,23190.981,1015,340
Raw,1.10151283e+05,1017,340
Raw,55094.741,1018,340
Raw,10270.56,1018,340
Raw,59617.661,1022,340
Raw,54859.411,1025,340
Raw,1.02546841e+05,1029,340
Raw,56321.93,1031,340
Raw,9526.9601,1031,340
Raw,42573.542,1035,340
Raw,86077.713,1061,340
Raw,23737.822,1062,340
Raw,48590.566,1066,340
Raw,1.00719465e+05,1067,340
Raw,41884.263,1071,340
Raw,80611.467,1074,340
Raw,74536.3,1087,340
Raw,57165.106,1088,340
Raw,33641.554,1088,340
Raw,86966.993,1092,340
Raw,42155.34,1097,340
Raw,51394.765,1098,340
Raw,1.41843117e+05,1104,340
Raw,36488.454,1115,340
Raw,25811.474,1118,340
Raw,51320.702,1122,340
Raw,26323.661,1122,340
Raw,1.00742017e+05,1129,340
Raw,82383.183,1137,340
Raw,87882.933,1142,340
Raw,46361.241,1144,340
Raw,31084.459,1149,340
Raw,17068.013,1149,340
Raw,71040.023,1150,340
Raw,30460.704,1150,340
Raw,63239.063,1160,340
Raw,77095.067,1163,340
Raw,22705.991,1164,340
Raw,63114.342,1168,340
Raw,15340.291,1179,340
Raw,44633.67,1179,340
Raw,20827.14,1179,340
Raw,92241.727,1180,340
Raw,97773.321,1180,340
Raw,1.33436376e+05,1184,340
Raw,63400.277,1189,340
Raw,28743.222,1189,340
Raw,34313.05,1193,340
Raw,77719.752,1198,340
Raw,88342.918,1203,340
Raw,54445.768,1212,340
Raw,54283.91,1218,340
Raw,57439.972,1222,340
Raw,81885.966,1226,340
Raw,56236.664,1226,340
Raw,36898.236,1227,340
Raw,19627.295,1228,340
Raw,32080.31,1228,340
Raw,73512.099,1232,340
Raw,30372.605,1233,340
Raw,14641.858,1233,340
Raw,69503.724,1238,340
Raw,42439.646,1238,340
Raw,72382.623,1243,340
Raw,32270.317,1252,340
Raw,31407.155,1256,340
Raw,41586.827,1256,340
Raw,29098.156,1257,340
Raw,36377.341,1259,340
Raw,27884.838,1260,340
Raw,29914.681,1262,340
Raw,29949.997,1262,340
Raw,27004.659,1266,340
Raw,28479.1,1266,340
Raw,53648.094,1287,340
Raw,31332.637,1287,340
Raw,34173.888,1296,340
Raw,1.09378427e+05,1300,340
Raw,75081.697,1305,340
Raw,50833.743,1308,340
Raw,31347.56,1308,340
Raw,36648.94,1341,340
Raw,32098.239,1341,340
Raw,39864.66,1346,340
Raw,45510.398,1368,340
Raw,47524.401,1373,340
Raw,43501.041,1375,340
Raw,40635.868,1378,340
Raw,54807.839,1378,340
Raw,40788.037,1386,340
Raw,1.33810181e+05,1390,340
Raw,43138.371,1396,340
Raw,42308.572,1399,340
Raw,56131.121,1400,340
Raw,25033.063,1405,340
Raw,1.07325072e+05,1408,340
Raw,1.00360247e+05,1414,340
Raw,55755.748,1416,340
Raw,58216.616,1418,340
Raw,51741.633,1419,340
Raw,36528.239,1431,340
Raw,81717.293,1431,340
Raw,39683.976,1448,340
Raw,1.40588088e+05,1454,340
Raw,82663.705,1457,340
Raw,1.24175194e+05,1464,340
Raw,92043.319,1477,340
Raw,53499.696,1482,340
Raw,72276.221,1486,340
Raw,30385.531,1489,340
Raw,47092.919,1492,340
Raw,20474.66,1493,340
Raw,33826.225,1494,340
Raw,1.04957308e+05,1497,340
Raw,51386.455,1502,340
Raw,43470.48,1505,340
Raw,1.33007635e+05,1521,340
Raw,52599.016,1524,340
Raw,63913.368,1529,340
Raw,1.18154271e+05,1536,340
Raw,52106.724,1537,340
Raw,44878.194,1553,340
Raw,48879.889,1555,340
Raw,35286.692,1556,340
Raw,36046.62,1559,340
Raw,40711.232,1568,340
Raw,55114.203,1571,340
Raw,10913.317,1571,340
Raw,83314.986,1572,340
Raw,53781.552,1576,340
Raw,27255.524,1577,340
Raw,66463.315,1582,340
Raw,57103.029,1585,340
Raw,46253.536,1585,340
Raw,58020.391,1589,340
Raw,48582.073,1589,340
Raw,49493.993,1591,340
Raw,80905.291,1593,340
Raw,51939.16,1599,340
Raw,24247.246,1599,340
Raw,34488.798,1605,340
Raw,81481.686,1609,340
Raw,53245.421,1610,340
Raw,91270.025,1623,340
Raw,99231.196,1628,340
Raw,27525.153,1629,340
Raw,46376.624,1629,340
Raw,22180.526,1629,340
Raw,51221.716,1634,340
Raw,23868.277,1636,340
Raw,1.40181742e+05,1636,340
Raw,54712.71,1639,340
Raw,37086.985,1639,340
Raw,52080.552,1641,340
Raw,51999.278,1650,340
Raw,46751.332,1665,340
Raw,1.44868166e+05,1682,340
Raw,1.09065341e+05,1683,340
Raw,66100.163,1689,340
Raw,59412.581,1691,340
Raw,64706.358,1691,340
Raw,85057.622,1694,340
Raw,77945.184,1705,340
Raw,38455.423,1707,340
Raw,49114.419,1708,340
Raw,52480.274,1714,340
Raw,52599.19,1717,340
Raw,31607.925,1719,340
Raw,36917.68,1727,340
Raw,28564.488,1742,340
Raw,78284.253,1749,340
Raw,16654.317,1760,340
Raw,35563.05,1761,340
Raw,49524.721,1761,340
Raw,83318.761,1768,340
Raw,61205.061,1770,340
Raw,1.43810501e+05,1780,340
Raw,24896.016,1785,340
Raw,31999.339,1787,340
Raw,18115.647,1797,340
Raw,44150.294,1798,340
Raw,44115.988,1798,340
Raw,24843.648,1800,340
Raw,1.10504023e+05,1807,340
Raw,1.18921115e+05,1818,340
Raw,34817.705,1821,340
Raw,42962.794,1825,340
Raw,1.36275788e+05,1827,340
Raw,81232.945,1827,340
Raw,25272.393,1831,340
Raw,57074.863,1850,340
Raw,1.30249335e+05,1853,340
Raw,90431.161,1860,340
Raw,16117.978,1866,340
Raw,54563.598,1866,340
Raw,60628.972,1867,340
Raw,69080.555,1869,340
Raw,90173.829,1872,340
Raw,69093.651,1884,340
Raw,45567.636,1884,340
Raw,50844.241,1887,340
Raw,47363.476,1888,340
Raw,76079.087,1890,340
Raw,68510.532,1897,340
Raw,82824.686,1904,340
Raw,58175.479,1908,340
Raw,65739.938,1909,340
Raw,49218.608,1910,340
Raw,37397.568,1916,340
Raw,80073.589,1922,340
Raw,50778.877,1925,340
Raw,28638.168,1928,340
Raw,51175.748,1930,340
Raw,88994.422,1933,340
Raw,40452.97,1934,340
Raw,19730.185,1934,340
Raw,33482.078,1941,340
Raw,88899.954,1942,340
Raw,42686.4,1950,340
Raw,46103.129,1955,340
Raw,41303.72,1955,340
Raw,51307.362,1957,340
Raw,1.38984658e+05,1961,340
Raw,1.02541462e+05,1987,340
Raw,1.44982662e+05,1998,340
Raw,35127.189,2000,340
Raw,48977.197,2015,340
Raw,69012.171,2019,340
Raw,39727.545,2019,340
Raw,59675.384,2022,340
Raw,61606.614,2025,340
Raw,11477.373,2034,340
Raw,86713.654,2039,340
Raw,53353.843,2041,340
Raw,56299.604,2049,340
Raw,49875.501,2062,340
Raw,50696.446,2062,340
Raw,42350.509,2062,340
Raw,88637.968,2065,340
Raw,43442.34,2065,340
Raw,40153.406,2066,340
Raw,39704.757,2069,340
Raw,43646.686,2079,340
Raw,34582.423,2082,340
Raw,52733.601,2086,340
Raw,48891.623,2099,340
Raw,65346.734,2099,340
Raw,24108.827,2100,340
Raw,76817.255,2103,340
Raw,84632.184,2113,340
Raw,28694.486,2114,340
Raw,35995.31,2120,340
Raw,21667.655,2124,340
Raw,60577.621,2128,340
Raw,81196.524,2133,340
Raw,27785.812,2135,340
Raw,42868.897,2146,340
Raw,37903.953,2149,340
Raw,47328.871,2157,340
Raw,85963.533,2159,340
Raw,72500.951,2165,340
Raw,1.01652209e+05,2166,340
Raw,61738.507,2174,340
Raw,45859.884,2177,340
Raw,46619.966,2184,340
Raw,1.32045056e+05,2186,340
Raw,54119.219,2192,340
Raw,31174.372,2204,340
Raw,1.02397211e+05,2204,340
Raw,49636.753,2218,340
Raw,33547.645,2238,340
Raw,69359.489,2238,340
Raw,42468.279,2245,340
Raw,65966.402,2248,340
Raw,50785.663,2252,340
Raw,45359.967,2256,340
Raw,64504.326,2259,340
Raw,1.29585053e+05,2270,340
Raw,23188.859,2275,340
Raw,34357.465,2275,340
Raw,71147.344,2280,340
Raw,67630.288,2284,340
Raw,24176.004,2288,340
Raw,1.22684619e+05,2292,340
Raw,73825.611,2299,340
Raw,15721.537,2313,340
Raw,38560.541,2315,340
Raw,67869.854,2320,340
Raw,75273.409,2326,340
Raw,44129.044,2333,340
Raw,74935.331,2338,340
Raw,58451.697,2358,340
Raw,69080.375,2361,340
Raw,37364.793,2366,340
Raw,1.34388316e+05,2369,340
Raw,48574.691,2369,340
Raw,67894.136,2377,340
Raw,42544.343,2377,340
Raw,93205.024,2382,340
Raw,91380.83,2389,340
Raw,1.06242548e+05,2390,340
Raw,1.000217e+05,2391,340
Raw,52115.412,2394,340
Raw,63897.982,2403,340
Raw,74126.564,2408,340
Raw,72926.344,2409,340
Raw,36091.091,2411,340
Raw,1.10062482e+05,2415,340
Raw,32059.663,2419,340
Raw,79941.775,2419,340
Raw,32113.602,2422,340
Raw,26678.165,2430,340
Raw,43722.436,2430,340
Raw,48465.808,2433,340
Raw,94479.693,2440,340
Raw,47919.392,2444,340
Raw,58598.02,2444,340
Raw,99565.171,2445,340
Raw,1.37843576e+05,2447,340
Raw,85273.251,2448,340
Raw,76128.138,2452,340
Raw,51101.058,2463,340
Raw,70040.488,2478,340
Raw,97788.883,2479,340
Raw,52275.522,2484,340
Raw,99238.553,2485,340
Raw,1.41946944e+05,2496,340
Raw,73287.32,2499,340
Raw,82108.166,2500,340
Raw,50085.699,2509,340
Raw,48454.694,2516,340
Raw,16729.56,2519,340
Raw,43998.782,2527,340
Raw,16445.69,2527,340
Raw,92869.562,2533,340
Raw,48338.479,2533,340
Raw,40965.053,2540,340
Raw,37496.483,2540,340
Raw,11100.646,2541,340
Raw,46878.447,2542,340
Raw,73716.984,2542,340
Raw,56628.833,2545,340
Raw,30368.788,2557,340
Raw,89541.513,2558,340
Raw,35819.618,2562,340
Raw,33724.717,2564,340
Raw,40728.117,2568,340
Raw,82201.166,2573,340
Raw,1.03796851e+05,2585,340
Raw,27126.869,2589,340
Raw,49028.283,2590,340
Raw,9573.1591,2591,340
Raw,80231.059,2602,340
Raw,27614.934,2613,340
Raw,44785.605,2626,340
Raw,16867.784,2626,340
Raw,40834.159,2642,340
Raw,79336.961,2649,340
Raw,99667.592,2650,340
Raw,49666.39,2655,340
Raw,27430.198,2655,340
Raw,1.14384701e+05,2656,340
Raw,58283.091,2668,340
Raw,73180.18,2671,340
Raw,39454.649,2673,340
Raw,58482.506,2680,340
Raw,48537.348,2681,340
Raw,52286.187,2682,340
Raw,34217.612,2687,340
Raw,37456.844,2689,340
Raw,65665.791,2690,340
Raw,30664.206,2691,340
Raw,61457.475,2695,340
Raw,60960.458,2697,340
Raw,31535.613,2706,340
Raw,38877.983,2717,340
Raw,1.31809678e+05,2717,340
Raw,99896.081,2721,340
Raw,1.0885106e+05,2725,340
Raw,89178.827,2725,340
Raw,57144.159,2749,340
Raw,34879.686,2751,340
Raw,33859.891,2751,340
Raw,1.08656771e+05,2758,340
Raw,25724.946,2773,340
Raw,30395.691,2776,340
Raw,29575.344,2776,340
Raw,78783.763,2779,340
Raw,42140.214,2783,340
Raw,30824.946,2785,340
Raw,73713.855,2793,340
Raw,44974.874,2798,340
Raw,1.28941644e+05,2812,340
Raw,67456.936,2813,340
Raw,13475.604,2815,340
Raw,61592.12,2819,340
Raw,44526.712,2819,340
Raw,11054.983,2824,340
Raw,92546.576,2858,340
Raw,97221.641,2860,340
Raw,42778.166,2860,340
Raw,74408.09,2861,340
Raw,63136.221,2866,340
Raw,29225.439,2871,340
Raw,52085.929,2882,340
Raw,94042.802,2899,340
Raw,42357.803,2900,340
Raw,53554.987,2906,340
Raw,50771.52,2909,340
Raw,48561.697,2909,340
Raw,54507.949,2910,340
Raw,30869.552,2911,340
Raw,38664.552,2915,340
Raw,39098.761,2917,340
Raw,19965.081,2918,340
Raw,59264.946,2920,340
Raw,65945.366,2924,340
Raw,86230.734,2925,340
Raw,1.24434475e+05,2932,340
Raw,59517.016,2935,340
Raw,40431.295,2943,340
Raw,52487.443,2946,340
Raw,44316.307,2949,340
Raw,1.10931778e+05,2959,340
Raw,45778.112,2959,340
Raw,1.37120286e+05,2961,340
Raw,37081.595,2968,340
Raw,51554.701,2975,340
Raw,30588.273,2977,340
Raw,21142.807,2977,340
Raw,27991.569,2978,340
Raw,46615.761,2986,340
Raw,59253.847,2986,340
Raw,40767.156,2987,340
Raw,90738.043,2987,340
Raw,56880.605,2988,340
Raw,48089.772,2988,340
Raw,87435.228,2989,340
Raw,40047.547,2990,340
Raw,16103.327,2994,340
Raw,1.12749897e+05,2994,340
Raw,22475.2,2996,340
Raw,35361.227,3013,340
Raw,41187.684,3013,340
Raw,1.16245649e+05,3015,340
Raw,59095.116,3019,340
Raw,43507.619,3019,340
Raw,61166.941,3024,340
Raw,49542.495,3028,340
Raw,47939.898,3028,340
Raw,94750.605,3029,340
Raw,55934.518,3034,340
Raw,64606.396,3048,340
Raw,1.28167157e+05,3049,340
Raw,1.13330738e+05,3052,340
Raw,68347.665,3054,340
Raw,11716.533,3054,340
Raw,83114.143,3058,340
Raw,44760.997,3072,340
Raw,23947.683,3094,340
Raw,94035.956,3097,340
Raw,38608,3101,340
Raw,27784.84,3105,340
Raw,54605.85,3113,340
Raw,38764.547,3115,340
Raw,33631.034,3115,340
Raw,44652.346,3129,340
Raw,48718.633,3129,340
Raw,41937.922,3136,340
Raw,33398.74,3136,340
Raw,45129.827,3138,340
Raw,81681.213,3142,340
Raw,1.3324531e+05,3144,340
Raw,90722.258,3149,340
Raw,35536.89,3157,340
Raw,46951.082,3159,340
Raw,41448.867,3162,340
Raw,24259.41,3162,340
Raw,19792.769,3164,340
Raw,64250.143,3166,340
Raw,27808.783,3166,340
Raw,82286.325,3167,340
Raw,41884.185,3186,340
Raw,1.26388219e+05,3188,340
Raw,80311.705,3190,340
Raw,85137.372,3194,340
Raw,14655.437,3194,340
Raw,72683.399,3197,340
Raw,85213.398,3198,340
Raw,70638.511,3199,340
Raw,50382.45,3200,340
Raw,49374.427,3200,340
Raw,1.37694491e+05,3202,340
Raw,59340.123,3203,340
Raw,59818.845,3212,340
Raw,58174.767,3212,340
Raw,49068.959,3213,340
Raw,72490.67,3219,340
Raw,1.10253796e+05,3225,340
Raw,60500.377,3227,340
Raw,45152.977,3231,340
Raw,1.03772339e+05,3240,340
Raw,36679.633,3248,340
Raw,58381.588,3249,340
Raw,57812.523,3250,340
Raw,1.13383462e+05,3260,340
Raw,33565.785,3266,340
Raw,54694.557,3266,340
Raw,50078.834,3270,340
Raw,45285.86,3275,340
Raw,1.30844874e+05,3276,340
Raw,67095.089,3305,340
Raw,52294.871,3308,340
Raw,42239.669,3308,340
Raw,57839.132,3310,340
Raw,38583.763,3310,340
Raw,1.14138501e+05,3314,340
Raw,76347.058,3329,340
Raw,54246.611,3331,340
Raw,34959.919,3355,340
Raw,45193.869,3359,340
Raw,32391.609,3359,340
Raw,52564.735,3385,340
Raw,1.17788569e+05,3392,340
Raw,66040.257,3395,340
Raw,1.29369309e+05,3396,340
Raw,23182.309,3404,340
Raw,1.21521116e+05,3405,340
Raw,48961.676,3405,340
Raw,96031.618,3406,340
Raw,65624.579,3406,340
Raw,63688.558,3408,340
Raw,38104.724,3409,340
Raw,43380.351,3427,340
Raw,48876.821,3430,340
Raw,1.10893544e+05,3432,340
Raw,50490.555,3436,340
Raw,23019.121,3438,340
Raw,52685.149,3441,340
Raw,49711.88,3449,340
Raw,27368.224,3449,340
Raw,59866.532,3454,340
Raw,45520.298,3458,340
Raw,66550.903,3458,340
Raw,33144.395,3460,340
Raw,55747.243,3463,340
Raw,75408.441,3464,340
Raw,11064.793,3474,340
Raw,60861.231,3475,340
Raw,19364.934,3475,340
Raw,66521.922,3476,340
Raw,75052.688,3478,340
Raw,40681.478,3478,340
Raw,69591.067,3483,340
Raw,16256.007,3499,340
Raw,82568.1,3499,340
Raw,96923.626,3512,340
Raw,27126.335,3513,340
Raw,38727.722,3513,340
Raw,64385.364,3515,340
Raw,34065.972,3515,340
Raw,74902.787,3519,340
Raw,39946.467,3523,340
Raw,28081.19,3523,340
Raw,51198.732,3524,340
Raw,87873.321,3529,340
Raw,54752.508,3544,340
Raw,49539.359,3545,340
Raw,28733.564,3547,340
Raw,32561.425,3551,340
Raw,56066.03,3552,340
Raw,70246.634,3552,340
Raw,43192.627,3552,340
Raw,39204.664,3554,340
Raw,46968.497,3557,340
Raw,64520.268,3561,340
Raw,60150.479,3566,340
Raw,66854.576,3566,340
Raw,1.05887604e+05,3579,340
Raw,78789.876,3581,340
Raw,91556.548,3584,340
Raw,37325.628,3591,340
Raw,69416.601,3594,340
Raw,49839.738,3594,340
Raw,35588.907,3595,340
Raw,91940.735,3599,340
Raw,65330.17,3601,340
Raw,30129.959,3613,340
Raw,46076.504,3616,340
Raw,38588.334,3616,340
Raw,47075.858,3628,340
Raw,28516.071,3628,340
Raw,58427.985,3634,340
Raw,36838.687,3661,340
Raw,45041.023,3668,340
Raw,1.35574347e+05,3677,340
Raw,87969.947,3685,340
Raw,60840.019,3689,340
Raw,44150.017,3702,340
Raw,32139.614,3703,340
Raw,47947.317,3704,340
Raw,50758.762,3705,340
Raw,40320.588,3705,340
Raw,68020.584,3713,340
Raw,35458.587,3715,340
Raw,1.33531731e+05,3721,340
Raw,71489.733,3721,340
Raw,65054.129,3725,340
Raw,39925.26,3732,340
Raw,60606.314,3732,340
Raw,56500.843,3738,340
Raw,99209.489,3740,340
Raw,46613.814,3741,340
Raw,71825.845,3741,340
Raw,45258.701,3743,340
Raw,23878.792,3748,340
Raw,8963.7271,3752,340
Raw,1.04152762e+05,3752,340
Raw,70457.766,3755,340
Raw,50254.178,3758,340
Raw,67899.429,3758,340
Raw,34597.758,3762,340
Raw,36369.708,3772,340
Raw,1.01409289e+05,3781,340
Raw,89013.338,3785,340
Raw,58981.279,3794,340
Raw,1.23038468e+05,3807,340
Raw,12880.551,3810,340
Raw,9817.1923,3810,340
Raw,1.43684942e+05,3820,340
Raw,49425.699,3820,340
Raw,1.21772452e+05,3821,340
Raw,39576.966,3830,340
Raw,19291.058,3830,340
Raw,40190.914,3834,340
Raw,46511.222,3834,340
Raw,98320.324,3837,340
Raw,58851.938,3838,340
Raw,51640.621,3853,340
Raw,43980.951,3854,340
Raw,23921.466,3855,340
Raw,50488.056,3855,340
Raw,68483.223,3855,340
Raw,1.02588667e+05,3864,340
Raw,73956.755,3867,340
Raw,21034.547,3869,340
Raw,34903.044,3869,340
Raw,54154.021,3875,340
Raw,52500.972,3879,340
Raw,32366.619,3879,340
Raw,30472.575,3889,340
Raw,8602.6365,3889,340
Raw,48016.643,3891,340
Raw,40486.669,3897,340
Raw,82311.582,3902,340
Raw,42219.72,3913,340
Raw,53539.291,3914,340
Raw,63999.041,3921,340
Raw,93346.115,3924,340
Raw,50648.011,3930,340
Raw,59890.189,3930,340
Raw,48278.085,3935,340
Raw,34103.953,3946,340
Raw,35898.297,3955,340
Raw,46784.767,3956,340
Raw,1.07955788e+05,3973,340
Raw,36386.796,3973,340
Raw,42561.529,3977,340
Raw,24257.067,3977,340
Raw,52046.503,3978,340
Raw,45219.578,3980,340
Raw,62924.017,3981,340
Raw,65600.62,3982,340
Raw,33805.084,3982,340
Raw,43897.784,3983,340
Raw,1.29318109e+05,3990,340
Raw,89385.615,3993,340
Raw,12922.198,3993,340
Raw,38667.015,3994,340
Raw,26494.29,4003,340
Raw,52907.249,4009,340
Raw,35999.802,4012,340
Raw,37155.849,4012,340
Raw,31658.426,4026,340
Raw,64717.782,4027,340
Raw,75209.006,4045,340
Raw,84955.181,4046,340
Raw,49322.182,4049,340
Raw,47457.555,4049,340
Raw,12422.585,4054,340
Raw,44483.961,4063,340
Raw,36502.185,4065,340
Raw,28513.447,4066,340
Raw,1.04993246e+05,4071,340
Raw,5459.1559,4082,340
Raw,78846.39,4083,340
Raw,58471.721,4083,340
Raw,1.25115476e+05,4087,340
Raw,70345.226,4099,340
Raw,33328.624,4099,340
Raw,31459.098,4105,340
Raw,22656.538,4107,340
Raw,72893.589,4113,340
Raw,37126.76,4116,340
Raw,67251.821,4119,340
Raw,58743.898,4119,340
Raw,1.02058745e+05,4121,340
Raw,30625.041,4142,340
Raw,34975.426,4146,340
Raw,88799.04,4147,340
Raw,1.42736208e+05,4149,340
Raw,1.04143892e+05,4160,340
Raw,28329.161,4162,340
Raw,57059.824,4163,340
Raw,11083.14,4163,340
Raw,42844.244,4166,340
Raw,41061.564,4166,340
Raw,57622.665,4175,340
Raw,44236.658,4192,340
Raw,56883.119,4214,340
Raw,47641.933,4244,340
Raw,92134.923,4244,340
Raw,43509.166,4247,340
Raw,82753.444,4247,340
Raw,26335.101,4248,340
Raw,47329.549,4258,340
Raw,1.12688425e+05,4267,340
Raw,50604.814,4271,340
Raw,1.4117625e+05,4272,340
Raw,60896.313,4274,340
Raw,14097.533,4274,340
Raw,43327.842,4287,340
Raw,32122.947,4288,340
Raw,70371.161,4293,340
Raw,55287.398,4293,340
Raw,1.41762642e+05,4307,340
Raw,88718.188,4313,340
Raw,42765.933,4315,340
Raw,15479.788,4324,340
Raw,82457.162,4328,340
Raw,1.31378351e+05,4342,340
Raw,31617.295,4343,340
Raw,42057.565,4347,340
Raw,65789.253,4351,340
Raw,46657.161,4351,340
Raw,95661.014,4352,340
Raw,40702.785,4352,340
Raw,42675.092,4353,340
Raw,20341.575,4353,340
Raw,30131.735,4353,340
Raw,44945.292,4367,340
Raw,17734.179,4367,340
Raw,1.37128211e+05,4368,340
Raw,68782.284,4376,340
Raw,65379.171,4377,340
Raw,42811.993,4407,340
Raw,80143.793,4407,340
Raw,1.08428426e+05,4417,340
Raw,73621.412,4425,340
Raw,99464.442,4430,340
Raw,48030.712,4432,340
Raw,59952.857,4436,340
Raw,32755.647,4436,340
Raw,38601.932,4442,340
Raw,54214.469,4444,340
Raw,33946.952,4449,340
Raw,69340.779,4451,340
Raw,45625.253,4453,340
Raw,46043.621,4455,340
Raw,33245.662,4455,340
Raw,21987.861,4460,340
Raw,1.37349645e+05,4463,340
Raw,1.01979902e+05,4480,340
Raw,32223.03,4494,340
Raw,39046.251,4496,340
Raw,65838.096,4498,340
Raw,51884.976,4500,340
Raw,61750.934,4512,340
Raw,16859.939,4516,340
Raw,57663.108,4528,340
Raw,17793.575,4528,340
Raw,35505.254,4530,340
Raw,61133.642,4530,340
Raw,37331.046,4530,340
Raw,92107.464,4533,340
Raw,41570.337,4535,340
Raw,49020.472,4540,340
Raw,60395.007,4545,340
Raw,58670.447,4548,340
Raw,1.25646237e+05,4553,340
Raw,1.42177929e+05,4553,340
Raw,43853.883,4562,340
Raw,1.1957196e+05,4563,340
Raw,39007.38,4569,340
Raw,35887.327,4588,340
Raw,42969.177,4589,340
Raw,21799.776,4590,340
Raw,75179.462,4595,340
Raw,20955.802,4598,340
Raw,1.0661022e+05,4605,340
Raw,55740.366,4606,340
Raw,65814.823,4606,340
Raw,44938.313,4611,340
Raw,42594.459,4613,340
Raw,33961.133,4618,340
Raw,1.16180619e+05,4623,340
Raw,23102.435,4623,340
Raw,54270.744,4626,340
Raw,25701.422,4626,340
Raw,39329.59,4627,340
Raw,1.42389149e+05,4629,340
Raw,47827.797,4630,340
Raw,58422.015,4630,340
Raw,58418.423,4659,340
Raw,31902.821,4687,340
Raw,96182.961,4696,340
Raw,42713.522,4698,340
Raw,51037.41,4717,340
Raw,59765.856,4717,340
Raw,86280.35,4718,340
Raw,29339.226,4719,340
Raw,20975.407,4727,340
Raw,32798.754,4727,340
Raw,48005.436,4730,340
Raw,99860.065,4736,340
Raw,33662.762,4740,340
Raw,49704.713,4741,340
Raw,1.1251519e+05,4750,340
Raw,43752.238,4757,340
Raw,49852.647,4763,340
Raw,43872.017,4763,340
Raw,16527.612,4765,340
Raw,54151.844,4768,340
Raw,90204.891,4779,340
Raw,52064.75,4790,340
Raw,1.07658011e+05,4797,340
Raw,36307.297,4797,340
Raw,43492.946,4804,340
Raw,40278.994,4805,340
Raw,88232.243,4808,340
Raw,24695.66,4810,340
Raw,61480.001,4813,340
Raw,16823.344,4817,340
Raw,1.20869503e+05,4817,340
Raw,8137.0406,4819,340
Raw,1.42032883e+05,4820,340
Raw,32735.974,4820,340
Raw,66829.106,4822,340
Raw,40743.785,4832,340
Raw,41595.058,4832,340
Raw,31208.171,4837,340
Raw,37471.148,4840,340
Raw,82075.109,4840,340
Raw,60087.97,4846,340
Raw,14136.197,4846,340
Raw,33855.25,4852,340
Raw,1.03767302e+05,4855,340
Raw,42912.043,4856,340
Raw,25495.297,4858,340
Raw,31909.959,4862,340
Raw,24245.249,4862,340
Raw,43139.834,4867,340
Raw,53615.019,4869,340
Raw,81924.239,4883,340
Raw,37968.716,4886,340
Raw,11309.085,4901,340
Raw,70796.27,4902,340
Raw,53735.405,4906,340
Raw,51614.864,4915,340
Raw,51916.936,4918,340
Raw,77275.662,4918,340
Raw,36806.034,4919,340
Raw,71123.196,4925,340
Raw,24027.959,4926,340
Raw,39111.297,4936,340
Raw,57930.145,4938,340
Raw,72261.287,4944,340
Raw,40996.586,4944,340
Raw,74371.679,4952,340
Raw,12961.75,4957,340
Raw,42014.341,4958,340
Raw,40349.467,4958,340
Raw,1.40404736e+05,4964,340
Raw,66625.079,4965,340
Raw,83872.907,4965,340
Raw,37925.126,4970,340
Raw,48279.282,4970,340
Raw,31323.944,4972,340
Raw,1.40862562e+05,4975,340
Raw,75892.996,4983,340
Raw,68223.026,4984,340
Raw,33903.363,4984,340
Raw,47950.164,4986,340
Raw,27099.052,4991,340
Raw,1.02648719e+05,4992,340
Raw,64674.199,5004,340
Raw,53204.338,5028,340
Raw,1.02605538e+05,5029,340
Raw,40672.315,5029,340
Raw,40206.928,5040,340
Raw,74571.83,5040,340
Raw,49060.451,5041,340
Raw,90150.266,5044,340
Raw,10545.383,5044,340
Raw,39750.179,5045,340
Raw,1.03856911e+05,5048,340
Raw,1.39019171e+05,5050,340
Raw,24512.996,5054,340
Raw,78197.173,5060,340
Raw,1.11184112e+05,5069,340
Raw,43017.649,5070,340
Raw,59242.234,5076,340
Raw,1.1896074e+05,5077,340
Raw,33718.554,5085,340
Raw,71309.815,5095,340
Raw,51992.468,5097,340
Raw,21137.866,5097,340
Raw,5562.6891,5108,340
Raw,33099.17,5111,340
Raw,39318.272,5117,340
Raw,45964.556,5123,340
Raw,59884.16,5135,340
Raw,25520.226,5140,340
Raw,57609.787,5145,340
Raw,44025.6,5148,340
Raw,37414.803,5151,340
Raw,20493.334,5154,340
Raw,26167.454,5158,340
Raw,75088.373,5162,340
Raw,60543.87,5162,340
Raw,1.36157075e+05,5169,340
Raw,62317.653,5172,340
Raw,44073.235,5174,340
Raw,1.15619707e+05,5174,340
Raw,36593.863,5179,340
Raw,1.39943631e+05,5183,340
Raw,23008.715,5188,340
Raw,92657.511,5197,340
Raw,39549.78,5204,340
Raw,65382.212,5209,340
Raw,75715.181,5213,340
Raw,36307.437,5216,340
Raw,50118.551,5220,340
Raw,54759.881,5233,340
Raw,35865.31,5233,340
Raw,44035.56,5239,340
Raw,17851.969,5239,340
Raw,73283.298,5240,340
Raw,36527.944,5254,340
Raw,86865.351,5254,340
Raw,68910.902,5267,340
Raw,32881.519,5269,340
Raw,39285.897,5270,340
Raw,56745.46,5275,340
Raw,45646.304,5276,340
Raw,29775.594,5276,340
Raw,38065.188,5280,340
Raw,65429.127,5280,340
Raw,16890.14,5280,340
Raw,36790.027,5282,340
Raw,44054.422,5300,340
Raw,24826.731,5300,340
Raw,37390.484,5301,340
Raw,30323.049,5301,340
Raw,7718.732,5304,340
Raw,46218.382,5304,340
Raw,28842.218,5316,340
Raw,20382.621,5324,340
Raw,36373.194,5337,340
Raw,75368.739,5338,340
Raw,81829.222,5344,340
Raw,76863.172,5350,340
Raw,48297.749,5357,340
Raw,32865.09,5362,340
Raw,24891.004,5363,340
Raw,34617.246,5364,340
Raw,39922.451,5372,340
Raw,58787.428,5374,340
Raw,35544.117,5374,340
Raw,42684.633,5394,340
Raw,1.33111746e+05,5407,340
Raw,25509.15,5418,340
Raw,1.32739803e+05,5421,340
Raw,43005.371,5424,340
Raw,32142.235,5424,340
Raw,93370.652,5429,340
Raw,14788.683,5438,340
Raw,1.30464361e+05,5439,340
Raw,50211.72,5443,340
Raw,86050.214,5445,340
Raw,45043.469,5458,340
Raw,46568.119,5458,340
Raw,39867.975,5458,340
Raw,44868.501,5459,340
Raw,60230.795,5461,340
Raw,58008.611,5465,340
Raw,45157.407,5465,340
Raw,52090.295,5465,340
Raw,65754.813,5483,340
Raw,36243.818,5489,340
Raw,32457.426,5489,340
Raw,62426.819,5498,340
Raw,17175.435,5498,340
Raw,38998.628,5499,340
Raw,38257.874,5500,340
Raw,68590.966,5502,340
Raw,71819.886,5504,340
Raw,79821.717,5506,340
Raw,1.02973756e+05,5507,340
Raw,16423.814,5507,340
Raw,51032.301,5515,340
Raw,52135.104,5522,340
Raw,1.40473127e+05,5525,340
Raw,63313.35,5526,340
Raw,93348.447,5532,340
Raw,1.3775502e+05,5538,340
Raw,54385.937,5542,340
Raw,23560.005,5543,340
Raw,59499.168,5577,340
Raw,75697.503,5579,340
Raw,68805.701,5583,340
Raw,50194.645,5587,340
Raw,37941.288,5588,340
Raw,53216.446,5592,340
Raw,1.33321568e+05,5603,340
Raw,70882.276,5610,340
Raw,63149.953,5617,340
Raw,66792.291,5617,340
Raw,26573,5621,340
Raw,38307.912,5625,340
Raw,30480.651,5625,340
Raw,59485.983,5630,340
Raw,64256.233,5630,340
Raw,55809.703,5630,340
Raw,72535.892,5631,340
Raw,41891.81,5635,340
Raw,39819.233,5635,340
Raw,13942.393,5637,340
Raw,16413.395,5639,340
Raw,41218.599,5644,340
Raw,34147.977,5655,340
Raw,34761.731,5660,340
Raw,43992.384,5660,340
Raw,42690.614,5662,340
Raw,20529.133,5663,340
Raw,76397.375,5665,340
Raw,29791.027,5666,340
Raw,29462.425,5666,340
Raw,1.15482173e+05,5672,340
Raw,69460.239,5674,340
Raw,38583.23,5676,340
Raw,41047.732,5684,340
Raw,44837.881,5689,340
Raw,1.12170752e+05,5689,340
Raw,56047.233,5702,340
Raw,79414.647,5709,340
Raw,47945.723,5711,340
Raw,28827.911,5712,340
Raw,83097.235,5712,340
Raw,62326.188,5712,340
Raw,39325.839,5718,340
Raw,49933.735,5723,340
Raw,1.1641411e+05,5726,340
Raw,70997.773,5729,340
Raw,55100.444,5734,340
Raw,38345.403,5737,340
Raw,62499.328,5746,340
Raw,41248.461,5747,340
Raw,34045.449,5747,340
Raw,71323.855,5748,340
Raw,84520.338,5755,340
Raw,39776.688,5757,340
Raw,59993.074,5775,340
Raw,26789.128,5777,340
Raw,27255.233,5779,340
Raw,46142.915,5790,340
Raw,78541.797,5798,340
Raw,12518.477,5811,340
Raw,87659.801,5813,340
Raw,13405.85,5814,340
Raw,57771.267,5824,340
Raw,57720.832,5854,340
Raw,53054.469,5873,340
Raw,1.31597467e+05,5876,340
Raw,43126.236,5876,340
Raw,47642.327,5877,340
Raw,49561.926,5877,340
Raw,42706.662,5879,340
Raw,63228.29,5879,340
Raw,50109.123,5894,340
Raw,27636.789,5897,340
Raw,89226.926,5899,340
Raw,44572.307,5904,340
Raw,26651.787,5917,340
Raw,47894.16,5918,340
Raw,1.24361752e+05,5942,340
Raw,77478.457,5947,340
Raw,52740.183,5953,340
Raw,54980.922,5957,340
Raw,17917.292,5959,340
Raw,52873.319,5962,340
Raw,55722.159,5965,340
Raw,35147.098,5975,340
Raw,58497.315,5979,340
Raw,90220.371,5992,340
Raw,48753.928,5999,340
Raw,85459.663,5999,340
Raw,51101.783,6017,340
Raw,38483.19,6018,340
Raw,38387.043,6022,340
Raw,20833.314,6022,340
Raw,1.01113697e+05,6026,340
Raw,47818.263,6030,340
Raw,47025.751,6038,340
Raw,30892.391,6052,340
Raw,60700.033,6053,340
Raw,28804.564,6053,340
Raw,43577.005,6057,340
Raw,88397.786,6057,340
Raw,1.33090377e+05,6069,340
Raw,69914.17,6078,340
Raw,12359.679,6078,340
Raw,43537.674,6081,340
Raw,61642.472,6081,340
Raw,19215.57,6086,340
Raw,1.18571509e+05,6102,340
Raw,1.3469164e+05,6106,340
Raw,37376.826,6118,340
Raw,44521.434,6121,340
Raw,51561.389,6122,340
Raw,30656.45,6124,340
Raw,1.02638721e+05,6124,340
Raw,53280.097,6126,340
Raw,37929.829,6134,340
Raw,60181.805,6144,340
Raw,59011.485,6150,340
Raw,43420.373,6150,340
Raw,90650.199,6155,340
Raw,30807.671,6164,340
Raw,25042.496,6176,340
Raw,53729.078,6176,340
Raw,32002,6176,340
Raw,81601.06,6179,340
Raw,79375.556,6180,340
Raw,61717.112,6182,340
Raw,1.1295291e+05,6184,340
Raw,47564.49,6201,340
Raw,25461.382,6201,340
Raw,68835.604,6213,340
Raw,63100.379,6217,340
Raw,57127.782,6222,340
Raw,85264.026,6228,340
Raw,41300.729,6228,340
Raw,30810.45,6230,340
Raw,12540.404,6230,340
Raw,67902.906,6236,340
Raw,10162.167,6236,340
Raw,62877.214,6237,340
Raw,40761.405,6246,340
Raw,31569.221,6255,340
Raw,98876.329,6260,340
Raw,63047.25,6263,340
Raw,51155.412,6268,340
Raw,95910.584,6271,340
Raw,1.06464988e+05,6283,340
Raw,88840.058,6290,340
Raw,45113.484,6292,340
Raw,73256.808,6305,340
Raw,35516.597,6307,340
Raw,5513.4087,6310,340
Raw,93452.102,6312,340
Raw,51844.005,6317,340
Raw,30520.155,6318,340
Raw,36564.729,6318,340
Raw,1.03446047e+05,6328,340
Raw,20101.442,6328,340
Raw,10703.387,6335,340
Raw,19044.971,6343,340
Raw,35111.421,6355,340
Raw,15260.772,6355,340
Raw,60946.756,6357,340
Raw,29958.048,6357,340
Raw,1.25955337e+05,6360,340
Raw,89550.714,6362,340
Raw,48713.989,6363,340
Raw,64449.786,6369,340
Raw,99551.34,6370,340
Raw,65568.285,6380,340
Raw,64107.515,6382,340
Raw,96399.576,6392,340
Raw,50696.565,6405,340
Raw,31540.191,6420,340
Raw,44252.225,6422,340
Raw,97370.929,6430,340
Raw,69776.792,6432,340
Raw,21055.327,6433,340
Raw,82988.148,6448,340
Raw,25576.03,6451,340
Raw,27726.593,6457,340
Raw,45989.335,6461,340
Raw,51020.252,6470,340
Raw,57605.65,6490,340
Raw,28246.239,6490,340
Raw,50917.546,6500,340
Raw,38977.786,6500,340
Raw,52456.783,6519,340
Raw,21751.861,6524,340
Raw,1.06991771e+05,6526,340
Raw,1.17450893e+05,6530,340
Raw,42189.389,6532,340
Raw,29618.476,6532,340
Raw,35669.662,6535,340
Raw,1.01433468e+05,6540,340
Raw,55384.702,6545,340
Raw,66290.049,6549,340
Raw,66951.777,6554,340
Raw,50991.823,6557,340
Raw,45986.72,6557,340
Raw,44596.314,6559,340
Raw,11047.971,6563,340
Raw,42930.67,6568,340
Raw,46120.111,6570,340
Raw,53855.222,6576,340
Raw,1.04607372e+05,6586,340
Raw,50902.016,6588,340
Raw,19220.771,6592,340
Raw,42197.587,6594,340
Raw,32425.118,6595,340
Raw,12755.13,6597,340
Raw,68297.323,6597,340
Raw,35055.097,6597,340
Raw,18782.887,6604,340
Raw,26443.091,6604,340
Raw,49106.859,6604,340
Raw,34136.955,6606,340
Raw,35221.278,6609,340
Raw,15990.651,6609,340
Raw,11446.881,6614,340
Raw,34874.007,6620,340
Raw,38395.519,6623,340
Raw,67370.702,6625,340
Raw,71913.942,6625,340
Raw,67088.329,6627,340
Raw,33728.507,6628,340
Raw,45827.85,6636,340
Raw,41183.053,6643,340
Raw,41650.689,6652,340
Raw,29389.896,6655,340
Raw,30306.595,6662,340
Raw,51232.848,6668,340
Raw,29291.929,6668,340
Raw,1.3539798e+05,6671,340
Raw,50698.35,6673,340
Raw,30325.653,6673,340
Raw,35235.294,6675,340
Raw,59268.222,6675,340
Raw,59739.692,6677,340
Raw,46848.071,6681,340
Raw,1.13782051e+05,6681,340
Raw,17771.78,6684,340
Raw,26410.026,6684,340
Raw,75367.04,6701,340
Raw,32374.879,6701,340
Raw,23703.466,6701,340
Raw,40617.204,6706,340
Raw,43992.927,6709,340
Raw,36653.991,6714,340
Raw,44552.373,6718,340
Raw,37155.335,6722,340
Raw,44857.047,6723,340
Raw,56192.281,6723,340
Raw,60797.481,6753,340
Raw,18722.478,6753,340
Raw,1.16830866e+05,6762,340
Raw,1.21785013e+05,6764,340
Raw,37370.131,6767,340
Raw,76419.981,6768,340
Raw,45611.454,6770,340
Raw,73455.482,6770,340
Raw,38830.412,6771,340
Raw,21261.812,6771,340
Raw,75140.205,6777,340
Raw,72844.202,6778,340
Raw,18461.587,6780,340
Raw,64921.819,6781,340
Raw,78704.362,6782,340
Raw,1.31021723e+05,6783,340
Raw,61840.607,6784,340
Raw,47293.904,6789,340
Raw,81127.471,6791,340
Raw,1.43779685e+05,6796,340
Raw,43451.854,6807,340
Raw,72375.754,6807,340
Raw,84311.559,6811,340
Raw,24579.211,6813,340
Raw,75425.342,6815,340
Raw,78732.385,6818,340
Raw,78643.817,6824,340
Raw,20881.912,6827,340
Raw,1.18269252e+05,6831,340
Raw,46808.623,6837,340
Raw,41892.322,6849,340
Raw,1.37692142e+05,6849,340
Raw,36521.104,6853,340
Raw,62216.236,6858,340
Raw,1.04233194e+05,6862,340
Raw,35780.847,6867,340
Raw,82363.432,6868,340
Raw,27419.977,6873,340
Raw,32734.63,6873,340
Raw,49792.027,6878,340
Raw,30977.749,6878,340
Raw,92108.163,6879,340
Raw,1.21014993e+05,6882,340
Raw,46362.445,6883,340
Raw,53235.267,6886,340
Raw,47474.629,6892,340
Raw,26101.003,6892,340
Raw,52796.655,6896,340
Raw,60223.796,6906,340
Raw,33267.733,6909,340
Raw,56773.994,6913,340
Raw,24395.732,6913,340
Raw,53175.294,6920,340
Raw,72962.203,6924,340
Raw,40724.233,6928,340
Raw,52887.68,6938,340
Raw,77736.602,6943,340
Raw,56644.609,6944,340
Raw,92746.797,6946,340
Raw,1.03575405e+05,6957,340
Raw,15189.107,6970,340
Raw,56757.913,6978,340
Raw,29885.686,6983,340
Raw,64253.403,6983,340
Raw,45432.85,6983,340
Raw,1.17717675e+05,6985,340
Raw,1.29314758e+05,6987,340
Raw,35061.45,6993,340
Raw,1.17719777e+05,7005,340
Raw,24452.92,7009,340
Raw,48057.584,7014,340
Raw,1.1852194e+05,7015,340
Raw,30821.203,7015,340
Raw,62274.136,7015,340
Raw,60462.405,7020,340
Raw,49528.719,7021,340
Raw,49093.113,7028,340
Raw,62637.209,7034,340
Raw,60021.109,7040,340
Raw,74005.904,7046,340
Raw,98491.393,7046,340
Raw,50370.517,7047,340
Raw,49409.918,7050,340
Raw,37147.681,7056,340
Raw,26653.766,7059,340
Raw,1.2012859e+05,7074,340
Raw,13162.562,7077,340
Raw,1.39391813e+05,7085,340
Raw,43716.163,7087,340
Raw,81633.962,7087,340
Raw,54478.221,7106,340
Raw,57007.515,7109,340
Raw,40694.526,7112,340
Raw,33114.78,7114,340
Raw,40361.197,7114,340
Raw,80599.262,7118,340
Raw,24488.098,7119,340
Raw,83026.817,7123,340
Raw,47028.337,7125,340
Raw,42137.288,7125,340
Raw,24818.619,7136,340
Raw,73274.41,7139,340
Raw,46409.856,7153,340
Raw,62482.518,7160,340
Raw,45510.331,7161,340
Raw,51528.355,7165,340
Raw,57038.504,7166,340
Raw,47481.58,7166,340
Raw,43470.04,7168,340
Raw,1.01904881e+05,7168,340
Raw,41880.821,7170,340
Raw,28789.729,7174,340
Raw,70613.703,7177,340
Raw,59626.594,7177,340
Raw,1.23460195e+05,7187,340
Raw,16895.484,7187,340
Raw,46852.984,7190,340
Raw,82325.882,7195,340
Raw,83592.595,7201,340
Raw,23740.681,7201,340
Raw,18665.048,7214,340
Raw,71052.79,7218,340
Raw,1.17089257e+05,7221,340
Raw,1.14720035e+05,7225,340
Raw,50907.709,7232,340
Raw,39473.763,7233,340
Raw,22082.868,7238,340
Raw,85369.252,7238,340
Raw,60400.85,7240,340
Raw,67223.357,7240,340
Raw,50599.25,7244,340
Raw,63852.873,7245,340
Raw,41192.975,7248,340
Raw,70828.801,7256,340
Raw,77805.683,7268,340
Raw,36417.885,7287,340
Raw,69746.621,7288,340
Raw,44793.404,7291,340
Raw,96155.131,7299,340
Raw,81291.024,7304,340
Raw,76200.266,7307,340
Raw,35613.67,7307,340
Raw,22693.688,7310,340
Raw,38387.526,7313,340
Raw,38939.806,7313,340
Raw,45424.512,7323,340
Raw,75013.579,7325,340
Raw,32300.458,7325,340
Raw,54236.037,7332,340
Raw,41829.474,7332,340
Raw,97061.234,7334,340
Raw,57739.067,7342,340
Raw,21856.189,7372,340
Raw,85364.189,7381,340
Raw,64814.481,7390,340
Raw,44419.277,7393,340
Raw,56976.374,7395,340
Raw,30160.295,7395,340
Raw,42619.73,7396,340
Raw,26294.4,7397,340
Raw,51120.425,7405,340
Raw,1.29666064e+05,7410,340
Raw,58732.545,7414,340
Raw,89118.839,7414,340
Raw,75972.207,7418,340
Raw,52955.776,7420,340
Raw,74215.963,7423,340
Raw,56422.663,7425,340
Raw,29324.914,7436,340
Raw,93561.795,7440,340
Raw,24929.101,7440,340
Raw,53053.088,7443,340
Raw,19598.146,7443,340
Raw,86317.979,7444,340
Raw,36458.523,7444,340
Raw,56742.033,7445,340
Raw,52894.013,7454,340
Raw,50687.764,7459,340
Raw,61808.134,7468,340
Raw,62711.526,7468,340
Raw,90710.08,7469,340
Raw,1.14443171e+05,7470,340
Raw,1.18941528e+05,7474,340
Raw,32603.034,7478,340
Raw,67812.535,7478,340
Raw,1.28661324e+05,7482,340
Raw,31514.698,7482,340
Raw,42277.855,7485,340
Raw,64437.895,7485,340
Raw,1.15741752e+05,7486,340
Raw,62352.651,7487,340
Raw,42973.616,7489,340
Raw,1.17132052e+05,7493,340
Raw,35944.549,7496,340
Raw,74013.822,7497,340
Raw,20703.893,7497,340
Raw,90785.344,7507,340
Raw,91535.146,7513,340
Raw,96327.344,7514,340
Raw,29822.705,7520,340
Raw,55191.662,7521,340
Raw,35102.952,7533,340
Raw,64763.484,7537,340
Raw,1.20142672e+05,7546,340
Raw,26201.21,7548,340
Raw,28149.294,7550,340
Raw,1.13568738e+05,7550,340
Raw,83565.711,7554,340
Raw,1.12678786e+05,7561,340
Raw,43888.977,7570,340
Raw,73677.747,7592,340
Raw,82751.307,7595,340
Raw,31287.819,7601,340
Raw,41902.872,7606,340
Raw,36084.001,7609,340
Raw,79772.134,7620,340
Raw,50760.593,7624,340
Raw,40945.872,7635,340
Raw,34934.103,7640,340
Raw,52973.755,7644,340
Raw,79188.834,7651,340
Raw,1.19338991e+05,7659,340
Raw,59607.907,7668,340
Raw,90019.077,7686,340
Raw,68093.791,7696,340
Raw,63716.72,7702,340
Raw,61528.885,7707,340
Raw,70716.718,7717,340
Raw,59244.123,7722,340
Raw,25187.405,7731,340
Raw,71927.215,7731,340
Raw,97461.223,7741,340
Raw,39445.961,7745,340
Raw,35840.586,7745,340
Raw,54557.577,7745,340
Raw,35872.29,7750,340
Raw,74621.535,7760,340
Raw,82094.225,7761,340
Raw,55616.623,7765,340
Raw,1.29560583e+05,7765,340
Raw,62691.082,7771,340
Raw,55874.077,7772,340
Raw,28152.661,7778,340
Raw,46985.44,7778,340
Raw,58157.03,7779,340
Raw,1.19303403e+05,7779,340
Raw,38628.021,7782,340
Raw,1.33156395e+05,7803,340
Raw,1.24348107e+05,7809,340
Raw,98931.669,7811,340
Raw,59826.297,7828,340
Raw,58892.009,7836,340
Raw,80511.56,7839,340
Raw,81253.931,7839,340
Raw,1.24840302e+05,7845,340
Raw,61445.239,7848,340
Raw,17445.366,7857,340
Raw,1.3249726e+05,7861,340
Raw,63774.95,7863,340
Raw,62382.926,7880,340
Raw,42077.155,7880,340
Raw,88782.633,7886,340
Raw,41046.829,7886,340
Raw,21798.062,7887,340
Raw,45852.285,7893,340
Raw,50686.225,7914,340
Raw,63766.85,7914,340
Raw,65183.149,7918,340
Raw,46378.629,7927,340
Raw,51942.943,7930,340
Raw,88356.41,7933,340
Raw,50874.432,7935,340
Raw,28292.588,7935,340
Raw,38577.218,7936,340
Raw,45940.281,7941,340
Raw,44286.908,7942,340
Raw,55126.1,7945,340
Raw,85292.419,7945,340
Raw,47766.051,7952,340
Raw,32528.488,7967,340
Raw,74493.151,7974,340
Raw,40131.066,7976,340
Raw,41569.777,7976,340
Raw,1.21689456e+05,7979,340
Raw,19979.393,7983,340
Raw,39348.392,7996,340
Raw,64733.455,7999,340
Raw,1.20165885e+05,8001,340
Raw,26250.486,8006,340
Raw,36375.489,8012,340
Raw,24082.959,8013,340
Raw,50497.802,8017,340
Raw,58786.187,8019,340
Raw,1.32688638e+05,8027,340
Raw,42162.08,8032,340
Raw,47542.33,8032,340
Raw,33542.28,8035,340
Raw,77017.528,8060,340
Raw,55588.293,8062,340
Raw,31400.941,8066,340
Raw,19295.606,8072,340
Raw,76926.144,8075,340
Raw,30630.66,8087,340
Raw,46379.426,8089,340
Raw,30380.001,8093,340
Raw,6878.4957,8093,340
Raw,22868.483,8105,340
Raw,56569.774,8110,340
Raw,45631.762,8114,340
Raw,42915.433,8114,340
Raw,81147.331,8125,340
Raw,71204.648,8133,340
Raw,40323.312,8141,340
Raw,61965.842,8141,340
Raw,37528.443,8149,340
Raw,43082.946,8152,340
Raw,56416.781,8155,340
Raw,30272.41,8162,340
Raw,90186.375,8166,340
Raw,91084.908,8168,340
Raw,1.00811011e+05,8186,340
Raw,94254.689,8188,340
Raw,43011.8,8212,340
Raw,44487.549,8213,340
Raw,29126.517,8213,340
Raw,10473.844,8214,340
Raw,61145.19,8214,340
Raw,51444.318,8214,340
Raw,37311.145,8220,340
Raw,40771.246,8220,340
Raw,34828.993,8228,340
Raw,61070.691,8236,340
Raw,23830.278,8240,340
Raw,84125.749,8248,340
Raw,39199.052,8248,340
Raw,47832.333,8249,340
Raw,82137.54,8249,340
Raw,78422.951,8253,340
Raw,34441.224,8254,340
Raw,92647.253,8275,340
Raw,16265.767,8277,340
Raw,26459.218,8277,340
Raw,21676.187,8289,340
Raw,1.04038016e+05,8290,340
Raw,44961.861,8293,340
Raw,50842.679,8301,340
Raw,28909.022,8301,340
Raw,43363.775,8304,340
Raw,82359.854,8309,340
Raw,1.06527647e+05,8312,340
Raw,67903.626,8313,340
Raw,47670.551,8314,340
Raw,77301.751,8319,340
Raw,46592.01,8322,340
Raw,64903.933,8322,340
Raw,56320.461,8327,340
Raw,20163.413,8329,340
Raw,25679.486,8342,340
Raw,45265.796,8352,340
Raw,1.12136427e+05,8363,340
Raw,97367.133,8365,340
Raw,23478.462,8372,340
Raw,51856.382,8382,340
Raw,21481.273,8382,340
Raw,30291.021,8388,340
Raw,54615.662,8391,340
Raw,44472.09,8391,340
Raw,71831.35,8392,340
Raw,15853.182,8392,340
Raw,44076.464,8395,340
Raw,31204.669,8395,340
Raw,47393.077,8404,340
Raw,66993.949,8405,340
Raw,58095.418,8405,340
Raw,80755.34,8407,340
Raw,1.2953476e+05,8412,340
Raw,7273.1567,8423,340
Raw,75854.154,8429,340
Raw,38892.926,8434,340
Raw,79711.76,8434,340
Raw,1.3661864e+05,8443,340
Raw,27201.338,8445,340
Raw,47156.268,8449,340
Raw,87958.071,8459,340
Raw,1.29091471e+05,8460,340
Raw,96985.241,8479,340
Raw,1.00985708e+05,8481,340
Raw,26281.506,8494,340
Raw,1.27366616e+05,8496,340
Raw,46100.1,8504,340
Raw,29323.414,8504,340
Raw,53542.371,8506,340
Raw,54461.193,8506,340
Raw,43551.456,8507,340
Raw,52109.346,8515,340
Raw,21361.377,8515,340
Raw,40059.495,8520,340
Raw,51316.441,8522,340
Raw,43334.028,8526,340
Raw,43635.825,8530,340
Raw,1.19685176e+05,8530,340
Raw,31759.385,8535,340
Raw,94644.075,8542,340
Raw,23257.122,8546,340
Raw,5498.4436,8546,340
Raw,42275.679,8547,340
Raw,26872.131,8547,340
Raw,59652.539,8553,340
Raw,87379.512,8554,340
Raw,46497.795,8557,340
Raw,45186.122,8558,340
Raw,1.20239538e+05,8565,340
Raw,1.01196673e+05,8572,340
Raw,25211.764,8579,340
Raw,1.15198457e+05,8584,340
Raw,16990.672,8585,340
Raw,45889.28,8586,340
Raw,37644.419,8588,340
Raw,60501.707,8591,340
Raw,44447.397,8602,340
Raw,31332.232,8625,340
Raw,54577.174,8651,340
Raw,62037.128,8651,340
Raw,64280.109,8656,340
Raw,30205.204,8665,340
Raw,18516.287,8666,340
Raw,23836.574,8671,340
Raw,1.21141903e+05,8673,340
Raw,78323.079,8675,340
Raw,23626.827,8696,340
Raw,98766.585,8700,340
Raw,95466.648,8706,340
Raw,37710.073,8709,340
Raw,47661.947,8710,340
Raw,49952.504,8715,340
Raw,72187.518,8719,340
Raw,68125.796,8725,340
Raw,68616.882,8729,340
Raw,36566.788,8729,340
Raw,60714.141,8744,340
Raw,72678.434,8749,340
Raw,38392.379,8752,340
Raw,1.18078211e+05,8752,340
Raw,42209.704,8771,340
Raw,16319.142,8771,340
Raw,47874.573,8779,340
Raw,25859.59,8788,340
Raw,58221.505,8789,340
Raw,1.02758421e+05,8793,340
Raw,1.30847651e+05,8800,340
Raw,10350.844,8802,340
Raw,99833.655,8806,340
Raw,1.3007785e+05,8825,340
Raw,48496.422,8833,340
Raw,33319.855,8834,340
Raw,24208.383,8834,340
Raw,41176.655,8836,340
Raw,54296.957,8839,340
Raw,35614.742,8845,340
Raw,16359.887,8845,340
Raw,27021.994,8846,340
Raw,43599.685,8846,340
Raw,38952.464,8847,340
Raw,35115.487,8849,340
Raw,33759.014,8857,340
Raw,39176.41,8876,340
Raw,56854.766,8877,340
Raw,91741.743,8882,340
Raw,43463.31,8883,340
Raw,44426.048,8890,340
Raw,57714.472,8894,340
Raw,39834.625,8898,340
Raw,51181.64,8901,340
Raw,30674.349,8905,340
Raw,44902.536,8905,340
Raw,44598.243,8909,340
Raw,51874.513,8911,340
Raw,43718.881,8938,340
Raw,42928.267,8938,340
Raw,18364.314,8940,340
Raw,55008.15,8940,340
Raw,18681.245,8945,340
Raw,58576.486,8948,340
Raw,21925.988,8955,340
Raw,52088.634,8955,340
Raw,62737.926,8956,340
Raw,49500.895,8958,340
Raw,37159.374,8969,340
Raw,33591.492,8972,340
Raw,1.12371998e+05,8973,340
Raw,51928.171,8986,340
Raw,21708.604,8987,340
Raw,41600.455,8987,340
Raw,60713.754,8996,340
Raw,13977.655,8996,340
Raw,41592.499,9002,340
Raw,84066.38,9012,340
Raw,1.44407204e+05,9019,340
Raw,81142.762,9028,340
Raw,28298.719,9046,340
Raw,39006.196,9046,340
Raw,83936.106,9048,340
Raw,87287.622,9050,340
Raw,72623.62,9059,340
Raw,25517.401,9063,340
Raw,94907.895,9069,340
Raw,50537.98,9076,340
Raw,30147.202,9080,340
Raw,1.2715988e+05,9081,340
Raw,60172.675,9085,340
Raw,39824.708,9088,340
Raw,91358.109,9096,340
Raw,35663.263,9108,340
Raw,65272.836,9108,340
Raw,59751.76,9108,340
Raw,36472.117,9113,340
Raw,38244.677,9113,340
Raw,40514.413,9116,340
Raw,45670.482,9129,340
Raw,60153.897,9155,340
Raw,33100.6,9164,340
Raw,55379.46,9172,340
Raw,19297.786,9181,340
Raw,85026.491,9181,340
Raw,27739.866,9181,340
Raw,41600.434,9183,340
Raw,89103.461,9200,340
Raw,46943.962,9201,340
Raw,46102.37,9204,340
Raw,86839.089,9207,340
Raw,47328.912,9210,340
Raw,37945.351,9215,340
Raw,41511.67,9215,340
Raw,1.37504399e+05,9217,340
Raw,41213.909,9220,340
Raw,63670.119,9220,340
Raw,1.27921469e+05,9226,340
Raw,35833.201,9230,340
Raw,68170.82,9231,340
Raw,27280.855,9234,340
Raw,24495.09,9242,340
Raw,40528.921,9244,340
Raw,35840.784,9250,340
Raw,35659.132,9250,340
Raw,23240.046,9254,340
Raw,59605.497,9258,340
Raw,48725.708,9270,340
Raw,68580.214,9270,340
Raw,34356.535,9283,340
Raw,48547.442,9295,340
Raw,49812.471,9295,340
Raw,90859.171,9298,340
Raw,24862.283,9299,340
Raw,89060.365,9313,340
Raw,96384.796,9320,340
Raw,57490.886,9321,340
Raw,74522.908,9322,340
Raw,91349.607,9334,340
Raw,51586.25,9338,340
Raw,64441.724,9344,340
Raw,40341.38,9345,340
Raw,29116.644,9349,340
Raw,1.10604001e+05,9353,340
Raw,47100.926,9357,340
Raw,98189.48,9358,340
Raw,72029.47,9361,340
Raw,24693.763,9361,340
Raw,54503.067,9364,340
Raw,71285.013,9365,340
Raw,9710.4485,9365,340
Raw,38976.637,9373,340
Raw,80391.297,9378,340
Raw,45777.41,9380,340
Raw,17302.82,9380,340
Raw,54767,9384,340
Raw,1.02996507e+05,9386,340
Raw,63834.204,9386,340
Raw,9369.9543,9388,340
Raw,55545.995,9388,340
Raw,94249.814,9388,340
Raw,86865.528,9393,340
Raw,82500.982,9396,340
Raw,26093.233,9408,340
Raw,31759.325,9426,340
Raw,29808.809,9429,340
Raw,26341.253,9434,340
Raw,54544.483,9436,340
Raw,41447.96,9445,340
Raw,34860.601,9451,340
Raw,31732.604,9454,340
Raw,37732.817,9454,340
Raw,50274.583,9455,340
Raw,49236.592,9461,340
Raw,27072.339,9464,340
Raw,47617.227,9471,340
Raw,92860.769,9472,340
Raw,61094.714,9473,340
Raw,1.23858271e+05,9479,340
Raw,1.25595462e+05,9484,340
Raw,51089.521,9492,340
Raw,54177.542,9493,340
Raw,64247.235,9503,340
Raw,28345.812,9510,340
Raw,69252.312,9513,340
Raw,81512.72,9528,340
Raw,97358.984,9538,340
Raw,33977.501,9543,340
Raw,13115.306,9548,340
Raw,39170.774,9548,340
Raw,36367.831,9555,340
Raw,1.03365034e+05,9563,340
Raw,50973.244,9577,340
Raw,42550.062,9577,340
Raw,79386.02,9588,340
Raw,22167.802,9590,340
Raw,44481.855,9592,340
Raw,71666.405,9594,340
Raw,66510.317,9596,340
Raw,31931.729,9597,340
Raw,79359.738,9597,340
Raw,1.16201549e+05,9607,340
Raw,34140.574,9610,340
Raw,24943.241,9611,340
Raw,1.17954596e+05,9611,340
Raw,55713.09,9614,340
Raw,19867.898,9623,340
Raw,13184.685,9625,340
Raw,25714.093,9626,340
Raw,80185.732,9637,340
Raw,26785.812,9645,340
Raw,1.05021812e+05,9646,340
Raw,40326.41,9647,340
Raw,30659.216,9651,340
Raw,46874.849,9655,340
Raw,51042.065,9660,340
Raw,51497.235,9660,340
Raw,1.35209296e+05,9661,340
Raw,17869.181,9662,340
Raw,93530.13,9667,340
Raw,41335.64,9674,340
Raw,8441.9136,9674,340
Raw,54213.138,9674,340
Raw,36641.218,9680,340
Raw,60051.803,9680,340
Raw,45961.482,9681,340
Raw,58169.686,9689,340
Raw,1.30007845e+05,9691,340
Raw,49138.982,9694,340
Raw,57438.269,9695,340
Raw,1.05387115e+05,9707,340
Raw,47929.217,9708,340
Raw,46311.299,9708,340
Raw,41861.576,9717,340
Raw,50588.09,9725,340
Raw,43205.346,9726,340
Raw,31720.015,9726,340
Raw,41919.883,9726,340
Raw,39501.213,9729,340
Raw,36556.826,9737,340
Raw,50365.622,9744,340
Raw,25805.116,9744,340
Raw,39784.951,9751,340
Raw,95333.233,9766,340
Raw,39606.535,9767,340
Raw,98917.946,9767,340
Raw,20511.818,9771,340
Raw,70292.906,9772,340
Raw,1.15192388e+05,9773,340
Raw,65860.08,9778,340
Raw,18891.051,9785,340
Raw,50438.109,9788,340
Raw,67114.805,9791,340
Raw,25414.549,9791,340
Raw,55754.825,9794,340
Raw,75080.759,9794,340
Raw,61530.901,9802,340
Raw,71188.246,9806,340
Raw,86225.143,9815,340
Raw,45033.741,9815,340
Raw,16723.378,9816,340
Raw,1.08407407e+05,9818,340
Raw,1.04683684e+05,9822,340
Raw,55289.518,9829,340
Raw,76150.087,9829,340
Raw,63292.665,9830,340
Raw,76866.965,9831,340
Raw,33899.17,9831,340
Raw,40506.954,9837,340
Raw,30878.605,9838,340
Raw,31389.99,9851,340
Raw,31831.026,9859,340
Raw,65774.061,9872,340
Raw,29983.3,9872,340
Raw,39741.738,9874,340
Raw,27974.835,9877,340
Raw,1.1897606e+05,9883,340
Raw,1.40639189e+05,9885,340
Raw,64353.722,9885,340
Raw,59991.284,9894,340
Raw,76114.145,9902,340
Raw,37746.082,9903,340
Raw,91820.978,9904,340
Raw,52198.149,9905,340
Raw,61597.3,9906,340
Raw,58146.536,9923,340
Raw,42259.202,9924,340
Raw,41869.092,9924,340
Raw,33874.815,9925,340
Raw,11123.428,9928,340
Raw,39259.763,9930,340
Raw,41590.87,9937,340
Raw,80664.277,9938,340
Raw,37146.873,9940,340
Raw,1.4366318e+05,9940,340
Raw,64338.252,9942,340
Raw,27011.941,9951,340
Raw,34504.172,9953,340
Raw,19055.641,9968,340
Raw,89451.819,9974,340
Raw,66902.551,9980,340
Raw,59201.857,9987,340
Raw,26339.337,9987,340
Raw,36161.659,10000,340
Raw,23416.423,10003,340
Raw,96250.009,10004,340
Raw,58346.619,10008,340
Raw,15163.573,10008,340
Raw,69388.542,10037,340
Raw,43783.003,10043,340
Raw,27324.967,10049,340
Raw,9601.8613,10051,340
Raw,40379.162,10055,340
Raw,32541.183,10055,340
Raw,16774.968,10055,340
Raw,1.24656395e+05,10065,340
Raw,57193.257,10065,340
Raw,67030.607,10068,340
Raw,38585.96,10068,340
Raw,57819.107,10070,340
Raw,61646.859,10074,340
Raw,86562.338,10075,340
Raw,1.4234155e+05,10078,340
Raw,83510.76,10088,340
Raw,37708.317,10088,340
Raw,1.25522388e+05,10091,340
Raw,43455.799,10102,340
Raw,65876.624,10104,340
Raw,44236.355,10105,340
Raw,66451.109,10105,340
Raw,42798.428,10108,340
Raw,11183.674,10123,340
Raw,23520.306,10135,340
Raw,68140.535,10141,340
Raw,49609.704,10141,340
Raw,1.15942844e+05,10144,340
Raw,21023.508,10144,340
Raw,28897.63,10146,340
Raw,1.28258684e+05,10149,340
Raw,46018.731,10159,340
Raw,38726.706,10159,340
Raw,1.32202001e+05,10164,340
Raw,45764.542,10168,340
Raw,50523.936,10171,340
Raw,1.38062683e+05,10174,340
Raw,43206.057,10176,340
Raw,1.10816304e+05,10176,340
Raw,27763.044,10183,340
Raw,62737.114,10185,340
Raw,1.02833279e+05,10188,340
Raw,22981.96,10191,340
Raw,30203.761,10191,340
Raw,29783.738,10194,340
Raw,40955.841,10198,340
Raw,86964.176,10204,340
Raw,11805.02,10208,340
Raw,91394.54,10215,340
Raw,57923.464,10217,340
Raw,41018.583,10217,340
Raw,63601.54,10222,340
Raw,1.14277339e+05,10222,340
Raw,47452.935,10223,340
Raw,62958.454,10233,340
Raw,94211.173,10239,340
Raw,29326.778,10247,340
Raw,44263.83,10248,340
Raw,49472.424,10251,340
Raw,61234.717,10265,340
Raw,55578.163,10265,340
Raw,58638.872,10267,340
Raw,48351.957,10267,340
Raw,54353.02,10271,340
Raw,57493.22,10277,340
Raw,71994.465,10284,340
Raw,68652.449,10285,340
Raw,1.11168065e+05,10286,340
Raw,45839.484,10287,340
Raw,1.4014101e+05,10288,340
Raw,76010.028,10289,340
Raw,70599.635,10289,340
Raw,62602.897,10293,340
Raw,36916.403,10294,340
Raw,16329.9,10297,340
Raw,94068.772,10297,340
Raw,58371.55,10307,340
Raw,28035.864,10307,340
Raw,95331.113,10324,340
Raw,1.32093355e+05,10328,340
Raw,22043.376,10333,340
Raw,39030.597,10333,340
Raw,51343.693,10335,340
Raw,1.03324447e+05,10337,340
Raw,49491.513,10343,340
Raw,75885.883,10348,340
Raw,54142.537,10354,340
Raw,31116.594,10355,340
Raw,39239.231,10374,340
Raw,36979.555,10379,340
Raw,1.09104838e+05,10383,340
Raw,63027.918,10384,340
Raw,39420.393,10384,340
Raw,10650.076,10385,340
Raw,94438.523,10388,340
Raw,63546.54,10391,340
Raw,99104.793,10394,340
Raw,70514.267,10395,340
Raw,31981.758,10395,340
Raw,1.45271892e+05,10396,340
Raw,31944.038,10396,340
Raw,62158.811,10397,340
Raw,33086.305,10397,340
Raw,42963.13,10415,340
Raw,49351.597,10415,340
Raw,33749.957,10425,340
Raw,27168.974,10426,340
Raw,50828.572,10427,340
Raw,55529.212,10432,340
Raw,59569.637,10433,340
Raw,1.07316622e+05,10434,340
Raw,1.31463091e+05,10444,340
Raw,56138.979,10446,340
Raw,32675.447,10453,340
Raw,56144.906,10454,340
Raw,65546.537,10456,340
Raw,53352.055,10464,340
Raw,7969.5145,10464,340
Raw,66867.903,10467,340
Raw,53229.599,10477,340
Raw,54298.404,10477,340
Raw,13741.006,10477,340
Raw,26251.305,10480,340
Raw,33610.159,10480,340
Raw,64741.529,10485,340
Raw,43266.278,10485,340
Raw,36966.178,10486,340
Raw,1.43025778e+05,10490,340
Raw,46513.484,10496,340
Raw,48847.669,10502,340
Raw,15323.833,10502,340
Raw,36307.864,10516,340
Raw,48249.973,10516,340
Raw,77882.725,10519,340
Raw,46435.353,10524,340
Raw,70486.321,10525,340
Raw,30975.895,10532,340
Raw,67796.81,10535,340
Raw,33263.326,10535,340
Raw,61215.066,10540,340
Raw,89662.754,10540,340
Raw,60457.107,10542,340
Raw,46099.423,10548,340
Raw,40103.053,10548,340
Raw,25517.64,10557,340
Raw,33004.262,10557,340
Raw,57021.447,10557,340
Raw,26529.765,10562,340
Raw,46283.292,10562,340
Raw,27803.321,10562,340
Raw,9964.119,10570,340
Raw,23529.227,10577,340
Raw,32621.404,10577,340
Raw,1.34507415e+05,10589,340
Raw,75089.672,10589,340
Raw,1.32259e+05,10621,340
Raw,50863.735,10623,340
Raw,30737.839,10623,340
Raw,33157.448,10624,340
Raw,92685.07,10630,340
Raw,80947.78,10632,340
Raw,9614.0528,10632,340
Raw,1.10604468e+05,10636,340
Raw,39926.916,10642,340
Raw,1.3204691e+05,10654,340
Raw,38463.008,10660,340
Raw,28465.465,10660,340
Raw,40732.429,10667,340
Raw,42215.344,10667,340
Raw,68070.68,10672,340
Raw,1.25846224e+05,10679,340
Raw,49517.881,10680,340
Raw,48074.252,10680,340
Raw,44107.346,10683,340
Raw,56292.17,10689,340
Raw,73633.854,10695,340
Raw,53381.745,10700,340
Raw,90005.897,10711,340
Raw,64469.513,10711,340
Raw,67707.8,10712,340
Raw,34153.062,10712,340
Raw,1.39171466e+05,10716,340
Raw,22001.422,10725,340
Raw,87241.775,10727,340
Raw,62724.666,10735,340
Raw,50607.655,10740,340
Raw,30837.911,10745,340
Raw,1.34090387e+05,10750,340
Raw,80406.758,10751,340
Raw,80350.38,10751,340
Raw,69698.571,10753,340
Raw,41884.338,10754,340
Raw,55540.138,10755,340
Raw,17530.805,10756,340
Raw,85552.92,10756,340
Raw,30686.301,10756,340
Raw,68713.831,10764,340
Raw,51413.992,10764,340
Raw,43880.17,10765,340
Raw,1.39372916e+05,10767,340
Raw,48781.645,10769,340
Raw,71015.102,10772,340
Raw,50810.612,10782,340
Raw,24132.684,10788,340
Raw,47922.912,10790,340
Raw,43906.572,10800,340
Raw,68156.048,10804,340
Raw,56887.551,10807,340
Raw,57122.05,10807,340
Raw,31502.739,10815,340
Raw,40655.594,10819,340
Raw,30066.886,10820,340
Raw,67929.051,10820,340
Raw,45075.233,10821,340
Raw,34390.373,10824,340
Raw,56924.084,10827,340
Raw,24504.134,10827,340
Raw,1.24810594e+05,10836,340
Raw,75210.582,10844,340
Raw,50490.9,10853,340
Raw,49706.241,10854,340
Raw,83918.326,10855,340
Raw,24114.942,10867,340
Raw,49217.17,10868,340
Raw,58114.84,10872,340
Raw,55721.909,10872,340
Raw,70351.063,10879,340
Raw,84058.485,10881,340
Raw,39772.984,10885,340
Raw,54547.409,10889,340
Raw,1.04233405e+05,10889,340
Raw,75719.392,10898,340
Raw,1.33085171e+05,10898,340
Raw,59609.921,10898,340
Raw,17366.834,10900,340
Raw,60627.323,10905,340
Raw,23437.103,10906,340
Raw,28531.928,10908,340
Raw,37747.899,10908,340
Raw,27270.274,10911,340
Raw,76426.116,10920,340
Raw,38884.676,10922,340
Raw,26471.91,10925,340
Raw,1.16452051e+05,10930,340
Raw,76192.461,10933,340
Raw,64956.967,10959,340
Raw,62863.221,10960,340
Raw,1.29915686e+05,10966,340
Raw,63983.793,10974,340
Raw,60825.579,10977,340
Raw,31745.425,10977,340
Raw,77796.582,10979,340
Raw,1.19020093e+05,10981,340
Raw,36361.275,10981,340
Raw,42992.64,10987,340
Raw,23500.327,10996,340
Raw,43907.926,11000,340
Raw,44697.972,11003,340
Raw,40476.748,11005,340
Raw,48951.162,11005,340
Raw,69060.407,11005,340
Raw,35371.86,11009,340
Raw,37057.706,11009,340
Raw,52371.14,11015,340
Raw,41090.714,11017,340
Raw,13339.484,11025,340
Raw,28470.525,11042,340
Raw,1.31435383e+05,11043,340
Raw,81244.521,11043,340
Raw,65285.987,11046,340
Raw,78228.616,11062,340
Raw,46041.817,11062,340
Raw,32086.633,11064,340
Raw,82145.048,11072,340
Raw,93799.388,11074,340
Raw,44090.629,11077,340
Raw,77728.075,11080,340
Raw,29230.716,11083,340
Raw,1.13829125e+05,11084,340
Raw,56748.593,11106,340
Raw,40716.717,11108,340
Raw,96577.25,11118,340
Raw,62100.564,11118,340
Raw,43865.917,11118,340
Raw,31363.954,11120,340
Raw,42964.057,11127,340
Raw,36446.225,11132,340
Raw,69755.536,11139,340
Raw,53992.545,11139,340
Raw,60835.067,11146,340
Raw,58422.674,11149,340
Raw,41895.904,11149,340
Raw,39382.508,11161,340
Raw,69437.47,11169,340
Raw,46669.651,11171,340
Raw,48407.211,11177,340
Raw,1.18666741e+05,11182,340
Raw,43316.502,11185,340
Raw,44073.012,11193,340
Raw,23780.453,11195,340
Raw,65624.167,11195,340
Raw,30863.012,11206,340
Raw,49475.885,11207,340
Raw,35818.011,11209,340
Raw,45172.315,11210,340
Raw,9607.3822,11218,340
Raw,42132.034,11218,340
Raw,4385.5612,11223,340
Raw,63573.875,11227,340
Raw,59602.719,11227,340
Raw,23140.344,11245,340
Raw,10769.165,11255,340
Raw,8910.9389,11259,340
Raw,1.28204901e+05,11271,340
Raw,1.19546733e+05,11273,340
Raw,53735.717,11279,340
