Cut?,Counts,eventNumber,runNumber
Raw,24,0,339
Raw,59,1,339
Raw,23,2,339
Raw,29,3,339
Raw,30,4,339
Raw,19,4,339
Raw,26,5,339
Raw,17,6,339
Raw,25,6,339
Raw,27,7,339
Raw,12,7,339
Raw,48,8,339
Raw,68,9,339
Raw,26,10,339
Raw,4,10,339
Raw,22,11,339
Raw,13,11,339
Raw,23,12,339
Raw,56,13,339
Raw,32,14,339
Raw,26,14,339
Raw,55,15,339
Raw,71,16,339
Raw,22,17,339
Raw,34,19,339
Raw,18,23,339
Raw,24,23,339
Raw,20,24,339
Raw,11,24,339
Raw,48,25,339
Raw,22,25,339
Raw,16,25,339
Raw,27,26,339
Raw,62,27,339
Raw,35,30,339
Raw,24,31,339
Raw,21,31,339
Raw,25,34,339
Raw,41,36,339
Raw,6,37,339
Raw,17,37,339
Raw,62,38,339
Raw,63,39,339
Raw,35,40,339
Raw,37,42,339
Raw,15,42,339
Raw,22,43,339
Raw,12,43,339
Raw,35,45,339
Raw,38,46,339
Raw,26,47,339
Raw,10,47,339
Raw,65,48,339
Raw,56,49,339
Raw,42,50,339
Raw,58,51,339
Raw,27,52,339
Raw,10,52,339
Raw,29,53,339
Raw,45,53,339
Raw,16,54,339
Raw,11,56,339
Raw,24,57,339
Raw,43,58,339
Raw,13,59,339
Raw,19,59,339
Raw,68,60,339
Raw,14,61,339
Raw,29,62,339
Raw,20,63,339
Raw,19,64,339
Raw,20,64,339
Raw,69,65,339
Raw,41,66,339
Raw,36,68,339
Raw,40,69,339
Raw,61,70,339
Raw,46,72,339
Raw,59,73,339
Raw,10,74,339
Raw,38,75,339
Raw,57,77,339
Raw,11,77,339
Raw,27,78,339
Raw,23,78,339
Raw,24,79,339
Raw,22,80,339
Raw,31,81,339
Raw,53,82,339
Raw,28,83,339
Raw,17,84,339
Raw,16,84,339
Raw,26,85,339
Raw,22,86,339
Raw,21,87,339
Raw,28,88,339
Raw,20,88,339
Raw,24,89,339
Raw,26,91,339
Raw,34,92,339
Raw,23,93,339
Raw,46,94,339
Raw,14,95,339
Raw,12,96,339
Raw,7,97,339
Raw,19,97,339
Raw,32,98,339
Raw,20,99,339
Raw,32,100,339
Raw,48,102,339
Raw,16,102,339
Raw,16,103,339
Raw,31,103,339
Raw,19,105,339
Raw,39,106,339
Raw,14,107,339
Raw,35,108,339
Raw,24,109,339
Raw,19,110,339
Raw,56,111,339
Raw,37,112,339
Raw,19,113,339
Raw,38,114,339
Raw,13,114,339
Raw,27,115,339
Raw,23,116,339
Raw,13,118,339
Raw,19,118,339
Raw,32,118,339
Raw,50,119,339
Raw,49,123,339
Raw,71,124,339
Raw,35,124,339
Raw,9,126,339
Raw,31,127,339
Raw,34,127,339
Raw,51,130,339
Raw,17,130,339
Raw,27,131,339
Raw,14,131,339
Raw,23,132,339
Raw,21,133,339
Raw,40,134,339
Raw,24,135,339
Raw,44,136,339
Raw,15,136,339
Raw,13,138,339
Raw,24,138,339
Raw,13,138,339
Raw,37,139,339
Raw,16,140,339
Raw,32,141,339
Raw,26,142,339
Raw,46,143,339
Raw,26,145,339
Raw,34,146,339
Raw,15,146,339
Raw,70,147,339
Raw,12,148,339
Raw,43,149,339
Raw,5,149,339
Raw,24,150,339
Raw,15,151,339
Raw,54,153,339
Raw,20,154,339
Raw,34,155,339
Raw,30,156,339
Raw,55,157,339
Raw,29,157,339
Raw,13,158,339
Raw,65,159,339
Raw,45,160,339
Raw,35,161,339
Raw,6,161,339
Raw,9,161,339
Raw,32,163,339
Raw,9,164,339
Raw,24,165,339
Raw,14,165,339
Raw,23,166,339
Raw,66,168,339
Raw,24,169,339
Raw,16,169,339
Raw,25,171,339
Raw,21,172,339
Raw,32,173,339
Raw,40,174,339
Raw,63,174,339
Raw,20,176,339
Raw,13,176,339
Raw,20,177,339
Raw,49,178,339
Raw,39,179,339
Raw,70,180,339
Raw,40,181,339
Raw,35,182,339
Raw,11,182,339
Raw,15,182,339
Raw,49,184,339
Raw,34,185,339
Raw,33,186,339
Raw,39,187,339
Raw,70,188,339
Raw,11,189,339
Raw,17,189,339
Raw,11,189,339
Raw,43,190,339
Raw,21,190,339
Raw,31,191,339
Raw,14,192,339
Raw,37,193,339
Raw,50,193,339
Raw,40,194,339
Raw,57,196,339
Raw,16,196,339
Raw,18,197,339
Raw,8,197,339
Raw,4,197,339
Raw,19,199,339
Raw,28,199,339
Raw,14,200,339
Raw,30,200,339
Raw,30,201,339
Raw,12,201,339
Raw,31,202,339
Raw,13,203,339
Raw,33,203,339
Raw,24,204,339
Raw,16,205,339
Raw,67,208,339
Raw,69,209,339
Raw,22,210,339
Raw,66,211,339
Raw,14,211,339
Raw,55,212,339
Raw,71,213,339
Raw,46,214,339
Raw,21,214,339
Raw,16,216,339
Raw,9,216,339
Raw,75,217,339
Raw,29,218,339
Raw,21,219,339
Raw,28,220,339
Raw,54,221,339
Raw,31,222,339
Raw,11,222,339
Raw,33,224,339
Raw,15,225,339
Raw,30,225,339
Raw,26,227,339
Raw,56,229,339
Raw,57,230,339
Raw,18,231,339
Raw,33,231,339
Raw,19,232,339
Raw,49,232,339
Raw,21,233,339
Raw,20,235,339
Raw,27,235,339
Raw,33,236,339
Raw,31,237,339
Raw,30,238,339
Raw,20,239,339
Raw,18,240,339
Raw,13,240,339
Raw,61,241,339
Raw,22,241,339
Raw,35,242,339
Raw,28,242,339
Raw,33,243,339
Raw,31,243,339
Raw,29,244,339
Raw,7,247,339
Raw,63,248,339
Raw,23,249,339
Raw,45,250,339
Raw,64,251,339
Raw,18,252,339
Raw,18,252,339
Raw,32,253,339
Raw,38,254,339
Raw,65,255,339
Raw,48,256,339
Raw,11,256,339
Raw,13,257,339
Raw,58,258,339
Raw,71,259,339
Raw,26,260,339
Raw,38,260,339
Raw,46,261,339
Raw,44,261,339
Raw,26,262,339
Raw,49,263,339
Raw,44,264,339
Raw,18,265,339
Raw,34,266,339
Raw,51,267,339
Raw,9,267,339
Raw,58,268,339
Raw,26,269,339
Raw,65,270,339
Raw,34,271,339
Raw,6,272,339
Raw,39,275,339
Raw,24,276,339
Raw,21,278,339
Raw,17,278,339
Raw,20,280,339
Raw,10,280,339
Raw,13,282,339
Raw,40,282,339
Raw,24,283,339
Raw,26,284,339
Raw,12,287,339
Raw,27,288,339
Raw,20,289,339
Raw,16,289,339
Raw,14,289,339
Raw,49,291,339
Raw,46,293,339
Raw,23,295,339
Raw,25,296,339
Raw,43,297,339
Raw,47,299,339
Raw,73,301,339
Raw,28,303,339
Raw,28,304,339
Raw,21,304,339
Raw,19,305,339
Raw,20,307,339
Raw,31,308,339
Raw,8,308,339
Raw,17,311,339
Raw,57,312,339
Raw,22,314,339
Raw,15,314,339
Raw,22,316,339
Raw,34,317,339
Raw,26,318,339
Raw,40,320,339
Raw,11,321,339
Raw,31,321,339
Raw,62,323,339
Raw,19,326,339
Raw,27,327,339
Raw,25,328,339
Raw,32,330,339
Raw,32,332,339
Raw,13,333,339
Raw,53,333,339
Raw,44,334,339
Raw,10,334,339
Raw,32,335,339
Raw,17,337,339
Raw,14,338,339
Raw,42,338,339
Raw,53,341,339
Raw,15,342,339
Raw,16,342,339
Raw,37,343,339
Raw,39,343,339
Raw,24,345,339
Raw,12,346,339
Raw,20,346,339
Raw,17,347,339
Raw,27,348,339
Raw,18,350,339
Raw,51,350,339
Raw,58,351,339
Raw,44,352,339
Raw,11,353,339
Raw,4,353,339
Raw,43,354,339
Raw,16,354,339
Raw,59,355,339
Raw,27,356,339
Raw,12,356,339
Raw,21,357,339
Raw,27,358,339
Raw,49,359,339
Raw,75,360,339
Raw,39,361,339
Raw,29,362,339
Raw,24,363,339
Raw,19,364,339
Raw,75,365,339
Raw,74,366,339
Raw,7,367,339
Raw,35,368,339
Raw,18,368,339
Raw,57,369,339
Raw,71,370,339
Raw,30,371,339
Raw,13,372,339
Raw,23,373,339
Raw,14,373,339
Raw,20,374,339
Raw,28,375,339
Raw,71,376,339
Raw,23,377,339
Raw,65,378,339
Raw,23,378,339
Raw,14,378,339
Raw,25,379,339
Raw,24,380,339
Raw,49,381,339
Raw,29,384,339
Raw,24,384,339
Raw,24,387,339
Raw,13,387,339
Raw,40,390,339
Raw,42,391,339
Raw,10,391,339
Raw,73,392,339
Raw,42,393,339
Raw,22,394,339
Raw,20,394,339
Raw,24,395,339
Raw,18,396,339
Raw,47,396,339
Raw,11,397,339
Raw,45,397,339
Raw,28,398,339
Raw,73,399,339
Raw,27,401,339
Raw,22,401,339
Raw,50,402,339
Raw,22,403,339
Raw,42,405,339
Raw,20,406,339
Raw,7,407,339
Raw,41,407,339
Raw,5,408,339
Raw,23,408,339
Raw,45,409,339
Raw,35,410,339
Raw,26,411,339
Raw,13,411,339
Raw,45,412,339
Raw,8,412,339
Raw,15,413,339
Raw,31,414,339
Raw,75,417,339
Raw,27,418,339
Raw,29,419,339
Raw,5,420,339
Raw,37,421,339
Raw,45,422,339
Raw,46,423,339
Raw,24,424,339
Raw,25,425,339
Raw,25,428,339
Raw,25,429,339
Raw,73,430,339
Raw,43,431,339
Raw,14,431,339
Raw,14,433,339
Raw,16,434,339
Raw,5,434,339
Raw,23,436,339
Raw,16,436,339
Raw,31,437,339
Raw,47,437,339
Raw,35,439,339
Raw,66,440,339
Raw,25,441,339
Raw,26,443,339
Raw,12,444,339
Raw,34,445,339
Raw,27,447,339
Raw,10,448,339
Raw,42,449,339
Raw,38,449,339
Raw,20,450,339
Raw,41,450,339
Raw,27,451,339
Raw,43,452,339
Raw,25,453,339
Raw,30,454,339
Raw,59,454,339
Raw,73,455,339
Raw,24,456,339
Raw,43,457,339
Raw,13,457,339
Raw,16,458,339
Raw,27,458,339
Raw,47,459,339
Raw,5,460,339
Raw,52,460,339
Raw,33,461,339
Raw,31,462,339
Raw,17,463,339
Raw,26,463,339
Raw,35,466,339
Raw,53,466,339
Raw,13,466,339
Raw,65,467,339
Raw,30,468,339
Raw,70,469,339
Raw,21,471,339
Raw,21,472,339
Raw,33,474,339
Raw,21,475,339
Raw,53,476,339
Raw,17,478,339
Raw,29,479,339
Raw,28,480,339
Raw,16,481,339
Raw,24,482,339
Raw,28,483,339
Raw,22,484,339
Raw,27,486,339
Raw,22,487,339
Raw,16,489,339
Raw,25,489,339
Raw,45,490,339
Raw,45,492,339
Raw,25,493,339
Raw,15,493,339
Raw,18,493,339
Raw,25,494,339
Raw,39,495,339
Raw,28,496,339
Raw,31,496,339
Raw,20,500,339
Raw,26,500,339
Raw,39,501,339
Raw,22,504,339
Raw,27,504,339
Raw,22,505,339
Raw,30,506,339
Raw,13,506,339
Raw,23,508,339
Raw,16,508,339
Raw,17,510,339
Raw,18,511,339
Raw,12,511,339
Raw,47,512,339
Raw,27,513,339
Raw,31,514,339
Raw,30,515,339
Raw,26,517,339
Raw,12,517,339
Raw,20,518,339
Raw,27,519,339
Raw,18,519,339
Raw,52,520,339
Raw,13,521,339
Raw,22,523,339
Raw,70,524,339
Raw,46,525,339
Raw,11,526,339
Raw,6,526,339
Raw,12,527,339
Raw,64,528,339
Raw,14,528,339
Raw,30,530,339
Raw,50,531,339
Raw,53,532,339
Raw,56,533,339
Raw,42,534,339
Raw,45,536,339
Raw,19,537,339
Raw,35,538,339
Raw,21,539,339
Raw,15,540,339
Raw,22,541,339
Raw,41,542,339
Raw,20,545,339
Raw,20,545,339
Raw,34,546,339
Raw,36,547,339
Raw,22,548,339
Raw,19,549,339
Raw,11,549,339
Raw,23,550,339
Raw,25,551,339
Raw,20,552,339
Raw,21,552,339
Raw,36,553,339
Raw,22,555,339
Raw,13,555,339
Raw,22,556,339
Raw,38,557,339
Raw,25,558,339
Raw,23,560,339
Raw,23,561,339
Raw,11,562,339
Raw,18,562,339
Raw,31,563,339
Raw,46,564,339
Raw,19,565,339
Raw,59,566,339
Raw,35,568,339
Raw,37,570,339
Raw,25,571,339
Raw,22,572,339
Raw,31,573,339
Raw,33,578,339
Raw,13,578,339
Raw,15,579,339
Raw,41,580,339
Raw,12,581,339
Raw,19,582,339
Raw,9,583,339
Raw,25,584,339
Raw,28,584,339
Raw,62,585,339
Raw,25,587,339
Raw,50,588,339
Raw,21,589,339
Raw,47,590,339
Raw,23,591,339
Raw,22,591,339
Raw,31,592,339
Raw,36,593,339
Raw,36,594,339
Raw,24,595,339
Raw,44,597,339
Raw,34,599,339
Raw,28,600,339
Raw,48,601,339
Raw,19,601,339
Raw,26,602,339
Raw,30,603,339
Raw,23,605,339
Raw,12,606,339
Raw,43,608,339
Raw,19,609,339
Raw,22,610,339
Raw,21,610,339
Raw,23,611,339
Raw,33,612,339
Raw,32,613,339
Raw,57,614,339
Raw,54,616,339
Raw,55,616,339
Raw,23,617,339
Raw,41,618,339
Raw,11,619,339
Raw,25,620,339
Raw,29,623,339
Raw,24,624,339
Raw,40,624,339
Raw,14,627,339
Raw,22,627,339
Raw,15,627,339
Raw,32,628,339
Raw,32,631,339
Raw,26,632,339
Raw,57,633,339
Raw,20,633,339
Raw,70,634,339
Raw,25,635,339
Raw,53,636,339
Raw,11,636,339
Raw,54,637,339
Raw,31,638,339
Raw,13,638,339
Raw,23,639,339
Raw,24,640,339
Raw,22,641,339
Raw,38,642,339
Raw,13,643,339
Raw,47,643,339
Raw,27,644,339
Raw,13,644,339
Raw,11,645,339
Raw,58,645,339
Raw,39,647,339
Raw,31,648,339
Raw,25,648,339
Raw,59,649,339
Raw,23,652,339
Raw,39,653,339
Raw,47,654,339
Raw,24,655,339
Raw,41,656,339
Raw,63,657,339
Raw,53,658,339
Raw,27,659,339
Raw,37,660,339
Raw,22,662,339
Raw,14,666,339
Raw,36,666,339
Raw,65,667,339
Raw,21,668,339
Raw,6,668,339
Raw,27,670,339
Raw,15,670,339
Raw,5,670,339
Raw,32,671,339
Raw,41,672,339
Raw,42,673,339
Raw,20,673,339
Raw,49,674,339
Raw,49,675,339
Raw,29,676,339
Raw,60,677,339
Raw,15,677,339
Raw,9,678,339
Raw,33,679,339
Raw,47,679,339
Raw,49,680,339
Raw,46,681,339
Raw,30,682,339
Raw,23,683,339
Raw,70,684,339
Raw,12,685,339
Raw,63,685,339
Raw,31,686,339
Raw,51,686,339
Raw,52,687,339
Raw,41,687,339
Raw,23,688,339
Raw,20,688,339
Raw,32,689,339
Raw,13,691,339
Raw,16,691,339
Raw,35,691,339
Raw,17,692,339
Raw,68,693,339
Raw,33,694,339
Raw,26,695,339
Raw,22,696,339
Raw,63,697,339
Raw,49,698,339
Raw,14,698,339
Raw,52,699,339
Raw,36,700,339
Raw,9,701,339
Raw,4,701,339
Raw,49,702,339
Raw,53,704,339
Raw,33,704,339
Raw,54,705,339
Raw,22,706,339
Raw,40,707,339
Raw,14,708,339
Raw,42,709,339
Raw,32,711,339
Raw,4,711,339
Raw,29,713,339
Raw,3,713,339
Raw,61,715,339
Raw,22,716,339
Raw,40,716,339
Raw,58,717,339
Raw,21,719,339
Raw,27,720,339
Raw,14,721,339
Raw,42,722,339
Raw,14,722,339
Raw,57,723,339
Raw,20,724,339
Raw,20,725,339
Raw,18,725,339
Raw,33,727,339
Raw,48,728,339
Raw,26,729,339
Raw,57,730,339
Raw,13,731,339
Raw,23,731,339
Raw,27,731,339
Raw,35,732,339
Raw,32,733,339
Raw,14,734,339
Raw,27,735,339
Raw,4,735,339
Raw,37,736,339
Raw,7,737,339
Raw,13,737,339
Raw,46,737,339
Raw,28,738,339
Raw,25,738,339
Raw,61,739,339
Raw,21,740,339
Raw,28,740,339
Raw,32,742,339
Raw,12,743,339
Raw,56,745,339
Raw,55,747,339
Raw,38,749,339
Raw,9,752,339
Raw,59,753,339
Raw,36,755,339
Raw,35,757,339
Raw,31,758,339
Raw,30,758,339
Raw,22,759,339
Raw,31,760,339
Raw,21,761,339
Raw,15,761,339
Raw,39,763,339
Raw,33,765,339
Raw,9,766,339
Raw,20,768,339
Raw,54,770,339
Raw,27,771,339
Raw,15,771,339
Raw,22,772,339
Raw,66,773,339
Raw,41,774,339
Raw,12,774,339
Raw,25,775,339
Raw,22,776,339
Raw,16,776,339
Raw,36,777,339
Raw,30,778,339
Raw,7,779,339
Raw,31,780,339
Raw,29,781,339
Raw,22,782,339
Raw,59,783,339
Raw,40,784,339
Raw,18,784,339
Raw,44,785,339
Raw,11,785,339
Raw,38,786,339
Raw,40,786,339
Raw,25,787,339
Raw,13,787,339
Raw,29,788,339
Raw,7,788,339
Raw,31,789,339
Raw,21,790,339
Raw,18,790,339
Raw,33,792,339
Raw,41,794,339
Raw,48,795,339
Raw,22,796,339
Raw,53,797,339
Raw,18,798,339
Raw,42,800,339
Raw,20,801,339
Raw,32,802,339
Raw,39,803,339
Raw,36,805,339
Raw,33,806,339
Raw,7,806,339
Raw,22,807,339
Raw,12,808,339
Raw,51,808,339
Raw,42,809,339
Raw,23,810,339
Raw,27,812,339
Raw,17,813,339
Raw,55,814,339
Raw,59,816,339
Raw,61,817,339
Raw,69,818,339
Raw,25,819,339
Raw,34,820,339
Raw,10,821,339
Raw,31,821,339
Raw,25,822,339
Raw,65,823,339
Raw,49,824,339
Raw,20,825,339
Raw,38,826,339
Raw,11,827,339
Raw,28,828,339
Raw,11,828,339
Raw,29,829,339
Raw,5,829,339
Raw,38,830,339
Raw,27,832,339
Raw,59,833,339
Raw,30,833,339
Raw,43,834,339
Raw,46,836,339
Raw,55,837,339
Raw,20,837,339
Raw,65,840,339
Raw,20,841,339
Raw,26,842,339
Raw,8,842,339
Raw,19,843,339
Raw,36,844,339
Raw,34,845,339
Raw,22,846,339
Raw,4,846,339
Raw,55,847,339
Raw,58,849,339
Raw,66,851,339
Raw,24,852,339
Raw,26,853,339
Raw,15,854,339
Raw,19,855,339
Raw,20,855,339
Raw,13,856,339
Raw,32,856,339
Raw,59,857,339
Raw,44,858,339
Raw,18,858,339
Raw,32,859,339
Raw,73,860,339
Raw,20,860,339
Raw,55,862,339
Raw,11,863,339
Raw,29,865,339
Raw,5,865,339
Raw,28,866,339
Raw,18,866,339
Raw,65,867,339
Raw,33,868,339
Raw,28,870,339
Raw,49,872,339
Raw,43,874,339
Raw,60,875,339
Raw,15,877,339
Raw,18,877,339
Raw,26,879,339
Raw,17,880,339
Raw,67,881,339
Raw,29,884,339
Raw,23,884,339
Raw,10,884,339
Raw,27,886,339
Raw,49,887,339
Raw,12,888,339
Raw,18,888,339
Raw,13,889,339
Raw,39,890,339
Raw,33,891,339
Raw,42,892,339
Raw,24,893,339
Raw,21,893,339
Raw,40,894,339
Raw,31,894,339
Raw,29,895,339
Raw,34,896,339
Raw,47,897,339
Raw,17,898,339
Raw,73,899,339
Raw,24,900,339
Raw,25,900,339
Raw,38,901,339
Raw,19,901,339
Raw,60,902,339
Raw,19,905,339
Raw,17,905,339
Raw,5,905,339
Raw,46,906,339
Raw,36,908,339
Raw,64,909,339
Raw,40,911,339
Raw,17,911,339
Raw,32,913,339
Raw,27,913,339
Raw,46,914,339
Raw,22,915,339
Raw,41,916,339
Raw,22,917,339
Raw,13,918,339
Raw,25,919,339
Raw,15,920,339
Raw,45,921,339
Raw,61,922,339
Raw,32,923,339
Raw,20,923,339
Raw,14,924,339
Raw,34,924,339
Raw,19,925,339
Raw,29,925,339
Raw,46,927,339
Raw,73,928,339
Raw,33,930,339
Raw,58,931,339
Raw,24,932,339
Raw,34,933,339
Raw,23,934,339
Raw,60,935,339
Raw,12,935,339
Raw,65,936,339
Raw,29,937,339
Raw,62,938,339
Raw,22,938,339
Raw,13,940,339
Raw,33,940,339
Raw,63,941,339
Raw,56,942,339
Raw,29,943,339
Raw,39,944,339
Raw,24,945,339
Raw,39,946,339
Raw,26,947,339
Raw,20,948,339
Raw,38,948,339
Raw,18,949,339
Raw,23,950,339
Raw,32,950,339
Raw,46,951,339
Raw,36,952,339
Raw,19,952,339
Raw,49,953,339
Raw,47,954,339
Raw,24,955,339
Raw,22,955,339
Raw,39,956,339
Raw,17,957,339
Raw,12,957,339
Raw,35,958,339
Raw,42,959,339
Raw,52,961,339
Raw,30,961,339
Raw,40,961,339
Raw,27,963,339
Raw,17,963,339
Raw,7,963,339
Raw,21,964,339
Raw,42,964,339
Raw,56,965,339
Raw,27,966,339
Raw,58,967,339
Raw,13,969,339
Raw,24,971,339
Raw,18,972,339
Raw,34,972,339
Raw,71,973,339
Raw,42,974,339
Raw,25,975,339
Raw,15,976,339
Raw,30,976,339
Raw,19,977,339
Raw,16,977,339
Raw,28,978,339
Raw,37,979,339
Raw,25,980,339
Raw,38,981,339
Raw,18,982,339
Raw,27,983,339
Raw,37,985,339
Raw,43,986,339
Raw,64,987,339
Raw,56,989,339
Raw,11,990,339
Raw,5,990,339
Raw,12,991,339
Raw,63,992,339
Raw,22,993,339
Raw,24,994,339
Raw,15,994,339
Raw,17,995,339
Raw,26,999,339
Raw,21,1000,339
Raw,25,1001,339
Raw,15,1001,339
Raw,18,1002,339
Raw,24,1003,339
Raw,10,1003,339
Raw,29,1005,339
Raw,26,1006,339
Raw,35,1007,339
Raw,28,1009,339
Raw,48,1010,339
Raw,23,1011,339
Raw,50,1012,339
Raw,28,1012,339
Raw,49,1013,339
Raw,16,1013,339
Raw,68,1015,339
Raw,22,1016,339
Raw,42,1017,339
Raw,63,1018,339
Raw,28,1019,339
Raw,33,1019,339
Raw,24,1020,339
Raw,26,1021,339
Raw,49,1022,339
Raw,26,1023,339
Raw,21,1024,339
Raw,30,1026,339
Raw,41,1026,339
Raw,60,1027,339
Raw,28,1028,339
Raw,22,1029,339
Raw,54,1029,339
Raw,53,1030,339
Raw,24,1032,339
Raw,15,1032,339
Raw,28,1033,339
Raw,35,1034,339
Raw,59,1035,339
Raw,48,1036,339
Raw,58,1037,339
Raw,23,1038,339
Raw,17,1039,339
Raw,50,1039,339
Raw,66,1041,339
Raw,22,1042,339
Raw,15,1043,339
Raw,11,1043,339
Raw,20,1043,339
Raw,35,1044,339
Raw,37,1046,339
Raw,23,1047,339
Raw,13,1048,339
Raw,21,1049,339
Raw,58,1050,339
Raw,34,1051,339
Raw,12,1051,339
Raw,43,1052,339
Raw,33,1054,339
Raw,21,1055,339
Raw,41,1055,339
Raw,18,1056,339
Raw,33,1056,339
Raw,24,1058,339
Raw,32,1059,339
Raw,22,1062,339
Raw,17,1062,339
Raw,23,1063,339
Raw,20,1063,339
Raw,28,1064,339
Raw,28,1065,339
Raw,12,1065,339
Raw,26,1066,339
Raw,33,1067,339
Raw,21,1068,339
Raw,21,1069,339
Raw,8,1069,339
Raw,20,1070,339
Raw,18,1071,339
Raw,59,1071,339
Raw,36,1072,339
Raw,23,1073,339
Raw,42,1074,339
Raw,40,1075,339
Raw,6,1076,339
Raw,27,1077,339
Raw,10,1077,339
Raw,22,1078,339
Raw,16,1079,339
Raw,16,1079,339
Raw,57,1080,339
Raw,25,1082,339
Raw,68,1084,339
Raw,20,1084,339
Raw,56,1085,339
Raw,21,1088,339
Raw,28,1089,339
Raw,26,1089,339
Raw,75,1090,339
Raw,14,1091,339
Raw,26,1092,339
Raw,32,1093,339
Raw,31,1094,339
Raw,20,1094,339
Raw,25,1095,339
Raw,55,1096,339
Raw,14,1097,339
Raw,18,1098,339
Raw,40,1098,339
Raw,74,1100,339
Raw,33,1101,339
Raw,18,1104,339
Raw,30,1104,339
Raw,31,1105,339
Raw,41,1106,339
Raw,39,1106,339
Raw,56,1107,339
Raw,48,1108,339
Raw,9,1109,339
Raw,36,1109,339
Raw,38,1111,339
Raw,13,1111,339
Raw,28,1112,339
Raw,3,1112,339
Raw,44,1113,339
Raw,7,1113,339
Raw,30,1115,339
Raw,25,1116,339
Raw,6,1116,339
Raw,73,1117,339
Raw,13,1118,339
Raw,28,1119,339
Raw,19,1120,339
Raw,22,1120,339
Raw,15,1120,339
Raw,27,1121,339
Raw,23,1122,339
Raw,31,1123,339
Raw,12,1124,339
Raw,23,1125,339
Raw,29,1126,339
Raw,26,1128,339
Raw,24,1129,339
Raw,18,1130,339
Raw,71,1131,339
Raw,23,1132,339
Raw,55,1133,339
Raw,24,1134,339
Raw,32,1135,339
Raw,63,1136,339
Raw,26,1136,339
Raw,49,1137,339
Raw,26,1138,339
Raw,24,1138,339
Raw,68,1141,339
Raw,29,1142,339
Raw,37,1143,339
Raw,6,1143,339
Raw,55,1144,339
Raw,12,1145,339
Raw,34,1146,339
Raw,11,1146,339
Raw,64,1147,339
Raw,21,1148,339
Raw,10,1149,339
Raw,39,1150,339
Raw,26,1151,339
Raw,24,1152,339
Raw,31,1154,339
Raw,30,1155,339
Raw,38,1156,339
Raw,69,1156,339
Raw,15,1157,339
Raw,6,1157,339
Raw,26,1161,339
Raw,28,1162,339
Raw,32,1163,339
Raw,19,1164,339
Raw,22,1165,339
Raw,42,1165,339
Raw,43,1167,339
Raw,34,1167,339
Raw,28,1168,339
Raw,56,1170,339
Raw,18,1171,339
Raw,47,1172,339
Raw,41,1173,339
Raw,38,1174,339
Raw,20,1175,339
Raw,49,1175,339
Raw,22,1176,339
Raw,25,1177,339
Raw,10,1177,339
Raw,20,1178,339
Raw,38,1179,339
Raw,32,1180,339
Raw,69,1181,339
Raw,25,1184,339
Raw,10,1184,339
Raw,24,1185,339
Raw,28,1186,339
Raw,65,1188,339
Raw,40,1190,339
Raw,74,1191,339
Raw,24,1192,339
Raw,19,1192,339
Raw,59,1193,339
Raw,30,1194,339
Raw,21,1197,339
Raw,7,1198,339
Raw,39,1198,339
Raw,65,1199,339
Raw,23,1200,339
Raw,67,1201,339
Raw,25,1202,339
Raw,56,1203,339
Raw,17,1203,339
Raw,66,1204,339
Raw,13,1205,339
Raw,8,1205,339
Raw,36,1206,339
Raw,25,1207,339
Raw,28,1208,339
Raw,40,1210,339
Raw,47,1211,339
Raw,33,1212,339
Raw,37,1213,339
Raw,34,1213,339
Raw,28,1214,339
Raw,22,1216,339
Raw,47,1217,339
Raw,18,1218,339
Raw,16,1219,339
Raw,56,1220,339
Raw,22,1221,339
Raw,17,1221,339
Raw,28,1222,339
Raw,17,1224,339
Raw,37,1225,339
Raw,20,1226,339
Raw,53,1227,339
Raw,12,1231,339
Raw,75,1232,339
Raw,25,1233,339
Raw,12,1233,339
Raw,20,1234,339
Raw,20,1235,339
Raw,37,1235,339
Raw,31,1238,339
Raw,34,1240,339
Raw,68,1241,339
Raw,32,1242,339
Raw,51,1243,339
Raw,26,1243,339
Raw,19,1245,339
Raw,66,1246,339
Raw,9,1248,339
Raw,48,1248,339
Raw,26,1249,339
Raw,10,1250,339
Raw,47,1251,339
Raw,36,1253,339
Raw,46,1254,339
Raw,31,1255,339
Raw,27,1255,339
Raw,12,1256,339
Raw,16,1257,339
Raw,3,1257,339
Raw,23,1258,339
Raw,14,1258,339
Raw,54,1259,339
Raw,12,1260,339
Raw,73,1260,339
Raw,48,1261,339
Raw,27,1263,339
Raw,65,1264,339
Raw,34,1268,339
Raw,62,1269,339
Raw,10,1269,339
Raw,37,1270,339
Raw,38,1271,339
Raw,41,1272,339
Raw,7,1272,339
Raw,61,1273,339
Raw,26,1275,339
Raw,26,1276,339
Raw,17,1276,339
Raw,38,1277,339
Raw,21,1278,339
Raw,33,1279,339
Raw,41,1280,339
Raw,25,1280,339
Raw,44,1282,339
Raw,43,1284,339
Raw,12,1284,339
Raw,5,1285,339
Raw,47,1285,339
Raw,25,1286,339
Raw,33,1288,339
Raw,23,1289,339
Raw,19,1289,339
Raw,30,1290,339
Raw,40,1291,339
Raw,3,1291,339
Raw,19,1292,339
Raw,24,1293,339
Raw,25,1294,339
Raw,30,1295,339
Raw,18,1296,339
Raw,38,1297,339
Raw,36,1298,339
Raw,16,1298,339
Raw,15,1299,339
Raw,10,1300,339
Raw,46,1300,339
Raw,10,1300,339
Raw,15,1301,339
Raw,7,1301,339
Raw,9,1302,339
Raw,31,1303,339
Raw,47,1303,339
Raw,38,1304,339
Raw,23,1305,339
Raw,37,1306,339
Raw,30,1307,339
Raw,31,1307,339
Raw,22,1307,339
Raw,46,1308,339
Raw,13,1308,339
Raw,48,1309,339
Raw,41,1309,339
Raw,24,1310,339
Raw,13,1310,339
Raw,23,1311,339
Raw,54,1314,339
Raw,40,1314,339
Raw,13,1315,339
Raw,70,1316,339
Raw,53,1317,339
Raw,27,1318,339
Raw,14,1319,339
Raw,17,1320,339
Raw,14,1320,339
Raw,20,1320,339
Raw,24,1321,339
Raw,27,1322,339
Raw,47,1323,339
Raw,48,1323,339
Raw,20,1325,339
Raw,16,1325,339
Raw,28,1326,339
Raw,17,1326,339
Raw,67,1328,339
Raw,35,1328,339
Raw,56,1329,339
Raw,42,1330,339
Raw,23,1332,339
Raw,23,1333,339
Raw,29,1334,339
Raw,19,1334,339
Raw,53,1336,339
Raw,16,1337,339
Raw,10,1338,339
Raw,32,1338,339
Raw,37,1338,339
Raw,35,1339,339
Raw,21,1339,339
Raw,5,1340,339
Raw,19,1340,339
Raw,23,1340,339
Raw,66,1341,339
Raw,15,1341,339
Raw,55,1342,339
Raw,74,1344,339
Raw,9,1344,339
Raw,37,1346,339
Raw,14,1347,339
Raw,26,1348,339
Raw,13,1349,339
Raw,16,1349,339
Raw,18,1350,339
Raw,60,1350,339
Raw,25,1351,339
Raw,15,1354,339
Raw,24,1355,339
Raw,17,1356,339
Raw,26,1357,339
Raw,22,1357,339
Raw,51,1358,339
Raw,23,1359,339
Raw,19,1359,339
Raw,29,1360,339
Raw,32,1361,339
Raw,56,1363,339
Raw,43,1365,339
Raw,51,1366,339
Raw,69,1367,339
Raw,71,1368,339
Raw,31,1369,339
Raw,18,1370,339
Raw,25,1371,339
Raw,20,1371,339
Raw,31,1373,339
Raw,40,1373,339
Raw,27,1373,339
Raw,15,1374,339
Raw,15,1375,339
Raw,19,1375,339
Raw,20,1376,339
Raw,21,1377,339
Raw,57,1378,339
Raw,32,1379,339
Raw,49,1380,339
Raw,21,1381,339
Raw,24,1382,339
Raw,34,1382,339
Raw,57,1383,339
Raw,26,1384,339
Raw,18,1385,339
Raw,42,1385,339
Raw,29,1386,339
Raw,65,1387,339
Raw,21,1388,339
Raw,37,1390,339
Raw,4,1391,339
Raw,25,1392,339
Raw,75,1393,339
Raw,34,1394,339
Raw,24,1397,339
Raw,22,1397,339
Raw,37,1398,339
Raw,22,1400,339
Raw,18,1400,339
Raw,23,1401,339
Raw,38,1402,339
Raw,45,1403,339
Raw,18,1404,339
Raw,32,1405,339
Raw,16,1405,339
Raw,62,1406,339
Raw,41,1408,339
Raw,37,1409,339
Raw,31,1410,339
Raw,24,1412,339
Raw,15,1412,339
Raw,24,1413,339
Raw,21,1414,339
Raw,29,1415,339
Raw,65,1416,339
Raw,38,1417,339
Raw,29,1418,339
Raw,20,1419,339
Raw,30,1420,339
Raw,46,1421,339
Raw,47,1422,339
Raw,48,1423,339
Raw,51,1425,339
Raw,18,1426,339
Raw,68,1427,339
Raw,43,1428,339
Raw,31,1429,339
Raw,24,1430,339
Raw,51,1431,339
Raw,23,1432,339
Raw,44,1433,339
Raw,71,1434,339
Raw,15,1434,339
Raw,53,1435,339
Raw,24,1436,339
Raw,21,1438,339
Raw,66,1438,339
Raw,20,1439,339
Raw,64,1440,339
Raw,18,1441,339
Raw,24,1443,339
Raw,19,1443,339
Raw,26,1445,339
Raw,60,1446,339
Raw,47,1447,339
Raw,31,1448,339
Raw,39,1449,339
Raw,21,1452,339
Raw,5,1452,339
Raw,24,1453,339
Raw,42,1454,339
Raw,67,1456,339
Raw,31,1457,339
Raw,24,1458,339
Raw,64,1459,339
Raw,53,1460,339
Raw,16,1460,339
Raw,47,1460,339
Raw,27,1461,339
Raw,9,1461,339
Raw,22,1462,339
Raw,16,1463,339
Raw,9,1463,339
Raw,26,1465,339
Raw,11,1465,339
Raw,6,1465,339
Raw,38,1466,339
Raw,28,1467,339
Raw,11,1468,339
Raw,14,1469,339
Raw,54,1469,339
Raw,24,1472,339
Raw,14,1473,339
Raw,21,1474,339
Raw,15,1474,339
Raw,22,1475,339
Raw,13,1477,339
Raw,33,1477,339
Raw,35,1478,339
Raw,25,1479,339
Raw,66,1481,339
Raw,53,1482,339
Raw,23,1483,339
Raw,34,1484,339
Raw,63,1486,339
Raw,21,1487,339
Raw,22,1489,339
Raw,54,1490,339
Raw,22,1491,339
Raw,42,1491,339
Raw,34,1492,339
Raw,44,1493,339
Raw,61,1494,339
Raw,17,1494,339
Raw,4,1494,339
Raw,7,1495,339
Raw,9,1495,339
Raw,60,1497,339
Raw,24,1497,339
Raw,23,1498,339
Raw,41,1499,339
Raw,25,1500,339
Raw,24,1501,339
Raw,11,1501,339
Raw,11,1502,339
Raw,61,1503,339
Raw,43,1504,339
Raw,37,1505,339
Raw,19,1506,339
Raw,9,1506,339
Raw,35,1507,339
Raw,9,1507,339
Raw,27,1508,339
Raw,14,1510,339
Raw,39,1510,339
Raw,16,1511,339
Raw,32,1511,339
Raw,17,1512,339
Raw,9,1512,339
Raw,21,1512,339
Raw,60,1514,339
Raw,20,1515,339
Raw,17,1516,339
Raw,33,1516,339
Raw,13,1516,339
Raw,22,1517,339
Raw,44,1518,339
Raw,70,1519,339
Raw,27,1521,339
Raw,10,1521,339
Raw,23,1522,339
Raw,18,1523,339
Raw,12,1524,339
Raw,10,1524,339
Raw,16,1524,339
Raw,29,1525,339
Raw,12,1527,339
Raw,41,1527,339
Raw,22,1528,339
Raw,17,1528,339
Raw,19,1529,339
Raw,26,1530,339
Raw,28,1531,339
Raw,67,1532,339
Raw,73,1533,339
Raw,15,1535,339
Raw,31,1535,339
Raw,54,1536,339
Raw,38,1537,339
Raw,22,1539,339
Raw,44,1540,339
Raw,18,1540,339
Raw,39,1541,339
Raw,30,1543,339
Raw,42,1545,339
Raw,75,1546,339
Raw,22,1546,339
Raw,37,1547,339
Raw,64,1548,339
Raw,50,1549,339
Raw,74,1551,339
Raw,21,1552,339
Raw,20,1552,339
Raw,14,1552,339
Raw,26,1555,339
Raw,24,1556,339
Raw,40,1558,339
Raw,23,1559,339
Raw,21,1560,339
Raw,19,1560,339
Raw,24,1561,339
Raw,26,1562,339
Raw,19,1563,339
Raw,34,1564,339
Raw,29,1567,339
Raw,10,1567,339
Raw,31,1568,339
Raw,23,1570,339
Raw,71,1571,339
Raw,51,1572,339
Raw,71,1573,339
Raw,16,1573,339
Raw,30,1574,339
Raw,21,1575,339
Raw,30,1575,339
Raw,59,1576,339
Raw,59,1577,339
Raw,42,1578,339
Raw,71,1579,339
Raw,31,1580,339
Raw,17,1581,339
Raw,25,1581,339
Raw,22,1582,339
Raw,17,1583,339
Raw,15,1583,339
Raw,22,1584,339
Raw,20,1586,339
Raw,69,1588,339
Raw,63,1589,339
Raw,40,1591,339
Raw,67,1592,339
Raw,31,1593,339
Raw,25,1594,339
Raw,44,1595,339
Raw,51,1596,339
Raw,47,1597,339
Raw,12,1599,339
Raw,26,1600,339
Raw,44,1601,339
Raw,52,1603,339
Raw,23,1604,339
Raw,19,1605,339
Raw,31,1605,339
Raw,56,1606,339
Raw,51,1607,339
Raw,22,1608,339
Raw,66,1609,339
Raw,60,1609,339
Raw,28,1610,339
Raw,21,1610,339
Raw,17,1611,339
Raw,9,1611,339
Raw,35,1612,339
Raw,24,1613,339
Raw,33,1614,339
Raw,36,1614,339
Raw,25,1615,339
Raw,31,1617,339
Raw,52,1618,339
Raw,46,1619,339
Raw,16,1621,339
Raw,52,1622,339
Raw,24,1623,339
Raw,53,1624,339
Raw,24,1625,339
Raw,7,1625,339
Raw,52,1626,339
Raw,21,1627,339
Raw,27,1627,339
Raw,26,1628,339
Raw,20,1628,339
Raw,21,1629,339
Raw,4,1629,339
Raw,22,1630,339
Raw,11,1630,339
Raw,44,1631,339
Raw,14,1632,339
Raw,42,1632,339
Raw,23,1632,339
Raw,23,1634,339
Raw,35,1635,339
Raw,39,1636,339
Raw,21,1637,339
Raw,30,1638,339
Raw,48,1639,339
Raw,14,1640,339
Raw,30,1641,339
Raw,14,1642,339
Raw,43,1642,339
Raw,21,1643,339
Raw,24,1644,339
Raw,33,1645,339
Raw,20,1646,339
Raw,58,1647,339
Raw,29,1649,339
Raw,35,1650,339
Raw,24,1652,339
Raw,7,1652,339
Raw,16,1654,339
Raw,17,1655,339
Raw,15,1655,339
Raw,35,1656,339
Raw,20,1657,339
Raw,23,1658,339
Raw,31,1660,339
Raw,25,1660,339
Raw,12,1661,339
Raw,36,1661,339
Raw,25,1663,339
Raw,14,1663,339
Raw,9,1666,339
Raw,32,1667,339
Raw,44,1668,339
Raw,29,1669,339
Raw,37,1669,339
Raw,46,1671,339
Raw,11,1671,339
Raw,44,1672,339
Raw,56,1672,339
Raw,42,1673,339
Raw,24,1674,339
Raw,25,1675,339
Raw,23,1676,339
Raw,26,1677,339
Raw,62,1678,339
Raw,44,1679,339
Raw,27,1680,339
Raw,61,1681,339
Raw,27,1682,339
Raw,18,1683,339
Raw,20,1684,339
Raw,32,1685,339
Raw,32,1687,339
Raw,10,1689,339
Raw,18,1689,339
Raw,65,1690,339
Raw,20,1690,339
Raw,55,1691,339
Raw,31,1691,339
Raw,70,1693,339
Raw,9,1694,339
Raw,48,1695,339
Raw,17,1696,339
Raw,17,1696,339
Raw,32,1697,339
Raw,36,1697,339
Raw,40,1698,339
Raw,72,1700,339
Raw,18,1701,339
Raw,27,1702,339
Raw,54,1703,339
Raw,22,1703,339
Raw,29,1704,339
Raw,13,1706,339
Raw,28,1706,339
Raw,50,1707,339
Raw,17,1707,339
Raw,16,1707,339
Raw,51,1709,339
Raw,23,1710,339
Raw,40,1711,339
Raw,29,1712,339
Raw,22,1713,339
Raw,25,1715,339
Raw,28,1716,339
Raw,45,1717,339
Raw,5,1717,339
Raw,19,1719,339
Raw,14,1719,339
Raw,74,1720,339
Raw,14,1720,339
Raw,19,1721,339
Raw,25,1722,339
Raw,9,1724,339
Raw,20,1724,339
Raw,15,1725,339
Raw,52,1725,339
Raw,38,1726,339
Raw,17,1726,339
Raw,24,1727,339
Raw,25,1728,339
Raw,30,1729,339
Raw,29,1730,339
Raw,25,1731,339
Raw,24,1732,339
Raw,13,1732,339
Raw,48,1733,339
Raw,34,1734,339
Raw,8,1735,339
Raw,22,1736,339
Raw,17,1736,339
Raw,25,1737,339
Raw,48,1738,339
Raw,38,1739,339
Raw,25,1739,339
Raw,40,1740,339
Raw,47,1741,339
Raw,49,1742,339
Raw,9,1742,339
Raw,27,1743,339
Raw,50,1744,339
Raw,16,1744,339
Raw,14,1745,339
Raw,9,1745,339
Raw,25,1748,339
Raw,47,1750,339
Raw,42,1751,339
Raw,42,1752,339
Raw,28,1753,339
Raw,28,1754,339
Raw,21,1754,339
Raw,15,1755,339
Raw,20,1755,339
Raw,19,1756,339
Raw,27,1756,339
Raw,31,1757,339
Raw,69,1759,339
Raw,28,1760,339
Raw,20,1760,339
Raw,35,1762,339
Raw,40,1763,339
Raw,25,1765,339
Raw,34,1766,339
Raw,22,1767,339
Raw,29,1769,339
Raw,27,1769,339
Raw,63,1770,339
Raw,72,1771,339
Raw,47,1772,339
Raw,62,1774,339
Raw,27,1775,339
Raw,21,1776,339
Raw,27,1776,339
Raw,62,1777,339
Raw,47,1778,339
Raw,69,1779,339
Raw,44,1780,339
Raw,39,1780,339
Raw,19,1781,339
Raw,40,1782,339
Raw,61,1784,339
Raw,59,1785,339
Raw,26,1786,339
Raw,33,1786,339
Raw,24,1787,339
Raw,56,1788,339
Raw,43,1789,339
Raw,46,1790,339
Raw,15,1791,339
Raw,26,1792,339
Raw,20,1794,339
Raw,48,1795,339
Raw,23,1795,339
Raw,34,1796,339
Raw,17,1796,339
Raw,14,1796,339
Raw,26,1797,339
Raw,23,1797,339
Raw,52,1798,339
Raw,61,1798,339
Raw,21,1800,339
Raw,22,1800,339
Raw,8,1801,339
Raw,32,1802,339
Raw,27,1802,339
Raw,27,1803,339
Raw,31,1805,339
Raw,38,1806,339
Raw,32,1806,339
Raw,27,1810,339
Raw,24,1811,339
Raw,32,1813,339
Raw,4,1813,339
Raw,27,1815,339
Raw,35,1815,339
Raw,23,1816,339
Raw,23,1816,339
Raw,17,1817,339
Raw,61,1818,339
Raw,23,1819,339
Raw,69,1821,339
Raw,25,1821,339
Raw,34,1822,339
Raw,43,1823,339
Raw,72,1825,339
Raw,55,1826,339
Raw,65,1827,339
Raw,30,1828,339
Raw,24,1829,339
Raw,29,1832,339
Raw,24,1833,339
Raw,10,1835,339
Raw,8,1835,339
Raw,30,1836,339
Raw,19,1836,339
Raw,15,1836,339
Raw,33,1838,339
Raw,39,1839,339
Raw,18,1840,339
Raw,30,1840,339
Raw,22,1841,339
Raw,72,1842,339
Raw,27,1843,339
Raw,52,1844,339
Raw,25,1846,339
Raw,14,1846,339
Raw,27,1847,339
Raw,24,1847,339
Raw,35,1849,339
Raw,12,1850,339
Raw,23,1852,339
Raw,57,1853,339
Raw,27,1854,339
Raw,25,1855,339
Raw,67,1857,339
Raw,49,1858,339
Raw,26,1859,339
Raw,30,1860,339
Raw,26,1861,339
Raw,21,1862,339
Raw,21,1862,339
Raw,37,1863,339
Raw,45,1864,339
Raw,69,1865,339
Raw,20,1866,339
Raw,24,1867,339
Raw,23,1868,339
Raw,21,1869,339
Raw,30,1869,339
Raw,60,1870,339
Raw,28,1870,339
Raw,45,1872,339
Raw,63,1877,339
Raw,44,1878,339
Raw,21,1881,339
Raw,16,1881,339
Raw,17,1883,339
Raw,28,1884,339
Raw,19,1885,339
Raw,17,1885,339
Raw,22,1886,339
Raw,7,1888,339
Raw,44,1889,339
Raw,17,1890,339
Raw,38,1890,339
Raw,74,1892,339
Raw,73,1893,339
Raw,36,1894,339
Raw,29,1895,339
Raw,34,1896,339
Raw,62,1897,339
Raw,32,1898,339
Raw,44,1899,339
Raw,42,1900,339
Raw,59,1900,339
Raw,51,1901,339
Raw,45,1902,339
Raw,31,1904,339
Raw,34,1905,339
Raw,25,1906,339
Raw,42,1906,339
Raw,50,1908,339
Raw,18,1908,339
Raw,6,1909,339
Raw,38,1909,339
Raw,50,1910,339
Raw,65,1911,339
Raw,17,1912,339
Raw,22,1913,339
Raw,11,1914,339
Raw,31,1914,339
Raw,39,1915,339
Raw,12,1915,339
Raw,40,1916,339
Raw,36,1917,339
Raw,34,1918,339
Raw,12,1919,339
Raw,46,1919,339
Raw,34,1924,339
Raw,25,1926,339
Raw,14,1928,339
Raw,13,1928,339
Raw,20,1929,339
Raw,56,1930,339
Raw,29,1931,339
Raw,25,1932,339
Raw,45,1933,339
Raw,21,1935,339
Raw,67,1936,339
Raw,8,1936,339
Raw,22,1937,339
Raw,38,1938,339
Raw,27,1939,339
Raw,19,1939,339
Raw,15,1941,339
Raw,62,1942,339
Raw,73,1943,339
Raw,14,1945,339
Raw,53,1945,339
Raw,30,1946,339
Raw,25,1947,339
Raw,24,1948,339
Raw,24,1949,339
Raw,30,1950,339
Raw,21,1950,339
Raw,42,1951,339
Raw,12,1952,339
Raw,47,1952,339
Raw,18,1953,339
Raw,28,1953,339
Raw,20,1953,339
Raw,12,1954,339
Raw,44,1955,339
Raw,22,1956,339
Raw,20,1956,339
Raw,49,1958,339
Raw,61,1959,339
Raw,38,1962,339
Raw,57,1963,339
Raw,65,1965,339
Raw,28,1966,339
Raw,43,1967,339
Raw,16,1967,339
Raw,32,1968,339
Raw,47,1970,339
Raw,7,1970,339
Raw,15,1971,339
Raw,29,1972,339
Raw,48,1973,339
Raw,17,1973,339
Raw,30,1974,339
Raw,25,1976,339
Raw,36,1977,339
Raw,19,1978,339
Raw,11,1978,339
Raw,27,1979,339
Raw,5,1980,339
Raw,20,1980,339
Raw,18,1982,339
Raw,20,1983,339
Raw,43,1983,339
Raw,6,1985,339
Raw,20,1985,339
Raw,17,1985,339
Raw,11,1985,339
Raw,64,1986,339
Raw,37,1988,339
Raw,19,1991,339
Raw,50,1991,339
Raw,47,1992,339
Raw,48,1993,339
Raw,24,1994,339
Raw,34,1995,339
Raw,59,1996,339
Raw,19,1996,339
Raw,18,1997,339
Raw,41,1997,339
Raw,65,1998,339
Raw,30,1999,339
Raw,29,2000,339
Raw,15,2002,339
Raw,28,2003,339
Raw,12,2004,339
Raw,38,2005,339
Raw,35,2006,339
Raw,32,2007,339
Raw,17,2008,339
Raw,29,2009,339
Raw,15,2010,339
Raw,20,2011,339
Raw,16,2012,339
Raw,33,2013,339
Raw,66,2014,339
Raw,47,2015,339
Raw,27,2016,339
Raw,8,2018,339
Raw,72,2019,339
Raw,28,2020,339
Raw,72,2022,339
Raw,28,2023,339
Raw,17,2024,339
Raw,28,2025,339
Raw,32,2026,339
Raw,20,2026,339
Raw,14,2028,339
Raw,22,2029,339
Raw,16,2029,339
Raw,12,2029,339
Raw,53,2030,339
Raw,74,2031,339
Raw,21,2032,339
Raw,6,2032,339
Raw,36,2033,339
Raw,34,2034,339
Raw,31,2035,339
Raw,47,2036,339
Raw,22,2037,339
Raw,49,2037,339
Raw,18,2038,339
Raw,25,2038,339
Raw,38,2039,339
Raw,44,2039,339
Raw,22,2041,339
Raw,14,2043,339
Raw,65,2043,339
Raw,74,2044,339
Raw,11,2044,339
Raw,24,2045,339
Raw,13,2046,339
Raw,14,2046,339
Raw,25,2047,339
Raw,14,2048,339
Raw,55,2049,339
Raw,39,2050,339
Raw,63,2051,339
Raw,37,2052,339
Raw,23,2053,339
Raw,60,2054,339
Raw,3,2054,339
Raw,23,2055,339
Raw,32,2057,339
Raw,15,2058,339
Raw,48,2059,339
Raw,23,2059,339
Raw,35,2060,339
Raw,35,2061,339
Raw,14,2061,339
Raw,54,2062,339
Raw,23,2064,339
Raw,9,2065,339
Raw,22,2066,339
Raw,41,2067,339
Raw,13,2067,339
Raw,19,2068,339
Raw,29,2069,339
Raw,26,2070,339
Raw,14,2072,339
Raw,24,2074,339
Raw,14,2075,339
Raw,22,2077,339
Raw,20,2078,339
Raw,34,2078,339
Raw,36,2079,339
Raw,21,2079,339
Raw,36,2080,339
Raw,28,2081,339
Raw,47,2082,339
Raw,27,2083,339
Raw,26,2085,339
Raw,18,2085,339
Raw,26,2086,339
Raw,23,2087,339
Raw,15,2087,339
Raw,20,2087,339
Raw,25,2088,339
Raw,63,2089,339
Raw,22,2089,339
Raw,17,2090,339
Raw,55,2090,339
Raw,52,2091,339
Raw,18,2091,339
Raw,4,2092,339
Raw,42,2093,339
Raw,18,2093,339
Raw,25,2094,339
Raw,20,2095,339
Raw,41,2096,339
Raw,36,2097,339
Raw,19,2097,339
Raw,9,2097,339
Raw,34,2098,339
Raw,38,2101,339
Raw,39,2102,339
Raw,26,2102,339
Raw,16,2102,339
Raw,32,2103,339
Raw,28,2105,339
Raw,12,2105,339
Raw,25,2106,339
Raw,15,2106,339
Raw,30,2107,339
Raw,46,2109,339
Raw,10,2110,339
Raw,50,2110,339
Raw,36,2111,339
Raw,27,2112,339
Raw,23,2113,339
Raw,14,2114,339
Raw,27,2115,339
Raw,19,2115,339
Raw,21,2116,339
Raw,3,2116,339
Raw,42,2117,339
Raw,24,2119,339
Raw,73,2121,339
Raw,28,2126,339
Raw,40,2127,339
Raw,31,2127,339
Raw,23,2128,339
Raw,75,2129,339
Raw,40,2131,339
Raw,67,2134,339
Raw,33,2135,339
Raw,55,2136,339
Raw,23,2137,339
Raw,42,2138,339
Raw,15,2139,339
Raw,38,2139,339
Raw,47,2140,339
Raw,50,2142,339
Raw,32,2143,339
Raw,15,2144,339
Raw,32,2145,339
Raw,60,2146,339
Raw,28,2147,339
Raw,9,2148,339
Raw,38,2148,339
Raw,29,2153,339
Raw,22,2156,339
Raw,31,2160,339
Raw,22,2160,339
Raw,38,2161,339
Raw,27,2162,339
Raw,26,2163,339
Raw,13,2163,339
Raw,20,2165,339
Raw,11,2166,339
Raw,45,2166,339
Raw,32,2167,339
Raw,21,2168,339
Raw,21,2168,339
Raw,17,2169,339
Raw,30,2170,339
Raw,22,2171,339
Raw,26,2172,339
Raw,11,2172,339
Raw,26,2172,339
Raw,16,2173,339
Raw,7,2173,339
Raw,11,2173,339
Raw,7,2174,339
Raw,41,2175,339
Raw,28,2176,339
Raw,68,2177,339
Raw,31,2178,339
Raw,15,2178,339
Raw,14,2180,339
Raw,53,2181,339
Raw,16,2182,339
Raw,21,2183,339
Raw,26,2184,339
Raw,22,2185,339
Raw,27,2186,339
Raw,17,2187,339
Raw,73,2187,339
Raw,11,2190,339
Raw,63,2190,339
Raw,22,2191,339
Raw,28,2192,339
Raw,7,2192,339
Raw,37,2193,339
Raw,30,2194,339
Raw,72,2195,339
Raw,17,2197,339
Raw,33,2197,339
Raw,26,2198,339
Raw,43,2198,339
Raw,25,2199,339
Raw,13,2200,339
Raw,46,2200,339
Raw,16,2201,339
Raw,17,2201,339
Raw,22,2202,339
Raw,21,2203,339
Raw,72,2204,339
Raw,34,2205,339
Raw,9,2208,339
Raw,31,2208,339
Raw,19,2208,339
Raw,22,2210,339
Raw,14,2210,339
Raw,20,2211,339
Raw,29,2213,339
Raw,24,2213,339
Raw,23,2214,339
Raw,25,2215,339
Raw,27,2217,339
Raw,14,2221,339
Raw,17,2221,339
Raw,24,2222,339
Raw,7,2222,339
Raw,20,2223,339
Raw,21,2224,339
Raw,39,2225,339
Raw,20,2225,339
Raw,14,2226,339
Raw,5,2226,339
Raw,61,2227,339
Raw,55,2228,339
Raw,30,2229,339
Raw,27,2231,339
Raw,32,2232,339
Raw,20,2233,339
Raw,70,2234,339
Raw,14,2234,339
Raw,16,2235,339
Raw,28,2236,339
Raw,38,2237,339
Raw,53,2238,339
Raw,71,2239,339
Raw,25,2240,339
Raw,65,2241,339
Raw,56,2242,339
Raw,8,2243,339
Raw,16,2243,339
Raw,17,2244,339
Raw,29,2245,339
Raw,16,2246,339
Raw,31,2247,339
Raw,23,2249,339
Raw,16,2252,339
Raw,51,2253,339
Raw,52,2254,339
Raw,14,2255,339
Raw,33,2255,339
Raw,5,2256,339
Raw,18,2256,339
Raw,38,2257,339
Raw,15,2258,339
Raw,8,2258,339
Raw,68,2259,339
Raw,35,2260,339
Raw,21,2260,339
Raw,19,2261,339
Raw,37,2262,339
Raw,9,2263,339
Raw,34,2264,339
Raw,18,2265,339
Raw,44,2267,339
Raw,35,2267,339
Raw,11,2268,339
Raw,51,2268,339
Raw,26,2269,339
Raw,19,2269,339
Raw,23,2270,339
Raw,24,2271,339
Raw,22,2272,339
Raw,22,2273,339
Raw,7,2274,339
Raw,30,2274,339
Raw,12,2274,339
Raw,16,2277,339
Raw,25,2277,339
Raw,64,2278,339
Raw,7,2279,339
Raw,30,2282,339
Raw,26,2283,339
Raw,40,2285,339
Raw,20,2285,339
Raw,37,2286,339
Raw,22,2288,339
Raw,19,2288,339
Raw,48,2289,339
Raw,20,2289,339
Raw,25,2291,339
Raw,21,2292,339
Raw,23,2292,339
Raw,64,2293,339
Raw,49,2295,339
Raw,17,2295,339
Raw,21,2296,339
Raw,23,2298,339
Raw,22,2298,339
Raw,63,2299,339
Raw,11,2300,339
Raw,19,2300,339
Raw,62,2301,339
Raw,34,2302,339
Raw,17,2303,339
Raw,22,2304,339
Raw,26,2305,339
Raw,19,2307,339
Raw,25,2307,339
Raw,7,2308,339
Raw,45,2309,339
Raw,47,2310,339
Raw,42,2311,339
Raw,7,2311,339
Raw,3,2314,339
Raw,27,2319,339
Raw,18,2320,339
Raw,17,2320,339
Raw,26,2321,339
Raw,21,2322,339
Raw,44,2323,339
Raw,37,2324,339
Raw,60,2326,339
Raw,71,2327,339
Raw,30,2328,339
Raw,13,2329,339
Raw,36,2329,339
Raw,36,2331,339
Raw,26,2333,339
Raw,26,2334,339
Raw,36,2336,339
Raw,49,2337,339
Raw,48,2338,339
Raw,26,2338,339
Raw,11,2338,339
Raw,34,2340,339
Raw,13,2341,339
Raw,35,2341,339
Raw,39,2342,339
Raw,14,2342,339
Raw,27,2343,339
Raw,17,2345,339
Raw,64,2346,339
Raw,22,2347,339
Raw,26,2348,339
Raw,32,2349,339
Raw,3,2349,339
Raw,27,2351,339
Raw,30,2352,339
Raw,58,2353,339
Raw,58,2354,339
Raw,15,2355,339
Raw,59,2355,339
Raw,24,2357,339
Raw,23,2358,339
Raw,29,2359,339
Raw,25,2361,339
Raw,17,2361,339
Raw,39,2363,339
Raw,28,2365,339
Raw,8,2366,339
Raw,29,2367,339
Raw,17,2368,339
Raw,3,2368,339
Raw,27,2369,339
Raw,19,2370,339
Raw,30,2370,339
Raw,30,2371,339
Raw,16,2371,339
Raw,32,2372,339
Raw,53,2373,339
Raw,22,2374,339
Raw,27,2376,339
Raw,42,2377,339
Raw,13,2377,339
Raw,13,2378,339
Raw,35,2378,339
Raw,8,2378,339
Raw,22,2379,339
Raw,9,2379,339
Raw,54,2380,339
Raw,57,2383,339
Raw,37,2383,339
Raw,39,2385,339
Raw,20,2386,339
Raw,46,2389,339
Raw,33,2390,339
Raw,39,2391,339
Raw,56,2392,339
Raw,11,2393,339
Raw,28,2394,339
Raw,24,2395,339
Raw,17,2396,339
Raw,44,2397,339
Raw,16,2398,339
Raw,46,2398,339
Raw,17,2399,339
Raw,37,2400,339
Raw,21,2400,339
Raw,64,2401,339
Raw,3,2401,339
Raw,74,2402,339
Raw,39,2402,339
Raw,29,2403,339
Raw,40,2404,339
Raw,48,2405,339
Raw,35,2406,339
Raw,32,2407,339
Raw,52,2408,339
Raw,22,2411,339
Raw,58,2412,339
Raw,36,2412,339
Raw,52,2415,339
Raw,17,2416,339
Raw,6,2416,339
Raw,30,2418,339
Raw,35,2419,339
Raw,21,2419,339
Raw,22,2420,339
Raw,30,2421,339
Raw,21,2421,339
Raw,37,2422,339
Raw,67,2422,339
Raw,14,2423,339
Raw,40,2424,339
Raw,20,2424,339
Raw,7,2425,339
Raw,44,2425,339
Raw,28,2426,339
Raw,12,2427,339
Raw,7,2428,339
Raw,36,2428,339
Raw,16,2429,339
Raw,15,2430,339
Raw,26,2432,339
Raw,27,2432,339
Raw,29,2434,339
Raw,68,2435,339
Raw,21,2436,339
Raw,21,2436,339
Raw,15,2438,339
Raw,11,2439,339
Raw,30,2440,339
Raw,25,2441,339
Raw,32,2442,339
Raw,69,2445,339
Raw,4,2446,339
Raw,39,2446,339
Raw,23,2448,339
Raw,23,2448,339
Raw,17,2449,339
Raw,16,2449,339
Raw,35,2450,339
Raw,20,2451,339
Raw,68,2452,339
Raw,35,2453,339
Raw,10,2453,339
Raw,25,2454,339
Raw,32,2455,339
Raw,23,2456,339
Raw,15,2456,339
Raw,57,2457,339
Raw,27,2459,339
Raw,22,2460,339
Raw,73,2461,339
Raw,29,2462,339
Raw,24,2463,339
Raw,19,2464,339
Raw,20,2464,339
Raw,50,2465,339
Raw,39,2466,339
Raw,28,2467,339
Raw,16,2468,339
Raw,22,2470,339
Raw,29,2470,339
Raw,14,2471,339
Raw,8,2472,339
Raw,39,2472,339
Raw,5,2473,339
Raw,42,2474,339
Raw,25,2475,339
Raw,47,2477,339
Raw,14,2477,339
Raw,55,2478,339
Raw,15,2479,339
Raw,19,2479,339
Raw,16,2480,339
Raw,22,2481,339
Raw,21,2482,339
Raw,25,2483,339
Raw,12,2483,339
Raw,12,2484,339
Raw,71,2484,339
Raw,5,2485,339
Raw,37,2486,339
Raw,8,2487,339
Raw,48,2488,339
Raw,20,2488,339
Raw,16,2488,339
Raw,23,2490,339
Raw,24,2492,339
Raw,24,2493,339
Raw,42,2494,339
Raw,13,2494,339
Raw,23,2495,339
Raw,46,2496,339
Raw,67,2497,339
Raw,23,2498,339
Raw,27,2500,339
Raw,51,2502,339
Raw,9,2502,339
Raw,29,2503,339
Raw,41,2504,339
Raw,16,2505,339
Raw,25,2507,339
Raw,29,2509,339
Raw,9,2511,339
Raw,33,2511,339
Raw,31,2512,339
Raw,29,2513,339
Raw,42,2516,339
Raw,3,2516,339
Raw,33,2517,339
Raw,32,2518,339
Raw,56,2519,339
Raw,47,2520,339
Raw,28,2521,339
Raw,57,2522,339
Raw,25,2523,339
Raw,47,2524,339
Raw,18,2524,339
Raw,13,2525,339
Raw,20,2525,339
Raw,39,2527,339
Raw,27,2528,339
Raw,21,2529,339
Raw,21,2530,339
Raw,23,2531,339
Raw,23,2532,339
Raw,24,2533,339
Raw,26,2534,339
Raw,13,2534,339
Raw,41,2536,339
Raw,38,2537,339
Raw,26,2538,339
Raw,10,2538,339
Raw,17,2539,339
Raw,53,2539,339
Raw,30,2540,339
Raw,22,2542,339
Raw,21,2543,339
Raw,16,2543,339
Raw,28,2544,339
Raw,29,2545,339
Raw,71,2546,339
Raw,24,2547,339
Raw,25,2547,339
Raw,46,2548,339
Raw,61,2549,339
Raw,26,2551,339
Raw,27,2553,339
Raw,24,2554,339
Raw,44,2556,339
Raw,11,2556,339
Raw,24,2557,339
Raw,25,2558,339
Raw,6,2558,339
Raw,9,2559,339
Raw,17,2559,339
Raw,38,2560,339
Raw,11,2561,339
Raw,48,2561,339
Raw,21,2563,339
Raw,26,2563,339
Raw,49,2564,339
Raw,33,2565,339
Raw,58,2566,339
Raw,24,2567,339
Raw,17,2567,339
Raw,24,2569,339
Raw,20,2570,339
Raw,20,2571,339
Raw,20,2571,339
Raw,34,2572,339
Raw,12,2573,339
Raw,17,2574,339
Raw,30,2576,339
Raw,28,2577,339
Raw,64,2578,339
Raw,6,2578,339
Raw,32,2579,339
Raw,10,2580,339
Raw,22,2582,339
Raw,26,2583,339
Raw,23,2584,339
Raw,32,2585,339
Raw,10,2586,339
Raw,32,2586,339
Raw,14,2587,339
Raw,23,2588,339
Raw,25,2590,339
Raw,42,2593,339
Raw,57,2594,339
Raw,49,2595,339
Raw,66,2596,339
Raw,24,2597,339
Raw,37,2598,339
Raw,46,2598,339
Raw,16,2599,339
Raw,18,2599,339
Raw,17,2599,339
Raw,45,2600,339
Raw,29,2601,339
Raw,11,2602,339
Raw,51,2603,339
Raw,31,2604,339
Raw,27,2604,339
Raw,31,2605,339
Raw,42,2606,339
Raw,22,2607,339
Raw,25,2608,339
Raw,38,2609,339
Raw,14,2611,339
Raw,15,2612,339
Raw,20,2612,339
Raw,24,2614,339
Raw,20,2616,339
Raw,24,2618,339
Raw,25,2620,339
Raw,59,2621,339
Raw,38,2622,339
Raw,25,2623,339
Raw,23,2624,339
Raw,25,2626,339
Raw,66,2628,339
Raw,23,2629,339
Raw,43,2630,339
Raw,40,2631,339
Raw,69,2632,339
Raw,36,2633,339
Raw,30,2634,339
Raw,67,2635,339
Raw,39,2636,339
Raw,16,2636,339
Raw,24,2637,339
Raw,28,2638,339
Raw,28,2639,339
Raw,32,2639,339
Raw,30,2639,339
Raw,30,2641,339
Raw,38,2642,339
Raw,3,2642,339
Raw,18,2643,339
Raw,5,2643,339
Raw,74,2645,339
Raw,58,2646,339
Raw,15,2647,339
Raw,15,2647,339
Raw,18,2647,339
Raw,16,2649,339
Raw,21,2651,339
Raw,25,2652,339
Raw,57,2653,339
Raw,41,2654,339
Raw,27,2655,339
Raw,22,2657,339
Raw,43,2658,339
Raw,17,2658,339
Raw,34,2661,339
Raw,25,2664,339
Raw,20,2665,339
Raw,63,2665,339
Raw,28,2666,339
Raw,11,2668,339
Raw,10,2669,339
Raw,15,2669,339
Raw,17,2669,339
Raw,10,2670,339
Raw,5,2670,339
Raw,60,2671,339
Raw,67,2672,339
Raw,21,2673,339
Raw,14,2673,339
Raw,27,2674,339
Raw,14,2674,339
Raw,7,2675,339
Raw,14,2675,339
Raw,47,2676,339
Raw,25,2677,339
Raw,23,2679,339
Raw,33,2680,339
Raw,26,2681,339
Raw,44,2682,339
Raw,28,2684,339
Raw,43,2685,339
Raw,40,2686,339
Raw,36,2688,339
Raw,61,2689,339
Raw,17,2690,339
Raw,73,2691,339
Raw,26,2693,339
Raw,61,2694,339
Raw,33,2695,339
Raw,27,2696,339
Raw,65,2699,339
Raw,17,2699,339
Raw,23,2700,339
Raw,36,2700,339
Raw,39,2701,339
Raw,45,2702,339
Raw,13,2703,339
Raw,40,2703,339
Raw,17,2704,339
Raw,36,2704,339
Raw,38,2710,339
Raw,37,2711,339
Raw,18,2712,339
Raw,74,2713,339
Raw,17,2714,339
Raw,33,2714,339
Raw,13,2716,339
Raw,12,2717,339
Raw,32,2718,339
Raw,18,2718,339
Raw,52,2719,339
Raw,74,2720,339
Raw,48,2722,339
Raw,38,2723,339
Raw,31,2724,339
Raw,43,2725,339
Raw,9,2726,339
Raw,54,2727,339
Raw,37,2727,339
Raw,15,2728,339
Raw,31,2728,339
Raw,30,2730,339
Raw,26,2731,339
Raw,34,2732,339
Raw,36,2733,339
Raw,45,2734,339
Raw,6,2734,339
Raw,75,2735,339
Raw,11,2736,339
Raw,40,2736,339
Raw,54,2737,339
Raw,16,2737,339
Raw,23,2738,339
Raw,28,2738,339
Raw,66,2740,339
Raw,30,2742,339
Raw,52,2744,339
Raw,20,2745,339
Raw,23,2746,339
Raw,17,2746,339
Raw,17,2747,339
Raw,15,2748,339
Raw,19,2749,339
Raw,27,2749,339
Raw,54,2750,339
Raw,9,2751,339
Raw,68,2753,339
Raw,62,2754,339
Raw,23,2755,339
Raw,22,2757,339
Raw,50,2758,339
Raw,47,2759,339
Raw,13,2760,339
Raw,38,2760,339
Raw,45,2761,339
Raw,23,2762,339
Raw,13,2762,339
Raw,59,2763,339
Raw,40,2764,339
Raw,37,2764,339
Raw,26,2767,339
Raw,43,2767,339
Raw,9,2768,339
Raw,65,2768,339
Raw,17,2769,339
Raw,54,2769,339
Raw,22,2771,339
Raw,52,2771,339
Raw,41,2772,339
Raw,17,2773,339
Raw,10,2773,339
Raw,7,2773,339
Raw,26,2774,339
Raw,28,2775,339
Raw,26,2776,339
Raw,63,2777,339
Raw,20,2778,339
Raw,29,2778,339
Raw,32,2779,339
Raw,34,2780,339
Raw,50,2780,339
Raw,26,2781,339
Raw,17,2782,339
Raw,33,2782,339
Raw,25,2783,339
Raw,34,2784,339
Raw,41,2785,339
Raw,19,2786,339
Raw,14,2786,339
Raw,21,2787,339
Raw,26,2789,339
Raw,61,2790,339
Raw,34,2791,339
Raw,40,2792,339
Raw,75,2793,339
Raw,12,2793,339
Raw,39,2794,339
Raw,7,2794,339
Raw,27,2796,339
Raw,37,2798,339
Raw,25,2800,339
Raw,44,2801,339
Raw,69,2802,339
Raw,14,2803,339
Raw,57,2803,339
Raw,24,2805,339
Raw,28,2806,339
Raw,58,2807,339
Raw,21,2807,339
Raw,69,2809,339
Raw,18,2809,339
Raw,33,2811,339
Raw,21,2812,339
Raw,12,2812,339
Raw,29,2813,339
Raw,47,2814,339
Raw,17,2814,339
Raw,21,2816,339
Raw,13,2817,339
Raw,47,2818,339
Raw,19,2819,339
Raw,17,2820,339
Raw,54,2821,339
Raw,16,2821,339
Raw,24,2822,339
Raw,29,2822,339
Raw,35,2823,339
Raw,36,2824,339
Raw,15,2825,339
Raw,60,2826,339
Raw,34,2826,339
Raw,22,2827,339
Raw,10,2828,339
Raw,16,2828,339
Raw,12,2828,339
Raw,24,2829,339
Raw,12,2829,339
Raw,6,2830,339
Raw,32,2831,339
Raw,58,2832,339
Raw,60,2833,339
Raw,12,2834,339
Raw,33,2835,339
Raw,23,2836,339
Raw,14,2836,339
Raw,43,2837,339
Raw,21,2837,339
Raw,17,2838,339
Raw,34,2838,339
Raw,19,2839,339
Raw,3,2839,339
Raw,22,2841,339
Raw,29,2842,339
Raw,16,2842,339
Raw,7,2843,339
Raw,14,2844,339
Raw,17,2845,339
Raw,62,2845,339
Raw,65,2846,339
Raw,71,2847,339
Raw,33,2848,339
Raw,30,2849,339
Raw,46,2850,339
Raw,12,2851,339
Raw,37,2851,339
Raw,68,2852,339
Raw,22,2853,339
Raw,26,2853,339
Raw,36,2855,339
Raw,25,2856,339
Raw,46,2857,339
Raw,18,2858,339
Raw,43,2858,339
Raw,42,2860,339
Raw,67,2863,339
Raw,11,2864,339
Raw,16,2864,339
Raw,22,2865,339
Raw,40,2866,339
Raw,25,2868,339
Raw,39,2869,339
Raw,21,2870,339
Raw,27,2871,339
Raw,30,2872,339
Raw,23,2873,339
Raw,27,2874,339
Raw,43,2875,339
Raw,33,2876,339
Raw,39,2877,339
Raw,16,2878,339
Raw,16,2879,339
Raw,20,2881,339
Raw,26,2882,339
Raw,30,2883,339
Raw,4,2883,339
Raw,30,2885,339
Raw,49,2887,339
Raw,28,2888,339
Raw,47,2890,339
Raw,58,2891,339
Raw,11,2891,339
Raw,24,2892,339
Raw,34,2893,339
Raw,50,2895,339
Raw,53,2896,339
Raw,20,2897,339
Raw,31,2898,339
Raw,19,2899,339
Raw,37,2899,339
Raw,23,2899,339
Raw,46,2900,339
Raw,14,2900,339
Raw,17,2901,339
Raw,42,2901,339
Raw,53,2902,339
Raw,18,2902,339
Raw,32,2903,339
Raw,37,2905,339
Raw,9,2906,339
Raw,38,2907,339
Raw,20,2908,339
Raw,24,2908,339
Raw,63,2910,339
Raw,25,2911,339
Raw,35,2911,339
Raw,23,2912,339
Raw,22,2912,339
Raw,44,2914,339
Raw,27,2915,339
Raw,25,2915,339
Raw,34,2917,339
Raw,19,2917,339
Raw,40,2918,339
Raw,67,2919,339
Raw,27,2920,339
Raw,10,2920,339
Raw,22,2922,339
Raw,62,2924,339
Raw,59,2928,339
Raw,9,2930,339
Raw,25,2932,339
Raw,27,2934,339
Raw,32,2937,339
Raw,8,2938,339
Raw,10,2938,339
Raw,41,2938,339
Raw,20,2939,339
Raw,45,2940,339
Raw,57,2941,339
Raw,38,2943,339
Raw,14,2944,339
Raw,47,2945,339
Raw,21,2949,339
Raw,26,2950,339
Raw,36,2952,339
Raw,52,2953,339
Raw,5,2954,339
Raw,5,2954,339
Raw,22,2956,339
Raw,59,2957,339
Raw,51,2959,339
Raw,73,2962,339
Raw,48,2963,339
Raw,39,2964,339
Raw,12,2964,339
Raw,14,2964,339
Raw,25,2965,339
Raw,29,2968,339
Raw,46,2970,339
Raw,26,2971,339
Raw,44,2972,339
Raw,14,2974,339
Raw,37,2974,339
Raw,14,2975,339
Raw,50,2975,339
Raw,11,2976,339
Raw,12,2976,339
Raw,43,2977,339
Raw,22,2978,339
Raw,14,2978,339
Raw,20,2979,339
Raw,29,2979,339
Raw,24,2980,339
Raw,16,2981,339
Raw,39,2982,339
Raw,22,2982,339
Raw,24,2982,339
Raw,46,2983,339
Raw,24,2984,339
Raw,20,2986,339
Raw,22,2986,339
Raw,24,2987,339
Raw,49,2988,339
Raw,19,2989,339
Raw,18,2989,339
Raw,41,2991,339
Raw,26,2992,339
Raw,30,2994,339
Raw,17,2994,339
Raw,59,2995,339
Raw,15,2997,339
Raw,42,2997,339
Raw,17,2998,339
Raw,31,2998,339
Raw,20,3000,339
Raw,19,3002,339
Raw,19,3003,339
Raw,15,3006,339
Raw,47,3006,339
Raw,35,3007,339
Raw,20,3011,339
Raw,24,3011,339
Raw,58,3012,339
Raw,45,3012,339
Raw,63,3013,339
Raw,26,3014,339
Raw,56,3016,339
Raw,6,3017,339
Raw,25,3018,339
Raw,14,3018,339
Raw,39,3020,339
Raw,16,3021,339
Raw,75,3022,339
Raw,6,3023,339
Raw,27,3023,339
Raw,11,3023,339
Raw,23,3024,339
Raw,15,3025,339
Raw,31,3025,339
Raw,25,3026,339
Raw,29,3026,339
Raw,12,3027,339
Raw,41,3027,339
Raw,10,3028,339
Raw,34,3028,339
Raw,53,3029,339
Raw,27,3030,339
Raw,33,3031,339
Raw,15,3032,339
Raw,50,3033,339
Raw,23,3033,339
Raw,46,3034,339
Raw,23,3036,339
Raw,31,3037,339
Raw,10,3038,339
Raw,34,3039,339
Raw,18,3041,339
Raw,41,3042,339
Raw,18,3043,339
Raw,26,3043,339
Raw,36,3045,339
Raw,24,3046,339
Raw,11,3047,339
Raw,35,3047,339
Raw,45,3049,339
Raw,29,3050,339
Raw,50,3051,339
Raw,20,3052,339
Raw,28,3052,339
Raw,35,3053,339
Raw,39,3055,339
Raw,13,3055,339
Raw,11,3058,339
Raw,44,3058,339
Raw,26,3059,339
Raw,18,3060,339
Raw,24,3061,339
Raw,29,3061,339
Raw,30,3062,339
Raw,29,3063,339
Raw,70,3064,339
Raw,16,3065,339
Raw,41,3066,339
Raw,9,3066,339
Raw,29,3067,339
Raw,26,3068,339
Raw,37,3068,339
Raw,34,3069,339
Raw,42,3071,339
Raw,32,3072,339
Raw,54,3076,339
Raw,21,3077,339
Raw,18,3077,339
Raw,24,3078,339
Raw,40,3079,339
Raw,69,3080,339
Raw,28,3081,339
Raw,31,3082,339
Raw,45,3083,339
Raw,27,3085,339
Raw,25,3085,339
Raw,25,3086,339
Raw,51,3088,339
Raw,4,3088,339
Raw,33,3089,339
Raw,9,3089,339
Raw,17,3091,339
Raw,66,3091,339
Raw,31,3092,339
Raw,14,3095,339
Raw,19,3096,339
Raw,24,3097,339
Raw,72,3098,339
Raw,20,3098,339
Raw,25,3100,339
Raw,43,3102,339
Raw,22,3103,339
Raw,16,3104,339
Raw,19,3104,339
Raw,61,3105,339
Raw,3,3105,339
Raw,42,3108,339
Raw,23,3110,339
Raw,12,3110,339
Raw,27,3111,339
Raw,24,3111,339
Raw,44,3112,339
Raw,14,3112,339
Raw,41,3113,339
Raw,75,3114,339
Raw,35,3115,339
Raw,22,3117,339
Raw,24,3118,339
Raw,37,3119,339
Raw,61,3120,339
Raw,34,3122,339
Raw,37,3123,339
Raw,29,3124,339
Raw,43,3126,339
Raw,41,3127,339
Raw,15,3127,339
Raw,6,3127,339
Raw,11,3128,339
Raw,18,3128,339
Raw,33,3129,339
Raw,24,3129,339
Raw,64,3130,339
Raw,59,3132,339
Raw,28,3133,339
Raw,35,3134,339
Raw,14,3135,339
Raw,25,3136,339
Raw,48,3137,339
Raw,11,3138,339
Raw,59,3138,339
Raw,17,3141,339
Raw,32,3141,339
Raw,73,3142,339
Raw,41,3143,339
Raw,56,3144,339
Raw,46,3145,339
Raw,27,3146,339
Raw,32,3146,339
Raw,29,3147,339
Raw,10,3149,339
Raw,45,3150,339
Raw,26,3150,339
Raw,24,3151,339
Raw,63,3152,339
Raw,15,3152,339
Raw,54,3153,339
Raw,20,3154,339
Raw,22,3156,339
Raw,20,3156,339
Raw,19,3157,339
Raw,17,3158,339
Raw,62,3159,339
Raw,48,3160,339
Raw,13,3160,339
Raw,24,3162,339
Raw,20,3163,339
Raw,7,3164,339
Raw,28,3165,339
Raw,54,3167,339
Raw,64,3169,339
Raw,28,3170,339
Raw,24,3172,339
Raw,29,3174,339
Raw,30,3175,339
Raw,50,3175,339
Raw,25,3176,339
Raw,20,3177,339
Raw,25,3178,339
Raw,13,3178,339
Raw,43,3179,339
Raw,15,3179,339
Raw,14,3179,339
Raw,33,3180,339
Raw,23,3181,339
Raw,35,3183,339
Raw,18,3184,339
Raw,24,3185,339
Raw,63,3186,339
Raw,36,3188,339
Raw,21,3188,339
Raw,23,3191,339
Raw,74,3192,339
Raw,17,3192,339
Raw,27,3193,339
Raw,35,3194,339
Raw,14,3195,339
Raw,39,3195,339
Raw,28,3196,339
Raw,17,3196,339
Raw,27,3197,339
Raw,12,3197,339
Raw,14,3198,339
Raw,63,3198,339
Raw,24,3199,339
Raw,65,3201,339
Raw,22,3202,339
Raw,14,3203,339
Raw,45,3204,339
Raw,22,3205,339
Raw,25,3208,339
Raw,21,3208,339
Raw,55,3209,339
Raw,27,3210,339
Raw,12,3210,339
Raw,75,3211,339
Raw,49,3212,339
Raw,61,3213,339
Raw,11,3216,339
Raw,36,3216,339
Raw,68,3217,339
Raw,26,3218,339
Raw,40,3219,339
Raw,21,3220,339
Raw,20,3221,339
Raw,13,3222,339
Raw,15,3223,339
Raw,15,3224,339
Raw,28,3227,339
Raw,29,3228,339
Raw,29,3229,339
Raw,19,3230,339
Raw,13,3230,339
Raw,18,3230,339
Raw,23,3232,339
Raw,15,3232,339
Raw,15,3233,339
Raw,53,3234,339
Raw,18,3235,339
Raw,26,3236,339
Raw,17,3237,339
Raw,8,3237,339
Raw,34,3239,339
Raw,70,3240,339
Raw,3,3240,339
Raw,37,3241,339
Raw,33,3242,339
Raw,21,3243,339
Raw,24,3243,339
Raw,49,3245,339
Raw,54,3246,339
Raw,32,3248,339
Raw,59,3249,339
Raw,28,3250,339
Raw,46,3253,339
Raw,33,3254,339
Raw,24,3255,339
Raw,30,3256,339
Raw,45,3257,339
Raw,26,3258,339
Raw,51,3258,339
Raw,35,3259,339
Raw,36,3261,339
Raw,36,3261,339
Raw,43,3262,339
Raw,12,3263,339
Raw,33,3263,339
Raw,25,3264,339
Raw,44,3265,339
Raw,24,3265,339
Raw,28,3266,339
Raw,13,3266,339
Raw,25,3267,339
Raw,74,3268,339
Raw,63,3269,339
Raw,9,3269,339
Raw,17,3270,339
Raw,23,3271,339
Raw,29,3271,339
Raw,5,3271,339
Raw,27,3274,339
Raw,16,3276,339
Raw,44,3278,339
Raw,19,3278,339
Raw,22,3279,339
Raw,11,3280,339
Raw,22,3280,339
Raw,19,3280,339
Raw,38,3281,339
Raw,47,3282,339
Raw,32,3283,339
Raw,19,3283,339
Raw,66,3284,339
Raw,44,3285,339
Raw,48,3286,339
Raw,34,3288,339
Raw,23,3289,339
Raw,21,3289,339
Raw,14,3289,339
Raw,15,3290,339
Raw,16,3292,339
Raw,19,3292,339
Raw,26,3293,339
Raw,12,3293,339
Raw,14,3294,339
Raw,15,3295,339
Raw,19,3295,339
Raw,25,3296,339
Raw,8,3296,339
Raw,24,3297,339
Raw,22,3297,339
Raw,23,3298,339
Raw,31,3298,339
Raw,28,3299,339
Raw,17,3300,339
Raw,16,3300,339
Raw,29,3301,339
Raw,48,3302,339
Raw,45,3303,339
Raw,72,3304,339
Raw,27,3305,339
Raw,36,3306,339
Raw,12,3306,339
Raw,25,3307,339
Raw,47,3308,339
Raw,16,3308,339
Raw,18,3308,339
Raw,45,3309,339
Raw,39,3310,339
Raw,24,3311,339
Raw,41,3312,339
Raw,31,3314,339
Raw,55,3315,339
Raw,24,3316,339
Raw,13,3317,339
Raw,31,3318,339
Raw,18,3320,339
Raw,14,3320,339
Raw,12,3322,339
Raw,19,3323,339
Raw,15,3323,339
Raw,45,3324,339
Raw,25,3325,339
Raw,15,3325,339
Raw,50,3326,339
Raw,37,3327,339
Raw,45,3327,339
Raw,25,3328,339
Raw,24,3329,339
Raw,23,3332,339
Raw,51,3333,339
Raw,29,3334,339
Raw,14,3336,339
Raw,11,3337,339
Raw,73,3338,339
Raw,21,3339,339
Raw,40,3340,339
Raw,19,3340,339
Raw,49,3342,339
Raw,22,3343,339
Raw,22,3346,339
Raw,54,3349,339
Raw,25,3350,339
Raw,15,3350,339
Raw,14,3351,339
Raw,40,3352,339
Raw,27,3353,339
Raw,18,3353,339
Raw,27,3355,339
Raw,13,3355,339
Raw,20,3356,339
Raw,24,3360,339
Raw,73,3363,339
Raw,42,3364,339
Raw,48,3365,339
Raw,38,3365,339
Raw,33,3366,339
Raw,33,3368,339
Raw,47,3369,339
Raw,69,3372,339
Raw,25,3373,339
Raw,26,3376,339
Raw,60,3378,339
Raw,14,3382,339
Raw,16,3382,339
Raw,62,3383,339
Raw,45,3385,339
Raw,59,3386,339
Raw,58,3388,339
Raw,14,3388,339
Raw,38,3389,339
Raw,71,3390,339
Raw,64,3391,339
Raw,27,3392,339
Raw,75,3393,339
Raw,19,3394,339
Raw,25,3394,339
Raw,27,3396,339
Raw,23,3397,339
Raw,32,3398,339
Raw,38,3399,339
Raw,21,3400,339
Raw,46,3400,339
Raw,55,3401,339
Raw,23,3402,339
Raw,22,3404,339
Raw,36,3404,339
Raw,31,3405,339
Raw,25,3405,339
Raw,20,3407,339
Raw,17,3407,339
Raw,30,3407,339
Raw,36,3408,339
Raw,22,3409,339
Raw,19,3410,339
Raw,46,3410,339
Raw,32,3411,339
Raw,16,3413,339
Raw,22,3414,339
Raw,13,3414,339
Raw,53,3415,339
Raw,25,3416,339
Raw,25,3417,339
Raw,34,3418,339
Raw,24,3419,339
Raw,41,3420,339
Raw,72,3422,339
Raw,26,3423,339
Raw,33,3424,339
Raw,26,3425,339
Raw,47,3426,339
Raw,40,3427,339
Raw,40,3429,339
Raw,11,3431,339
Raw,30,3432,339
Raw,17,3432,339
Raw,66,3434,339
Raw,46,3437,339
Raw,64,3438,339
Raw,37,3440,339
Raw,42,3441,339
Raw,26,3442,339
Raw,15,3444,339
Raw,16,3444,339
Raw,28,3446,339
Raw,31,3447,339
Raw,59,3448,339
Raw,26,3449,339
Raw,23,3450,339
Raw,18,3450,339
Raw,70,3451,339
Raw,28,3452,339
Raw,30,3452,339
Raw,25,3453,339
Raw,31,3454,339
Raw,27,3455,339
Raw,56,3456,339
Raw,59,3457,339
Raw,17,3458,339
Raw,18,3459,339
Raw,15,3459,339
Raw,49,3460,339
Raw,31,3460,339
Raw,9,3461,339
Raw,14,3462,339
Raw,25,3462,339
Raw,17,3462,339
Raw,49,3463,339
Raw,39,3464,339
Raw,12,3465,339
Raw,27,3466,339
Raw,34,3467,339
Raw,13,3468,339
Raw,23,3469,339
Raw,16,3469,339
Raw,39,3470,339
Raw,28,3471,339
Raw,27,3473,339
Raw,24,3474,339
Raw,22,3475,339
Raw,12,3475,339
Raw,7,3476,339
Raw,36,3476,339
Raw,10,3476,339
Raw,40,3479,339
Raw,24,3481,339
Raw,44,3482,339
Raw,48,3483,339
Raw,66,3484,339
Raw,22,3487,339
Raw,17,3487,339
Raw,29,3488,339
Raw,12,3488,339
Raw,40,3489,339
Raw,16,3489,339
Raw,37,3491,339
Raw,13,3493,339
Raw,22,3493,339
Raw,72,3494,339
Raw,7,3494,339
Raw,8,3495,339
Raw,55,3496,339
Raw,10,3497,339
Raw,25,3498,339
Raw,26,3500,339
Raw,52,3500,339
Raw,32,3501,339
Raw,39,3501,339
Raw,75,3502,339
Raw,15,3503,339
Raw,22,3503,339
Raw,13,3503,339
Raw,26,3504,339
Raw,50,3505,339
Raw,65,3506,339
Raw,16,3507,339
Raw,19,3508,339
Raw,38,3509,339
Raw,23,3510,339
Raw,17,3510,339
Raw,24,3511,339
Raw,7,3511,339
Raw,27,3512,339
Raw,66,3514,339
Raw,55,3515,339
Raw,53,3516,339
Raw,24,3518,339
Raw,28,3519,339
Raw,12,3519,339
Raw,33,3520,339
Raw,35,3521,339
Raw,19,3521,339
Raw,29,3522,339
Raw,56,3523,339
Raw,21,3523,339
Raw,60,3524,339
Raw,30,3525,339
Raw,19,3526,339
Raw,18,3526,339
Raw,67,3527,339
Raw,32,3528,339
Raw,44,3529,339
Raw,32,3530,339
Raw,22,3531,339
Raw,72,3532,339
Raw,21,3532,339
Raw,25,3535,339
Raw,40,3535,339
Raw,16,3536,339
Raw,48,3536,339
Raw,48,3538,339
Raw,15,3540,339
Raw,36,3540,339
Raw,28,3541,339
Raw,17,3541,339
Raw,54,3542,339
Raw,42,3543,339
Raw,38,3543,339
Raw,36,3544,339
Raw,22,3544,339
Raw,25,3546,339
Raw,54,3546,339
Raw,19,3547,339
Raw,38,3548,339
Raw,21,3549,339
Raw,36,3550,339
Raw,23,3553,339
Raw,43,3554,339
Raw,66,3555,339
Raw,18,3556,339
Raw,25,3556,339
Raw,62,3557,339
Raw,11,3557,339
Raw,25,3558,339
Raw,59,3559,339
Raw,23,3559,339
Raw,19,3559,339
Raw,27,3560,339
Raw,57,3562,339
Raw,27,3563,339
Raw,33,3564,339
Raw,19,3564,339
Raw,44,3565,339
Raw,15,3565,339
Raw,30,3566,339
Raw,25,3567,339
Raw,57,3568,339
Raw,33,3569,339
Raw,30,3570,339
Raw,74,3571,339
Raw,25,3572,339
Raw,12,3573,339
Raw,14,3574,339
Raw,48,3574,339
Raw,29,3575,339
Raw,16,3576,339
Raw,25,3576,339
Raw,13,3577,339
Raw,24,3578,339
Raw,20,3579,339
Raw,40,3580,339
Raw,31,3581,339
Raw,30,3582,339
Raw,53,3583,339
Raw,50,3584,339
Raw,21,3586,339
Raw,53,3588,339
Raw,14,3590,339
Raw,75,3591,339
Raw,69,3592,339
Raw,22,3596,339
Raw,14,3596,339
Raw,26,3597,339
Raw,51,3598,339
Raw,25,3599,339
Raw,47,3600,339
Raw,9,3601,339
Raw,22,3603,339
Raw,37,3604,339
Raw,60,3606,339
Raw,29,3607,339
Raw,16,3611,339
Raw,31,3611,339
Raw,37,3612,339
Raw,60,3614,339
Raw,70,3615,339
Raw,31,3616,339
Raw,40,3617,339
Raw,37,3619,339
Raw,21,3620,339
Raw,43,3622,339
Raw,33,3623,339
Raw,60,3624,339
Raw,17,3624,339
Raw,46,3626,339
Raw,27,3626,339
Raw,17,3627,339
Raw,21,3628,339
Raw,60,3628,339
Raw,42,3630,339
Raw,19,3631,339
Raw,30,3632,339
Raw,28,3633,339
Raw,49,3634,339
Raw,11,3634,339
Raw,38,3635,339
Raw,32,3637,339
Raw,22,3638,339
Raw,22,3640,339
Raw,54,3641,339
Raw,25,3642,339
Raw,18,3643,339
Raw,14,3643,339
Raw,25,3644,339
Raw,71,3645,339
Raw,52,3646,339
Raw,21,3647,339
Raw,50,3648,339
Raw,17,3651,339
Raw,4,3651,339
Raw,38,3652,339
Raw,26,3653,339
Raw,37,3655,339
Raw,48,3657,339
Raw,34,3657,339
Raw,11,3657,339
Raw,46,3658,339
Raw,15,3659,339
Raw,3,3659,339
Raw,13,3661,339
Raw,65,3661,339
Raw,10,3662,339
Raw,50,3662,339
Raw,27,3663,339
Raw,31,3664,339
Raw,25,3667,339
Raw,18,3668,339
Raw,17,3668,339
Raw,49,3669,339
Raw,22,3670,339
Raw,26,3670,339
Raw,55,3671,339
Raw,54,3673,339
Raw,63,3674,339
Raw,30,3675,339
Raw,56,3676,339
Raw,18,3677,339
Raw,23,3678,339
Raw,20,3679,339
Raw,25,3681,339
