Cut?,Counts,eventNumber,runNumber
Raw,1.57072387e+05,37,336
Raw,51122.473,75,336
Raw,1.50445312e+05,79,336
Raw,76689.328,79,336
Raw,1.63502479e+05,97,336
Raw,1.83351226e+05,97,336
Raw,55810.149,99,336
Raw,2.09405464e+05,100,336
Raw,1.95763309e+05,100,336
Raw,54008.35,101,336
Raw,23023.294,104,336
Raw,55783.559,105,336
Raw,53075.204,105,336
Raw,1.02346452e+05,107,336
Raw,8282.6167,107,336
Raw,1.22529072e+05,109,336
Raw,60521.2,110,336
Raw,67680.091,111,336
Raw,28878.191,111,336
Raw,1.32846244e+05,112,336
Raw,23118.365,113,336
Raw,1.39209992e+05,114,336
Raw,1.9869522e+05,116,336
Raw,59564.77,121,336
Raw,2.19042875e+05,122,336
Raw,1.48752405e+05,127,336
Raw,1.29957195e+05,128,336
Raw,58525.297,130,336
Raw,2.02001231e+05,132,336
Raw,1.34321947e+05,133,336
Raw,1.0540485e+05,133,336
Raw,1.60292268e+05,134,336
Raw,1.28289754e+05,135,336
Raw,22686.687,136,336
Raw,2.11346229e+05,138,336
Raw,74638.284,139,336
Raw,1.38695335e+05,140,336
Raw,39117.38,140,336
Raw,1.40489035e+05,141,336
Raw,37540.611,141,336
Raw,1.57412767e+05,142,336
Raw,74685.032,142,336
Raw,73629.668,145,336
Raw,55954.795,145,336
Raw,1.9186314e+05,146,336
Raw,1.00771131e+05,158,336
Raw,72229.317,161,336
Raw,68007.781,161,336
Raw,79676.701,164,336
Raw,1.26295783e+05,165,336
Raw,1.1129858e+05,166,336
Raw,39170.01,172,336
Raw,1.2718794e+05,174,336
Raw,54481.921,175,336
Raw,14893.53,176,336
Raw,1.39375258e+05,177,336
Raw,1.71962674e+05,183,336
Raw,15737.816,187,336
Raw,2.02564955e+05,188,336
Raw,1.79759885e+05,189,336
Raw,31232.199,189,336
Raw,58448.576,199,336
Raw,1.16480174e+05,202,336
Raw,1.06636563e+05,204,336
Raw,1.37502184e+05,208,336
Raw,77524.904,209,336
Raw,99678.303,209,336
Raw,2.34634473e+05,210,336
Raw,35596.074,220,336
Raw,87489.476,221,336
Raw,86745.335,223,336
Raw,60582.867,225,336
Raw,61926.361,225,336
Raw,72050.175,228,336
Raw,90921.288,232,336
Raw,98498.832,232,336
Raw,1.26285774e+05,248,336
Raw,97710.584,262,336
Raw,40864.916,272,336
Raw,1.086617e+05,275,336
Raw,98584.062,279,336
Raw,1.23823921e+05,284,336
Raw,1.60315371e+05,285,336
Raw,1.40626762e+05,289,336
Raw,1.87053093e+05,290,336
Raw,1.45721851e+05,291,336
Raw,88491.21,293,336
Raw,2.0903424e+05,295,336
Raw,91279.024,298,336
Raw,40076.379,300,336
Raw,22524.812,306,336
Raw,73899.216,308,336
Raw,62730.982,314,336
Raw,81101.632,321,336
Raw,33740.414,322,336
Raw,85492.943,325,336
Raw,54647.685,326,336
Raw,1.93016046e+05,332,336
Raw,66162.644,333,336
Raw,1.05691585e+05,337,336
Raw,42152.637,339,336
Raw,1.52257041e+05,341,336
Raw,84287.608,343,336
Raw,62529.627,344,336
Raw,36458.259,344,336
Raw,1.04289468e+05,352,336
Raw,31740.566,355,336
Raw,1.7252443e+05,356,336
Raw,69332.436,362,336
Raw,90242.895,363,336
Raw,64966.372,364,336
Raw,21449.366,364,336
Raw,34046.294,366,336
Raw,43915.891,368,336
Raw,1.53584282e+05,370,336
Raw,64989.423,377,336
Raw,2.08905501e+05,385,336
Raw,2.23260969e+05,386,336
Raw,94555.329,387,336
Raw,33134.236,389,336
Raw,18013.009,391,336
Raw,54791.572,392,336
Raw,55230.098,397,336
Raw,54989.514,398,336
Raw,37933.726,400,336
Raw,33916.852,406,336
Raw,92339.602,409,336
Raw,1.64373322e+05,413,336
Raw,1.67771131e+05,422,336
Raw,1.01875156e+05,424,336
Raw,1.19537042e+05,427,336
Raw,83433.322,434,336
Raw,1.06241374e+05,440,336
Raw,72590.705,442,336
Raw,1.14290774e+05,444,336
Raw,81801.899,445,336
Raw,33223.527,446,336
Raw,1.56356223e+05,449,336
Raw,49352.546,451,336
Raw,1.3491149e+05,451,336
Raw,48328.697,458,336
Raw,35541.049,458,336
Raw,1.42714035e+05,465,336
Raw,89878.763,467,336
Raw,1.59396054e+05,472,336
Raw,66032.999,478,336
Raw,49963.901,482,336
Raw,66687.603,484,336
Raw,90139.645,487,336
Raw,33920.709,489,336
Raw,69586.517,489,336
Raw,25052.369,490,336
Raw,1.52936976e+05,490,336
Raw,1.61062327e+05,491,336
Raw,1.24190089e+05,494,336
Raw,1.86913716e+05,494,336
Raw,1.11803947e+05,497,336
Raw,1.0741074e+05,507,336
Raw,59094.033,509,336
Raw,38118.5,509,336
Raw,62530.661,512,336
Raw,66534.891,513,336
Raw,1.32315897e+05,515,336
Raw,93451.743,521,336
Raw,1.18222724e+05,522,336
Raw,49236.067,523,336
Raw,87137.841,526,336
Raw,87235.901,529,336
Raw,1.78451361e+05,531,336
Raw,34203.649,532,336
Raw,1.00168744e+05,538,336
Raw,76578.442,539,336
Raw,54498.69,540,336
Raw,66039.418,553,336
Raw,1.05138612e+05,553,336
Raw,1.30312637e+05,554,336
Raw,1.23700876e+05,558,336
Raw,30751.631,562,336
Raw,1.79346442e+05,566,336
Raw,1.24424895e+05,569,336
Raw,64518.548,571,336
Raw,1.69103452e+05,573,336
Raw,33948.749,578,336
Raw,22010.139,579,336
Raw,48403.166,583,336
Raw,61916.167,587,336
Raw,42257.516,587,336
Raw,53247.818,588,336
Raw,1.24149169e+05,589,336
Raw,77610.525,589,336
Raw,52833.325,591,336
Raw,60227.906,593,336
Raw,1.38306993e+05,597,336
Raw,94061.469,597,336
Raw,92585.609,600,336
Raw,74684.971,601,336
Raw,86984.188,602,336
Raw,96324.953,603,336
Raw,86485.475,604,336
Raw,15572.236,605,336
Raw,36033.457,606,336
Raw,2.2961559e+05,612,336
Raw,1.51232808e+05,614,336
Raw,1.79467906e+05,618,336
Raw,61388.635,619,336
Raw,25004.6,619,336
Raw,70205.201,626,336
Raw,1.15344989e+05,627,336
Raw,1.00503952e+05,628,336
Raw,1.70711309e+05,633,336
Raw,46696.9,635,336
Raw,63030.533,635,336
Raw,41829.064,639,336
Raw,1.28464054e+05,640,336
Raw,1.98264422e+05,643,336
Raw,1.52563252e+05,647,336
Raw,18826.913,647,336
Raw,56709.035,648,336
Raw,39443.086,648,336
Raw,76366.735,650,336
Raw,43376.687,654,336
Raw,67773.072,657,336
Raw,80914.229,659,336
Raw,62733.854,662,336
Raw,1.06905876e+05,664,336
Raw,1.81450871e+05,668,336
Raw,87512.643,670,336
Raw,46705.86,671,336
Raw,80211.731,671,336
Raw,57446.765,671,336
Raw,30359.52,676,336
Raw,62507.925,676,336
Raw,17886.615,680,336
Raw,53368.913,681,336
Raw,30674.652,683,336
Raw,89424.092,685,336
Raw,1.12599121e+05,688,336
Raw,73908.937,689,336
Raw,49103.915,692,336
Raw,1.32833961e+05,694,336
Raw,28287.006,697,336
Raw,79703.485,704,336
Raw,1.72472789e+05,710,336
Raw,54501.797,711,336
Raw,1.04104683e+05,713,336
Raw,67117.869,713,336
Raw,45917.992,714,336
Raw,69673.251,715,336
Raw,1.0335755e+05,716,336
Raw,88810.053,717,336
Raw,85825.112,718,336
Raw,71455.882,719,336
Raw,73447.148,719,336
Raw,56462.785,731,336
Raw,1.56561335e+05,734,336
Raw,65009.117,734,336
Raw,2.05531809e+05,736,336
Raw,60212.861,736,336
Raw,2.17972655e+05,744,336
Raw,68513.926,751,336
Raw,43557.553,753,336
Raw,32047.029,754,336
Raw,1.36330091e+05,755,336
Raw,81726.009,755,336
Raw,1.02721353e+05,758,336
Raw,70874.674,761,336
Raw,95082.371,761,336
Raw,1.69648048e+05,763,336
Raw,75279.344,767,336
Raw,1.49087442e+05,768,336
Raw,38837.868,775,336
Raw,75733.518,776,336
Raw,61806.144,778,336
Raw,83450.642,781,336
Raw,56590.537,781,336
Raw,90064.828,784,336
Raw,55221.409,785,336
Raw,94350.945,790,336
Raw,91082.978,792,336
Raw,44635.917,793,336
Raw,27604.724,794,336
Raw,43412.839,794,336
Raw,1.08060628e+05,796,336
Raw,60415.716,796,336
Raw,28195.104,804,336
Raw,54737.525,805,336
Raw,1.23433352e+05,808,336
Raw,68465.033,812,336
Raw,1.99884048e+05,813,336
Raw,51900.689,814,336
Raw,61494.06,816,336
Raw,32226.103,818,336
Raw,48724.924,819,336
Raw,1.68335401e+05,820,336
Raw,57175.276,820,336
Raw,1.2680564e+05,822,336
Raw,1.65791976e+05,823,336
Raw,95384.503,824,336
Raw,94761.472,829,336
Raw,62659.548,829,336
Raw,72794.773,833,336
Raw,93176.463,835,336
Raw,2.26694905e+05,836,336
Raw,21171.607,839,336
Raw,1.64375977e+05,840,336
Raw,63186.712,842,336
Raw,1.07363498e+05,843,336
Raw,72023.971,846,336
Raw,28373.746,850,336
Raw,89745.254,854,336
Raw,9976.5789,861,336
Raw,1.50713338e+05,862,336
Raw,97600.373,864,336
Raw,51873.641,865,336
Raw,21195.62,865,336
Raw,41268.581,866,336
Raw,1.33715494e+05,867,336
Raw,82554.118,868,336
Raw,61161.362,869,336
Raw,90326.101,869,336
Raw,1.39599643e+05,875,336
Raw,29911.891,875,336
Raw,83369.689,877,336
Raw,1.41403652e+05,878,336
Raw,42096.348,881,336
Raw,86586.071,888,336
Raw,34349.986,889,336
Raw,71487.556,898,336
Raw,1.16457417e+05,904,336
Raw,1.7319355e+05,906,336
Raw,61019.834,907,336
Raw,65640.827,913,336
Raw,80847.365,915,336
Raw,55883.638,916,336
Raw,61192.721,918,336
Raw,37798.016,921,336
Raw,48905.683,925,336
Raw,40816.343,926,336
Raw,28095.357,930,336
Raw,82398.997,931,336
Raw,1.42163745e+05,932,336
Raw,1.18205075e+05,932,336
Raw,1.52023855e+05,933,336
Raw,94856.583,936,336
Raw,97411.618,936,336
Raw,1.69837156e+05,939,336
Raw,33436.811,942,336
Raw,1.4516295e+05,950,336
Raw,91721.835,953,336
Raw,1.19139373e+05,956,336
Raw,1.76846516e+05,962,336
Raw,67426.365,963,336
Raw,36880.621,965,336
Raw,2.13153705e+05,966,336
Raw,49570.771,972,336
Raw,73308.544,974,336
Raw,99663.975,976,336
Raw,1.77712798e+05,986,336
Raw,47054.901,987,336
Raw,1.79460488e+05,988,336
Raw,90880.95,993,336
Raw,1.06906318e+05,995,336
Raw,1.09680514e+05,998,336
Raw,45891.823,1007,336
Raw,75095.036,1008,336
Raw,1.59629151e+05,1013,336
Raw,1.45876204e+05,1017,336
Raw,34414.285,1018,336
Raw,85377.952,1018,336
Raw,1.07328218e+05,1022,336
Raw,1.21284223e+05,1025,336
Raw,71870.853,1026,336
Raw,2.24870137e+05,1029,336
Raw,75893.303,1031,336
Raw,36219.507,1032,336
Raw,74629.637,1032,336
Raw,43038.989,1041,336
Raw,21880.263,1042,336
Raw,1.41531513e+05,1047,336
Raw,46785.285,1047,336
Raw,79480.335,1049,336
Raw,64945.234,1055,336
Raw,1.67880143e+05,1061,336
Raw,43863.379,1062,336
Raw,1.29329507e+05,1063,336
Raw,66204.253,1064,336
Raw,52719.642,1070,336
Raw,92794.66,1071,336
Raw,76876.982,1073,336
Raw,32813.289,1078,336
Raw,97442.977,1078,336
Raw,1.05674702e+05,1079,336
Raw,68453.25,1080,336
Raw,31597.037,1080,336
Raw,67210.564,1081,336
Raw,63398.021,1082,336
Raw,81206.483,1083,336
Raw,73430.612,1084,336
Raw,45827.375,1084,336
Raw,89016.4,1088,336
Raw,64858.505,1090,336
Raw,2.21061116e+05,1092,336
Raw,81346.262,1097,336
Raw,99905.7,1100,336
Raw,83735.953,1105,336
Raw,74505.478,1113,336
Raw,61854.05,1115,336
Raw,61919.327,1115,336
Raw,45087.353,1121,336
Raw,70429.939,1127,336
Raw,53328.046,1127,336
Raw,2.34762994e+05,1130,336
Raw,88157.245,1131,336
Raw,1.4774362e+05,1134,336
Raw,1.13735398e+05,1135,336
Raw,1.34884015e+05,1137,336
Raw,71002.137,1139,336
Raw,95564.095,1142,336
Raw,64418.836,1142,336
Raw,38362.508,1152,336
Raw,70103.954,1153,336
Raw,1.54428894e+05,1157,336
Raw,34342.029,1163,336
Raw,46612.741,1164,336
Raw,1.34559689e+05,1165,336
Raw,1.27640969e+05,1166,336
Raw,70642.276,1168,336
Raw,47690.033,1173,336
Raw,1.78689585e+05,1176,336
Raw,22783.077,1176,336
Raw,1.37223736e+05,1177,336
Raw,42575.54,1178,336
Raw,59128.06,1180,336
Raw,61415.698,1186,336
Raw,66516.407,1187,336
Raw,2.15800381e+05,1189,336
Raw,2.08918017e+05,1193,336
Raw,66517.404,1195,336
Raw,30837.928,1196,336
Raw,34564.139,1197,336
Raw,98532.752,1197,336
Raw,39436.835,1198,336
Raw,1.94692097e+05,1200,336
Raw,2.19735722e+05,1201,336
Raw,1.14235382e+05,1202,336
Raw,60670.916,1204,336
Raw,76232.381,1205,336
Raw,1.69279034e+05,1208,336
Raw,78444.248,1208,336
Raw,1.2710076e+05,1210,336
Raw,19880.598,1214,336
Raw,93406.819,1214,336
Raw,55830.078,1216,336
Raw,1.80698296e+05,1226,336
Raw,1.505981e+05,1231,336
Raw,28134.115,1231,336
Raw,78750.791,1233,336
Raw,1.64803177e+05,1243,336
Raw,39080.479,1244,336
Raw,59613.708,1245,336
Raw,79209.199,1251,336
Raw,44911.142,1256,336
Raw,2.1335027e+05,1257,336
Raw,28080.045,1259,336
Raw,87789.573,1260,336
Raw,1.17242887e+05,1260,336
Raw,94053.167,1265,336
Raw,42579.758,1266,336
Raw,45209.977,1267,336
Raw,1.10984404e+05,1270,336
Raw,65456.891,1270,336
Raw,83371.297,1272,336
Raw,1.37012751e+05,1275,336
Raw,1.74458811e+05,1276,336
Raw,75549.724,1277,336
Raw,82613.852,1279,336
Raw,41006.996,1279,336
Raw,80721.382,1281,336
Raw,2.13470877e+05,1286,336
Raw,53017.257,1292,336
Raw,1.71356514e+05,1294,336
Raw,87374.005,1297,336
Raw,86479.703,1298,336
Raw,55028.128,1298,336
Raw,52830.256,1300,336
Raw,1.11729231e+05,1301,336
Raw,89365.776,1305,336
Raw,1.12733061e+05,1308,336
Raw,33724.731,1312,336
Raw,37163.911,1312,336
Raw,90803.473,1313,336
Raw,65205.66,1315,336
Raw,75935.464,1321,336
Raw,2.2990669e+05,1322,336
Raw,82187.275,1324,336
Raw,1.23167791e+05,1325,336
Raw,58111.257,1325,336
Raw,64075.323,1327,336
Raw,70428.133,1327,336
Raw,1.65753043e+05,1329,336
Raw,83672.087,1332,336
Raw,1.23149919e+05,1333,336
Raw,75035.89,1334,336
Raw,43872.348,1338,336
Raw,1.3313027e+05,1339,336
Raw,46569.32,1341,336
Raw,86799.467,1341,336
Raw,1.32622732e+05,1346,336
Raw,67249.847,1351,336
Raw,73905.495,1352,336
Raw,1.94753386e+05,1352,336
Raw,52809.002,1353,336
Raw,82695.429,1354,336
Raw,57418.176,1355,336
Raw,1.12887834e+05,1372,336
Raw,26089.082,1373,336
Raw,87822.018,1375,336
Raw,1.50247968e+05,1376,336
Raw,46351.828,1380,336
Raw,78459.043,1381,336
Raw,1.02210966e+05,1384,336
Raw,75515.536,1386,336
Raw,1.03131713e+05,1387,336
Raw,55712.984,1396,336
Raw,24782.758,1398,336
Raw,34348.884,1402,336
Raw,1.74544299e+05,1404,336
Raw,47346.892,1405,336
Raw,47448.395,1406,336
Raw,46598.648,1406,336
Raw,67615.944,1408,336
Raw,78368.852,1410,336
Raw,83618.466,1411,336
Raw,82726.463,1413,336
Raw,91502.001,1418,336
Raw,84423.163,1418,336
Raw,58795.395,1419,336
Raw,47725.562,1419,336
Raw,74026.162,1421,336
Raw,1.42248335e+05,1422,336
Raw,9380.5552,1423,336
Raw,84300.062,1424,336
Raw,1.04901389e+05,1426,336
Raw,1.56500868e+05,1432,336
Raw,1.34784453e+05,1434,336
Raw,1.01870552e+05,1435,336
Raw,39249.602,1438,336
Raw,44763.842,1439,336
Raw,52934.82,1442,336
Raw,1.24616004e+05,1448,336
Raw,51373.345,1454,336
Raw,1.43654149e+05,1456,336
Raw,2.05020832e+05,1457,336
Raw,45430.12,1459,336
Raw,1.22763148e+05,1461,336
Raw,1.07643566e+05,1464,336
Raw,1.09059521e+05,1465,336
Raw,96982.626,1467,336
Raw,67073.341,1470,336
Raw,91327.535,1473,336
Raw,55939.737,1476,336
Raw,82014.052,1482,336
Raw,1.17724807e+05,1482,336
Raw,73649.111,1484,336
Raw,90432.739,1485,336
Raw,1.5585679e+05,1486,336
Raw,1.38721894e+05,1486,336
Raw,67483.321,1489,336
Raw,42042.047,1489,336
Raw,1.41031174e+05,1491,336
Raw,48888.169,1492,336
Raw,41640.702,1493,336
Raw,35615.07,1493,336
Raw,77746.608,1494,336
Raw,78765.728,1496,336
Raw,57254.308,1497,336
Raw,1.88198132e+05,1501,336
Raw,1.30947202e+05,1502,336
Raw,76267.733,1502,336
Raw,1.58442602e+05,1505,336
Raw,54701.659,1516,336
Raw,68857.304,1516,336
Raw,61204.954,1518,336
Raw,86583.078,1520,336
Raw,49514.674,1521,336
Raw,1.63852406e+05,1524,336
Raw,38306.955,1530,336
Raw,13926.902,1530,336
Raw,46082.299,1531,336
Raw,1.89511039e+05,1536,336
Raw,91900.956,1544,336
Raw,9979.6977,1544,336
Raw,85416.603,1545,336
Raw,81651.281,1551,336
Raw,42703.746,1556,336
Raw,2.2123938e+05,1557,336
Raw,44465.927,1561,336
Raw,82062.554,1566,336
Raw,1.21766178e+05,1575,336
Raw,1.88984429e+05,1575,336
Raw,2.31443477e+05,1576,336
Raw,1.97605614e+05,1589,336
Raw,27570.299,1590,336
Raw,1.64039662e+05,1591,336
Raw,1.42327659e+05,1592,336
Raw,50529.828,1596,336
Raw,69043.508,1599,336
Raw,53439.675,1602,336
Raw,66067.246,1605,336
Raw,1.00259714e+05,1607,336
Raw,29386.526,1608,336
Raw,81243.334,1608,336
Raw,72779.299,1609,336
Raw,47718.789,1610,336
Raw,44203.645,1612,336
Raw,77469.327,1615,336
Raw,1.07344276e+05,1616,336
Raw,52969.009,1620,336
Raw,1.80526516e+05,1622,336
Raw,58773.221,1623,336
Raw,86739.496,1625,336
Raw,65298.027,1626,336
Raw,96898.247,1629,336
Raw,52699.5,1630,336
Raw,33826.805,1630,336
Raw,96531.694,1637,336
Raw,1.05725466e+05,1638,336
Raw,1.85472649e+05,1643,336
Raw,64526.731,1645,336
Raw,1.63837557e+05,1647,336
Raw,1.91583196e+05,1652,336
Raw,27659.366,1659,336
Raw,45848.371,1664,336
Raw,82392.154,1664,336
Raw,27359.95,1665,336
Raw,1.02485923e+05,1668,336
Raw,1.18668759e+05,1669,336
Raw,1.49407219e+05,1670,336
Raw,1.12130338e+05,1671,336
Raw,55131.086,1672,336
Raw,91539.569,1672,336
Raw,1.9653055e+05,1673,336
Raw,1.60052417e+05,1674,336
Raw,52090.17,1679,336
Raw,1.11845421e+05,1681,336
Raw,57374.914,1682,336
Raw,27342.896,1682,336
Raw,71486.019,1688,336
Raw,1.79026053e+05,1689,336
Raw,79822.321,1692,336
Raw,33571.451,1692,336
Raw,1.05488816e+05,1693,336
Raw,75108.98,1694,336
Raw,99865.267,1699,336
Raw,1.5646262e+05,1701,336
Raw,1.27368381e+05,1707,336
Raw,43164.238,1711,336
Raw,1.57748307e+05,1711,336
Raw,1.03549048e+05,1713,336
Raw,1.0950762e+05,1714,336
Raw,1.41706587e+05,1715,336
Raw,1.087455e+05,1716,336
Raw,48321.527,1716,336
Raw,64847.929,1719,336
Raw,76109.697,1720,336
Raw,29304.978,1722,336
Raw,77337.415,1722,336
Raw,71753.463,1729,336
Raw,57284.173,1733,336
Raw,29547.377,1740,336
Raw,23380.815,1742,336
Raw,39440.336,1744,336
Raw,42604.118,1745,336
Raw,11594.175,1746,336
Raw,1.78049526e+05,1748,336
Raw,67845.708,1748,336
Raw,83417.115,1749,336
Raw,1.45009032e+05,1757,336
Raw,67812.895,1758,336
Raw,89091.111,1759,336
Raw,77782.667,1760,336
Raw,95919.92,1761,336
Raw,1.17903498e+05,1761,336
Raw,88681.983,1764,336
Raw,1.80088762e+05,1764,336
Raw,1.53218395e+05,1767,336
Raw,98147.706,1768,336
Raw,56274.867,1770,336
Raw,46248.182,1771,336
Raw,2.25692393e+05,1772,336
Raw,58361.013,1772,336
Raw,45040.344,1774,336
Raw,45635.202,1776,336
Raw,61226.468,1779,336
Raw,1.74145742e+05,1780,336
Raw,68457.484,1781,336
Raw,83736.502,1783,336
Raw,1.62870658e+05,1787,336
Raw,63444.99,1790,336
Raw,1.67254378e+05,1792,336
Raw,65223.275,1797,336
Raw,38145.492,1798,336
Raw,61900.284,1800,336
Raw,27438.929,1803,336
Raw,40051.072,1810,336
Raw,1.66375437e+05,1814,336
Raw,89693.573,1814,336
Raw,49442.427,1817,336
Raw,94119.117,1818,336
Raw,87000.205,1818,336
Raw,1.43309536e+05,1821,336
Raw,1.42011968e+05,1822,336
Raw,51122.202,1822,336
Raw,25912.42,1824,336
Raw,65451.379,1826,336
Raw,95541.476,1829,336
Raw,1.10689685e+05,1832,336
Raw,59705.909,1837,336
Raw,67654.131,1840,336
Raw,65270.577,1840,336
Raw,90487.972,1844,336
Raw,46798.903,1846,336
Raw,1.7734065e+05,1855,336
Raw,2.09324806e+05,1856,336
Raw,44081.856,1858,336
Raw,68333.23,1859,336
Raw,67819.488,1860,336
Raw,98066.279,1866,336
Raw,64198.99,1867,336
Raw,1.59062886e+05,1869,336
Raw,1.06423622e+05,1871,336
Raw,29032.846,1875,336
Raw,71748.216,1875,336
Raw,24934.174,1882,336
Raw,2.00300081e+05,1884,336
Raw,1.30051479e+05,1885,336
Raw,1.98241367e+05,1888,336
Raw,61423.312,1890,336
Raw,85938.35,1898,336
Raw,1.97171071e+05,1899,336
Raw,1.14639863e+05,1900,336
Raw,63645.912,1903,336
Raw,86584.116,1904,336
Raw,1.32516977e+05,1904,336
Raw,1.6644401e+05,1908,336
Raw,7063.9499,1909,336
Raw,1.46215329e+05,1911,336
Raw,70621.89,1911,336
Raw,1.44726602e+05,1913,336
Raw,33685.124,1915,336
Raw,2.23067561e+05,1917,336
Raw,57258.916,1925,336
Raw,82712.098,1926,336
Raw,1.97972926e+05,1926,336
Raw,66218.083,1933,336
Raw,77328.676,1933,336
Raw,64728.874,1934,336
Raw,1.35132974e+05,1941,336
Raw,82743.889,1947,336
Raw,1.08212053e+05,1949,336
Raw,91571.596,1949,336
Raw,1.95907018e+05,1950,336
Raw,86288.095,1954,336
Raw,1.48418821e+05,1954,336
Raw,49802.062,1955,336
Raw,88559.776,1956,336
Raw,1.04781308e+05,1959,336
Raw,93544.469,1960,336
Raw,40716.468,1962,336
Raw,1.05340555e+05,1964,336
Raw,1.82572127e+05,1965,336
Raw,88999.559,1966,336
Raw,50338.792,1967,336
Raw,22661.874,1969,336
Raw,74623.768,1969,336
Raw,2.00165117e+05,1973,336
Raw,1.09511058e+05,1976,336
Raw,1.22689443e+05,1980,336
Raw,49062.154,1983,336
Raw,71581.346,1983,336
Raw,1.79101795e+05,1987,336
Raw,78641.035,1987,336
Raw,85555.028,1987,336
Raw,1.07873294e+05,1989,336
Raw,1.01284035e+05,1991,336
Raw,48419.341,1995,336
Raw,1.46311433e+05,1995,336
Raw,44275.062,1998,336
Raw,55697.098,1999,336
Raw,1.46011597e+05,2004,336
Raw,70532.056,2005,336
Raw,86298.178,2006,336
Raw,1.02373448e+05,2006,336
Raw,44901.179,2007,336
Raw,18890.478,2008,336
Raw,1.35129605e+05,2008,336
Raw,33338.652,2010,336
Raw,96472.364,2014,336
Raw,96900.065,2015,336
Raw,69772.241,2015,336
Raw,79659.35,2018,336
Raw,58660.942,2021,336
Raw,85462.378,2025,336
Raw,78365.944,2027,336
Raw,2.29636044e+05,2028,336
Raw,64082.376,2031,336
Raw,27543.872,2031,336
Raw,35293.686,2034,336
Raw,72802.855,2037,336
Raw,2.04066923e+05,2038,336
Raw,6654.6319,2039,336
Raw,7360.7964,2044,336
Raw,1.25989297e+05,2046,336
Raw,1.22801796e+05,2046,336
Raw,1.78544514e+05,2048,336
Raw,57052.712,2051,336
Raw,37153.429,2054,336
Raw,1.16337125e+05,2056,336
Raw,75923.568,2058,336
Raw,1.13381586e+05,2060,336
Raw,69826.336,2062,336
Raw,87460.693,2065,336
Raw,99927.71,2066,336
Raw,93568.142,2066,336
Raw,2.01782872e+05,2067,336
Raw,61138.308,2069,336
Raw,57098.958,2072,336
Raw,26701.019,2079,336
Raw,1.72950039e+05,2081,336
Raw,33365.474,2082,336
Raw,53891.51,2089,336
Raw,1.56195853e+05,2091,336
Raw,1.1848533e+05,2101,336
Raw,37160.276,2103,336
Raw,1.16710387e+05,2104,336
Raw,1.20671759e+05,2115,336
Raw,1.12881814e+05,2119,336
Raw,97846.804,2122,336
Raw,71692.753,2124,336
Raw,71506.069,2125,336
Raw,47152.634,2128,336
Raw,44905.509,2129,336
Raw,1.28936175e+05,2136,336
Raw,70963.069,2137,336
Raw,90071.578,2137,336
Raw,1.12507867e+05,2142,336
Raw,64229.92,2142,336
Raw,76657.073,2144,336
Raw,77431.002,2146,336
Raw,1.49507766e+05,2147,336
Raw,93978.894,2149,336
Raw,1.2254462e+05,2151,336
Raw,2.18889328e+05,2157,336
Raw,77181.99,2158,336
Raw,53664.408,2159,336
Raw,73108.674,2159,336
Raw,27961.119,2163,336
Raw,40877.346,2163,336
Raw,1.04884095e+05,2165,336
Raw,51373.195,2166,336
Raw,1.02689121e+05,2168,336
Raw,17994.816,2174,336
Raw,2.19832642e+05,2176,336
Raw,89798.2,2177,336
Raw,27694.702,2178,336
Raw,1.93583462e+05,2182,336
Raw,1.72122096e+05,2187,336
Raw,12226.941,2188,336
Raw,1.05711384e+05,2190,336
Raw,32758.826,2190,336
Raw,1.66636281e+05,2191,336
Raw,1.26965027e+05,2193,336
Raw,1.23717488e+05,2194,336
Raw,1.21444075e+05,2199,336
Raw,1.10427907e+05,2201,336
Raw,1.48400213e+05,2202,336
Raw,62836.22,2203,336
Raw,74451.087,2204,336
Raw,63200.848,2213,336
Raw,55387.836,2213,336
Raw,77368.977,2215,336
Raw,80814.608,2218,336
Raw,1.02899227e+05,2222,336
Raw,86514.999,2223,336
Raw,57857.465,2225,336
Raw,1.98572641e+05,2226,336
Raw,90879.268,2229,336
Raw,68362.849,2231,336
Raw,71698.176,2234,336
Raw,52543.391,2236,336
Raw,1.63662522e+05,2238,336
Raw,1.84456623e+05,2239,336
Raw,72268.055,2241,336
Raw,1.05461012e+05,2241,336
Raw,46225.305,2242,336
Raw,1.36054996e+05,2244,336
Raw,22668.418,2245,336
Raw,84736.411,2246,336
Raw,54665.984,2246,336
Raw,48419.328,2248,336
Raw,1.33837227e+05,2253,336
Raw,1.61172469e+05,2254,336
Raw,88911.881,2258,336
Raw,1.68526129e+05,2259,336
Raw,1.35259419e+05,2260,336
Raw,88434.974,2261,336
Raw,54884.135,2263,336
Raw,32194.095,2266,336
Raw,91100.727,2267,336
Raw,85178.51,2267,336
Raw,56645.216,2270,336
Raw,65746.291,2274,336
Raw,1.67442631e+05,2275,336
Raw,1.49924197e+05,2276,336
Raw,40742.455,2278,336
Raw,1.08136774e+05,2280,336
Raw,41831.087,2280,336
Raw,1.16023125e+05,2281,336
Raw,46819.167,2281,336
Raw,18791.059,2284,336
Raw,95938.473,2285,336
Raw,98454.798,2286,336
Raw,2.05086481e+05,2287,336
Raw,86603.653,2292,336
Raw,69816.54,2292,336
Raw,84717.245,2293,336
Raw,1.19692478e+05,2294,336
Raw,89172.127,2298,336
Raw,1.26777759e+05,2299,336
Raw,59076.557,2301,336
Raw,1.64260275e+05,2304,336
Raw,65386.748,2311,336
Raw,51369.762,2316,336
Raw,48216.854,2316,336
Raw,1.13404841e+05,2317,336
Raw,44614.971,2323,336
Raw,96996.509,2324,336
Raw,1.09204085e+05,2326,336
Raw,37972.97,2331,336
Raw,94133.082,2333,336
Raw,82184.021,2334,336
Raw,1.35811828e+05,2339,336
Raw,49636.337,2341,336
Raw,46477.423,2341,336
Raw,75958.178,2347,336
Raw,1.20299455e+05,2349,336
Raw,1.46358979e+05,2354,336
Raw,58835.408,2354,336
Raw,1.55678647e+05,2356,336
Raw,57914.344,2361,336
Raw,1.19045218e+05,2362,336
Raw,1.59359314e+05,2363,336
Raw,29231.101,2364,336
Raw,84997.724,2367,336
Raw,41849.228,2370,336
Raw,49054.563,2371,336
Raw,97692.888,2372,336
Raw,1.10371532e+05,2376,336
Raw,98991.179,2376,336
Raw,34657.95,2377,336
Raw,1.34445906e+05,2378,336
Raw,35054.275,2380,336
Raw,65243.542,2382,336
Raw,1.24917517e+05,2384,336
Raw,74814.945,2387,336
Raw,75395.4,2389,336
Raw,54394.968,2390,336
Raw,1.40674036e+05,2394,336
Raw,1.10726213e+05,2397,336
Raw,32517.556,2397,336
Raw,52976.493,2401,336
Raw,79898.553,2402,336
Raw,1.88221494e+05,2403,336
Raw,76480.008,2408,336
Raw,49052.504,2412,336
Raw,1.73953941e+05,2415,336
Raw,40697.343,2415,336
Raw,51881.189,2419,336
Raw,76190.903,2419,336
Raw,85989.461,2421,336
Raw,1.59902803e+05,2421,336
Raw,99615.715,2425,336
Raw,74355.896,2430,336
Raw,2.0378566e+05,2432,336
Raw,30018.432,2433,336
Raw,32038.786,2436,336
Raw,1.30251167e+05,2438,336
Raw,73926.062,2440,336
Raw,98179.307,2441,336
Raw,40423.226,2444,336
Raw,1.31139651e+05,2445,336
Raw,98128.174,2448,336
Raw,1.98505155e+05,2450,336
Raw,40667.961,2450,336
Raw,1.61520366e+05,2454,336
Raw,1.76403657e+05,2469,336
Raw,95563.969,2470,336
Raw,59369.823,2473,336
Raw,1.33253968e+05,2473,336
Raw,88294.467,2478,336
Raw,61121.29,2479,336
Raw,60907.396,2480,336
Raw,55598.384,2482,336
Raw,1.19690845e+05,2484,336
Raw,1.9262972e+05,2484,336
Raw,1.20060437e+05,2490,336
Raw,1.77405109e+05,2493,336
Raw,1.73832765e+05,2497,336
Raw,1.37444606e+05,2500,336
Raw,53831.944,2501,336
Raw,1.47629335e+05,2501,336
Raw,92550.753,2503,336
Raw,1.87537857e+05,2504,336
Raw,59329.985,2504,336
Raw,62077.76,2506,336
Raw,1.05413543e+05,2507,336
Raw,80060.287,2509,336
Raw,42229.97,2510,336
Raw,63082.474,2511,336
Raw,80193.199,2515,336
Raw,1.14591294e+05,2517,336
Raw,1.35225465e+05,2519,336
Raw,1.81145862e+05,2520,336
Raw,66859.633,2523,336
Raw,1.86265778e+05,2524,336
Raw,97111.053,2527,336
Raw,1.91579539e+05,2528,336
Raw,66318.734,2537,336
Raw,43851.545,2538,336
Raw,1.36992176e+05,2539,336
Raw,47964.167,2542,336
Raw,52429.465,2543,336
Raw,52695.933,2552,336
Raw,2.25302472e+05,2553,336
Raw,1.46580639e+05,2554,336
Raw,1.38211012e+05,2556,336
Raw,99567.6,2561,336
Raw,2.01507111e+05,2562,336
Raw,1.36505806e+05,2563,336
Raw,38731.723,2566,336
Raw,97689.524,2568,336
Raw,45667.417,2569,336
Raw,1.82071855e+05,2572,336
Raw,22520.443,2572,336
Raw,60623.406,2581,336
Raw,67634.821,2582,336
Raw,1.66296454e+05,2589,336
Raw,33670.28,2591,336
Raw,1.90943085e+05,2592,336
Raw,87107.12,2596,336
Raw,87666.955,2606,336
Raw,1.10413354e+05,2612,336
Raw,1.91473466e+05,2613,336
Raw,78584.005,2614,336
Raw,54896.953,2614,336
Raw,74357.017,2625,336
Raw,83812.542,2629,336
Raw,27829.957,2634,336
Raw,55867.91,2636,336
Raw,33459.214,2636,336
Raw,2.31497316e+05,2637,336
Raw,1.12585087e+05,2640,336
Raw,1.30382825e+05,2641,336
Raw,55659.815,2642,336
Raw,50937.04,2646,336
Raw,88633.52,2649,336
Raw,66777.579,2649,336
Raw,76504.91,2650,336
Raw,1.54726015e+05,2653,336
Raw,91887.219,2655,336
Raw,25162.684,2665,336
Raw,1.48686514e+05,2668,336
Raw,87953.756,2670,336
Raw,53185.406,2673,336
Raw,16987.481,2676,336
Raw,46732.11,2677,336
Raw,1.0562337e+05,2680,336
Raw,61408.211,2681,336
Raw,1.17467906e+05,2682,336
Raw,84945.589,2687,336
Raw,73539.764,2689,336
Raw,79841.251,2692,336
Raw,60612.558,2692,336
Raw,45944.039,2697,336
Raw,97589.717,2699,336
Raw,1.03708999e+05,2706,336
Raw,1.41850084e+05,2708,336
Raw,90756.103,2708,336
Raw,62756.266,2710,336
Raw,1.09133731e+05,2710,336
Raw,1.0787497e+05,2711,336
Raw,1.2828416e+05,2714,336
Raw,85430.972,2717,336
Raw,83292.21,2719,336
Raw,81481.817,2720,336
Raw,69542.242,2721,336
Raw,1.17813468e+05,2722,336
Raw,1.26171157e+05,2722,336
Raw,22516.839,2723,336
Raw,61737.737,2732,336
Raw,91411.904,2732,336
Raw,1.00640823e+05,2733,336
Raw,79938.846,2735,336
Raw,70088.232,2736,336
Raw,43550.495,2739,336
Raw,1.93468918e+05,2740,336
Raw,90500.256,2743,336
Raw,1.60562665e+05,2745,336
Raw,26581.934,2748,336
Raw,46040.21,2749,336
Raw,45985.379,2756,336
Raw,1.01135476e+05,2765,336
Raw,1.66389036e+05,2766,336
Raw,29157.121,2768,336
Raw,46584.141,2771,336
Raw,84565.559,2772,336
Raw,80439.406,2772,336
Raw,49226.188,2773,336
Raw,1.26743072e+05,2777,336
Raw,1.97675366e+05,2779,336
Raw,1.05930635e+05,2780,336
Raw,62658.032,2787,336
Raw,49166.857,2788,336
Raw,89452.054,2788,336
Raw,2.21941175e+05,2793,336
Raw,2.27652281e+05,2794,336
Raw,1.08065726e+05,2797,336
Raw,2.15384809e+05,2803,336
Raw,63823.319,2812,336
Raw,1.14906804e+05,2813,336
Raw,2.34873159e+05,2815,336
Raw,88094.604,2818,336
Raw,1.08731729e+05,2822,336
Raw,62760.569,2823,336
Raw,1.04243229e+05,2830,336
Raw,97094.069,2831,336
Raw,64505.345,2831,336
Raw,68596.36,2832,336
Raw,1.50406492e+05,2834,336
Raw,59202.72,2835,336
Raw,1.55196699e+05,2837,336
Raw,1.90366045e+05,2838,336
Raw,20393.271,2838,336
Raw,52762.648,2840,336
Raw,1.61882174e+05,2842,336
Raw,81738.276,2843,336
Raw,67796.179,2844,336
Raw,1.83163961e+05,2849,336
Raw,70101.249,2850,336
Raw,19831.541,2850,336
Raw,2.27330408e+05,2853,336
Raw,89109.381,2856,336
Raw,66843.464,2858,336
Raw,1.12221297e+05,2859,336
Raw,72389.703,2860,336
Raw,1.17469072e+05,2861,336
Raw,1.56714318e+05,2864,336
Raw,65137.247,2867,336
Raw,68086.755,2870,336
Raw,36677.063,2873,336
Raw,93092.473,2874,336
Raw,1.20383724e+05,2875,336
Raw,1.89247505e+05,2876,336
Raw,34365.94,2883,336
Raw,65093.432,2883,336
Raw,56568.651,2885,336
Raw,1.47810155e+05,2895,336
Raw,52966.512,2898,336
Raw,1.14160616e+05,2902,336
Raw,2.20285484e+05,2903,336
Raw,49524.498,2909,336
Raw,34297.275,2909,336
Raw,19839.726,2910,336
Raw,38378.07,2911,336
Raw,33353.979,2917,336
Raw,2.1175602e+05,2918,336
Raw,1.97143891e+05,2920,336
Raw,38471.784,2922,336
Raw,41185.799,2926,336
Raw,78502.453,2928,336
Raw,1.14260146e+05,2931,336
Raw,1.04542409e+05,2931,336
Raw,2.17592564e+05,2933,336
Raw,1.39479671e+05,2938,336
Raw,1.33544547e+05,2943,336
Raw,94615.822,2947,336
Raw,70404.02,2948,336
Raw,86807.585,2949,336
Raw,72168.145,2949,336
Raw,86156.531,2952,336
Raw,93119.555,2955,336
Raw,36089.886,2959,336
Raw,93969.408,2959,336
Raw,66405.289,2962,336
Raw,1.18519167e+05,2965,336
Raw,43886.094,2966,336
Raw,38466.807,2967,336
Raw,34824.519,2968,336
Raw,58468.329,2969,336
Raw,52771.328,2971,336
Raw,1.09284723e+05,2975,336
Raw,76529.241,2977,336
Raw,1.19844764e+05,2987,336
Raw,44332.477,2989,336
Raw,1.70749348e+05,2990,336
Raw,75102.023,2991,336
Raw,1.59401422e+05,2995,336
Raw,64475.17,2996,336
Raw,32040.16,2998,336
Raw,1.20176499e+05,2998,336
Raw,2.07172882e+05,3007,336
Raw,65862.265,3008,336
Raw,1.22177047e+05,3010,336
Raw,63174.65,3012,336
Raw,76877.28,3013,336
Raw,61211.107,3014,336
Raw,94189.152,3014,336
Raw,51067.5,3015,336
Raw,1.92491998e+05,3016,336
Raw,88081.005,3017,336
Raw,24374.723,3017,336
Raw,93006.522,3023,336
Raw,39692.994,3028,336
Raw,83791.416,3028,336
Raw,31685.928,3033,336
Raw,1.96641754e+05,3034,336
Raw,1.11535177e+05,3039,336
Raw,90575.932,3040,336
Raw,85767.422,3041,336
Raw,47610.066,3043,336
Raw,1.09043343e+05,3049,336
Raw,42965.541,3052,336
Raw,1.61472671e+05,3053,336
Raw,99922.118,3059,336
Raw,97328.827,3067,336
Raw,36945.884,3067,336
Raw,28587.068,3072,336
Raw,84488.37,3073,336
Raw,1.01008439e+05,3079,336
Raw,54018.347,3079,336
Raw,1.32376725e+05,3086,336
Raw,97632.515,3089,336
Raw,88602.222,3096,336
Raw,34638.335,3099,336
Raw,56696.526,3101,336
Raw,49148.984,3103,336
Raw,16019.514,3106,336
Raw,18452.744,3107,336
Raw,53699.77,3113,336
Raw,51644.151,3114,336
Raw,1.01754532e+05,3116,336
Raw,47324.108,3117,336
Raw,1.96008584e+05,3118,336
Raw,57101.368,3118,336
Raw,77121.13,3119,336
Raw,85905.873,3126,336
Raw,63591.314,3127,336
Raw,1.13118836e+05,3129,336
Raw,85524.631,3132,336
Raw,33518.911,3133,336
Raw,31520.331,3137,336
Raw,56605.625,3139,336
Raw,1.1754465e+05,3141,336
Raw,22482.204,3142,336
Raw,42997.751,3142,336
Raw,1.45403708e+05,3147,336
Raw,30747.363,3152,336
Raw,33130.124,3157,336
Raw,88261.475,3159,336
Raw,80449.354,3162,336
Raw,56381.551,3166,336
Raw,45148.86,3173,336
Raw,98249.528,3178,336
Raw,1.18158949e+05,3186,336
Raw,88359.535,3190,336
Raw,1.72098182e+05,3192,336
Raw,1.85130684e+05,3194,336
Raw,1.09193493e+05,3195,336
Raw,1.24274812e+05,3195,336
Raw,76729.127,3196,336
Raw,2.11890838e+05,3197,336
Raw,47345.695,3198,336
Raw,99538.979,3199,336
Raw,81306.78,3203,336
Raw,58969.2,3203,336
Raw,79210.623,3211,336
Raw,1.55819331e+05,3212,336
Raw,53864.431,3213,336
Raw,7031.0972,3214,336
Raw,1.07689196e+05,3215,336
Raw,63471.226,3219,336
Raw,1.58838524e+05,3223,336
Raw,40612.244,3229,336
Raw,1.47334481e+05,3232,336
Raw,1.19780471e+05,3234,336
Raw,56497.71,3234,336
Raw,94252.91,3235,336
Raw,63134.96,3239,336
Raw,1.68528551e+05,3240,336
Raw,31839.324,3241,336
Raw,17819.599,3242,336
Raw,1.6161058e+05,3242,336
Raw,67726.797,3246,336
Raw,89765.332,3247,336
Raw,70180.061,3248,336
Raw,87755.455,3249,336
Raw,66722.174,3250,336
Raw,52565.252,3252,336
Raw,66214.808,3252,336
Raw,96863.371,3253,336
Raw,97713.676,3254,336
Raw,90772.046,3258,336
Raw,87806.718,3260,336
Raw,1.3955935e+05,3262,336
Raw,92142.425,3266,336
Raw,79117.903,3267,336
Raw,86974.018,3267,336
Raw,1.94831727e+05,3268,336
Raw,67862.97,3270,336
Raw,1.00860253e+05,3271,336
Raw,26007.222,3273,336
Raw,1.58495323e+05,3280,336
Raw,50508.969,3286,336
Raw,40577.262,3288,336
Raw,41740.286,3291,336
Raw,82871.586,3292,336
Raw,85029.301,3294,336
Raw,76175.992,3296,336
Raw,98440.157,3296,336
Raw,95441.664,3305,336
Raw,58253.304,3305,336
Raw,78971.093,3308,336
Raw,64842.203,3311,336
Raw,26785.547,3314,336
Raw,95581.773,3314,336
Raw,69347.772,3315,336
Raw,53717.644,3317,336
Raw,1.90477086e+05,3319,336
Raw,1.63177513e+05,3319,336
Raw,16045.705,3321,336
Raw,1.05146178e+05,3322,336
Raw,87019.076,3322,336
Raw,66110.263,3322,336
Raw,21181.177,3328,336
Raw,2.13948282e+05,3331,336
Raw,1.86921747e+05,3335,336
Raw,2.06885594e+05,3339,336
Raw,81456.331,3340,336
Raw,1.17721519e+05,3342,336
Raw,1.30484376e+05,3342,336
Raw,47571.774,3343,336
Raw,36414.02,3350,336
Raw,58817.728,3351,336
Raw,1.53933956e+05,3355,336
Raw,70051.321,3356,336
Raw,1.52525083e+05,3358,336
Raw,67666.727,3364,336
Raw,20390.32,3366,336
Raw,1.2489853e+05,3369,336
Raw,1.654212e+05,3370,336
Raw,53798.18,3370,336
Raw,1.14067945e+05,3371,336
Raw,35310.449,3373,336
Raw,63161.09,3374,336
Raw,1.11604571e+05,3379,336
Raw,48733.221,3390,336
Raw,1.78590376e+05,3394,336
Raw,71841.88,3396,336
Raw,12541.884,3396,336
Raw,1.05652715e+05,3398,336
Raw,95220.2,3399,336
Raw,84773.254,3404,336
Raw,1.77651176e+05,3407,336
Raw,80733.391,3408,336
Raw,1.4650458e+05,3411,336
Raw,1.12716051e+05,3412,336
Raw,2.16203028e+05,3414,336
Raw,81222.638,3414,336
Raw,1.83320793e+05,3415,336
Raw,1.73307442e+05,3418,336
Raw,35796.24,3422,336
Raw,1.00654737e+05,3424,336
Raw,69962.763,3430,336
Raw,23071.199,3434,336
Raw,1.06608221e+05,3436,336
Raw,58670.961,3438,336
Raw,2.30484063e+05,3439,336
Raw,1.63504249e+05,3440,336
Raw,41915.384,3440,336
Raw,1.05707565e+05,3442,336
Raw,60182.809,3444,336
Raw,1.33895704e+05,3446,336
Raw,1.17473049e+05,3450,336
Raw,1.37697791e+05,3452,336
Raw,1.16864651e+05,3453,336
Raw,2.15953616e+05,3458,336
Raw,91843.856,3459,336
Raw,68681.867,3460,336
Raw,1.2121218e+05,3462,336
Raw,1.06132015e+05,3462,336
Raw,52285.713,3463,336
Raw,36647.9,3465,336
Raw,1.03073936e+05,3466,336
Raw,75881.937,3467,336
Raw,73203.468,3467,336
Raw,1.42309622e+05,3469,336
Raw,24984.95,3471,336
Raw,1.09987001e+05,3474,336
Raw,2.0178064e+05,3477,336
Raw,44777.967,3478,336
Raw,1.0489262e+05,3479,336
Raw,97303.655,3479,336
Raw,63244.191,3481,336
Raw,1.42548364e+05,3483,336
Raw,1.02163585e+05,3486,336
Raw,76503.287,3495,336
Raw,62635.226,3499,336
Raw,89910.738,3500,336
Raw,15203.177,3502,336
Raw,53141.457,3507,336
Raw,1.98974612e+05,3508,336
Raw,71878.718,3509,336
Raw,1.74944856e+05,3511,336
Raw,1.60571978e+05,3512,336
Raw,1.11226837e+05,3519,336
Raw,1.16406514e+05,3522,336
Raw,58882.324,3523,336
Raw,47766.201,3525,336
Raw,1.03083935e+05,3529,336
Raw,37900.409,3529,336
Raw,1.21791229e+05,3530,336
Raw,83178.49,3531,336
Raw,1.62018715e+05,3533,336
Raw,87922.489,3537,336
Raw,61906.663,3539,336
Raw,1.35193172e+05,3541,336
Raw,90380.955,3541,336
Raw,1.02023059e+05,3547,336
Raw,71160.515,3556,336
Raw,1.60063822e+05,3556,336
Raw,1.94380927e+05,3557,336
Raw,1.60339458e+05,3558,336
Raw,68056.183,3562,336
Raw,53071.404,3564,336
Raw,91406.053,3564,336
Raw,74526.256,3569,336
Raw,1.06206168e+05,3577,336
Raw,1.00238974e+05,3579,336
Raw,1.4565257e+05,3582,336
Raw,1.59528647e+05,3585,336
Raw,30403.361,3587,336
Raw,6555.1727,3589,336
Raw,1.53280811e+05,3592,336
Raw,1.84310368e+05,3595,336
Raw,64724.771,3600,336
Raw,80890.546,3601,336
Raw,62764.981,3602,336
Raw,1.19895829e+05,3602,336
Raw,23832.67,3605,336
Raw,1.01091828e+05,3608,336
Raw,88056.466,3608,336
Raw,91009.862,3609,336
Raw,57139.32,3616,336
Raw,64938.298,3617,336
Raw,82484.801,3623,336
Raw,1.51415781e+05,3624,336
Raw,1.15805879e+05,3624,336
Raw,39226.235,3626,336
Raw,1.23212748e+05,3631,336
Raw,1.77834924e+05,3636,336
Raw,90136.754,3638,336
Raw,87550.443,3641,336
Raw,61619.076,3641,336
Raw,56862.655,3647,336
Raw,40252.334,3651,336
Raw,29857.657,3656,336
Raw,53890.799,3658,336
Raw,37381.729,3659,336
Raw,90809.805,3661,336
Raw,2.06727473e+05,3664,336
Raw,2.05930796e+05,3672,336
Raw,52811.598,3676,336
Raw,53814.028,3677,336
Raw,1.39646229e+05,3682,336
Raw,1.00120523e+05,3684,336
Raw,1.03760441e+05,3685,336
Raw,89332.531,3689,336
Raw,96658.759,3695,336
Raw,1.12178364e+05,3697,336
Raw,94984.338,3704,336
Raw,1.10687791e+05,3704,336
Raw,1.0602736e+05,3705,336
Raw,62994.608,3707,336
Raw,1.00109055e+05,3708,336
Raw,83702.792,3711,336
Raw,1.04444787e+05,3711,336
Raw,2.10774083e+05,3714,336
Raw,41959.08,3715,336
Raw,50294.178,3719,336
Raw,98722.977,3722,336
Raw,88061.763,3722,336
Raw,85612.709,3725,336
Raw,1.32719497e+05,3726,336
Raw,79851.775,3728,336
Raw,73092.083,3732,336
Raw,49497.576,3737,336
Raw,96298.234,3737,336
Raw,1.21323291e+05,3740,336
Raw,1.12831521e+05,3742,336
Raw,16842.572,3743,336
Raw,1.29547689e+05,3744,336
Raw,25127.962,3745,336
Raw,81299.612,3746,336
Raw,71074.766,3746,336
Raw,1.41371679e+05,3748,336
Raw,1.16319219e+05,3749,336
Raw,89945.316,3750,336
Raw,1.13755941e+05,3750,336
Raw,52927.085,3750,336
Raw,72202.843,3752,336
Raw,44742.332,3755,336
Raw,1.52404499e+05,3756,336
Raw,48920.681,3756,336
Raw,1.70895565e+05,3758,336
Raw,83546.098,3759,336
Raw,1.56857019e+05,3763,336
Raw,83088.639,3765,336
Raw,1.0517855e+05,3766,336
Raw,1.63556497e+05,3769,336
Raw,75484.972,3774,336
Raw,78424.803,3776,336
Raw,56918.46,3777,336
Raw,45578.114,3783,336
Raw,88852.453,3783,336
Raw,1.0101158e+05,3784,336
Raw,1.63578782e+05,3788,336
Raw,1.50636179e+05,3792,336
Raw,98716.462,3794,336
Raw,43230.692,3795,336
Raw,1.11057738e+05,3796,336
Raw,36596.868,3798,336
Raw,1.22160103e+05,3803,336
Raw,87212.367,3806,336
Raw,32191.982,3807,336
Raw,28801.662,3807,336
Raw,96327.523,3812,336
Raw,1.52284414e+05,3815,336
Raw,59793.266,3816,336
Raw,65071.83,3819,336
Raw,27906.33,3820,336
Raw,58657.182,3821,336
Raw,59221.161,3824,336
Raw,83058.898,3826,336
Raw,1.13916523e+05,3829,336
Raw,99256.45,3832,336
Raw,34067.637,3834,336
Raw,1.43380029e+05,3836,336
Raw,87188.31,3838,336
Raw,64662.852,3840,336
Raw,53389.775,3842,336
Raw,52023.721,3842,336
Raw,90499.082,3845,336
Raw,34095.143,3850,336
Raw,73361.376,3852,336
Raw,47734.955,3859,336
Raw,73840.933,3862,336
Raw,28887.057,3864,336
Raw,81778.013,3867,336
Raw,47384.984,3869,336
Raw,62337.538,3875,336
Raw,92956.043,3875,336
Raw,68200.278,3877,336
Raw,71559.083,3879,336
Raw,20914.484,3883,336
Raw,75246.269,3884,336
Raw,2.0344271e+05,3889,336
Raw,89369.187,3891,336
Raw,53841.416,3897,336
Raw,1.20940962e+05,3901,336
Raw,62718.073,3902,336
Raw,1.61601845e+05,3903,336
Raw,68843.448,3905,336
Raw,85442.545,3913,336
Raw,65498.663,3913,336
Raw,32470.195,3915,336
Raw,30650.788,3916,336
Raw,1.38798864e+05,3916,336
Raw,69028.585,3917,336
Raw,87405.038,3917,336
Raw,1.08197023e+05,3920,336
Raw,67891.663,3921,336
Raw,1.11361557e+05,3925,336
Raw,99704.224,3927,336
Raw,49820.311,3929,336
Raw,1.06259501e+05,3931,336
Raw,1.33334893e+05,3931,336
Raw,1.1908862e+05,3932,336
Raw,45627.815,3934,336
Raw,1.18341726e+05,3934,336
Raw,32696.446,3934,336
Raw,55798.688,3935,336
Raw,28006.979,3935,336
Raw,15766.009,3937,336
Raw,94068.165,3941,336
Raw,75927.488,3942,336
Raw,79438.094,3944,336
Raw,74393.063,3945,336
Raw,50603.385,3950,336
Raw,61290.162,3951,336
Raw,28688.891,3954,336
Raw,1.95413532e+05,3955,336
Raw,97742.358,3959,336
Raw,1.18043552e+05,3961,336
Raw,70861.795,3961,336
Raw,74284.307,3964,336
Raw,30418.303,3966,336
Raw,75461.839,3967,336
Raw,87523.197,3970,336
Raw,1.27870944e+05,3973,336
Raw,87700.549,3973,336
Raw,38241.715,3974,336
Raw,95665.542,3977,336
Raw,1.57705939e+05,3981,336
Raw,51711.845,3982,336
Raw,36413.578,3983,336
Raw,1.10941953e+05,3986,336
Raw,46301.178,3986,336
Raw,2.23982876e+05,3987,336
Raw,89323.951,3988,336
Raw,1.08880692e+05,3988,336
Raw,1.89309897e+05,3990,336
Raw,12821.685,3992,336
Raw,74138.649,3993,336
Raw,1.16202752e+05,3994,336
Raw,41027.27,3995,336
Raw,31172.293,3996,336
Raw,42925.46,3996,336
Raw,1.14731478e+05,3999,336
Raw,18787.435,4000,336
Raw,63019.602,4001,336
Raw,71662.873,4002,336
Raw,2.23910594e+05,4004,336
Raw,32262.079,4004,336
Raw,1.76785554e+05,4009,336
Raw,60094.315,4012,336
Raw,1.14322135e+05,4013,336
Raw,75304.849,4016,336
Raw,1.67069067e+05,4019,336
Raw,1.09910879e+05,4021,336
Raw,1.28080704e+05,4026,336
Raw,67636.037,4027,336
Raw,23247.013,4027,336
Raw,75361.878,4037,336
Raw,2.32456522e+05,4043,336
Raw,97244.497,4043,336
Raw,95159.911,4048,336
Raw,91368.716,4048,336
Raw,41140.354,4052,336
Raw,1.08632676e+05,4052,336
Raw,93939.816,4053,336
Raw,79006.883,4053,336
Raw,85986.696,4054,336
Raw,81962.172,4054,336
Raw,1.08877282e+05,4055,336
Raw,84944.224,4057,336
Raw,71152.061,4061,336
Raw,47260.984,4067,336
Raw,1.54319455e+05,4078,336
Raw,62641.805,4082,336
Raw,31947.815,4087,336
Raw,62238.953,4088,336
Raw,45832.327,4089,336
Raw,59462.478,4090,336
Raw,1.24711151e+05,4094,336
Raw,88468.442,4094,336
Raw,1.48269183e+05,4099,336
Raw,1.71602052e+05,4103,336
Raw,34626.143,4105,336
Raw,62018.938,4106,336
Raw,97056.559,4107,336
Raw,1.40803216e+05,4108,336
Raw,87370.365,4110,336
Raw,48662.473,4116,336
Raw,57245.801,4119,336
Raw,1.14752836e+05,4122,336
Raw,74600.405,4126,336
Raw,1.26107373e+05,4126,336
Raw,1.87221109e+05,4127,336
Raw,77415.126,4127,336
Raw,36952.761,4131,336
Raw,1.85128345e+05,4134,336
Raw,86840.589,4135,336
Raw,55811.046,4135,336
Raw,1.23722941e+05,4142,336
Raw,2.32601209e+05,4143,336
Raw,93391.248,4144,336
Raw,70127.047,4146,336
Raw,1.6023843e+05,4148,336
Raw,47028.278,4148,336
Raw,1.38134368e+05,4149,336
Raw,67326.739,4149,336
Raw,89677.253,4153,336
Raw,86478.4,4159,336
Raw,1.02882037e+05,4162,336
Raw,2.32937112e+05,4163,336
Raw,1.71635909e+05,4165,336
Raw,1.24042746e+05,4167,336
Raw,85665.673,4170,336
Raw,55705.932,4175,336
Raw,81160.208,4181,336
Raw,78625.136,4182,336
Raw,1.63503443e+05,4185,336
Raw,65483.289,4186,336
Raw,94150.11,4187,336
Raw,62810.93,4187,336
Raw,73751.815,4188,336
Raw,1.64510477e+05,4188,336
Raw,44354.374,4188,336
Raw,89289.53,4193,336
Raw,43881.208,4195,336
Raw,52582.746,4196,336
Raw,1.09202341e+05,4204,336
Raw,84442.693,4207,336
Raw,1.63027022e+05,4207,336
Raw,2.29136319e+05,4211,336
Raw,37415.441,4211,336
Raw,31161.932,4214,336
Raw,23071.897,4215,336
Raw,29922.458,4216,336
Raw,1.4455139e+05,4218,336
Raw,64086.218,4219,336
Raw,58469.375,4225,336
Raw,1.32259325e+05,4226,336
Raw,1.91513837e+05,4229,336
Raw,65801.21,4230,336
Raw,29846.823,4231,336
Raw,61064.448,4237,336
Raw,32705.03,4242,336
Raw,92116.852,4248,336
Raw,1.07339781e+05,4248,336
Raw,45371.195,4251,336
Raw,53443.625,4255,336
Raw,67748.308,4258,336
Raw,1.32137933e+05,4260,336
Raw,1.31907428e+05,4263,336
Raw,48241.046,4271,336
Raw,1.32195331e+05,4272,336
Raw,1.54303987e+05,4274,336
Raw,51404.589,4279,336
Raw,1.08097657e+05,4284,336
Raw,86187.909,4286,336
Raw,1.60424936e+05,4288,336
Raw,76337.732,4289,336
Raw,27470.393,4290,336
Raw,49219.408,4292,336
Raw,1.70756157e+05,4293,336
Raw,1.52867286e+05,4294,336
Raw,82797.118,4302,336
Raw,1.31032746e+05,4306,336
Raw,70141.904,4306,336
Raw,1.43103705e+05,4307,336
Raw,57202.443,4308,336
Raw,1.49575606e+05,4313,336
Raw,2.23855452e+05,4316,336
Raw,43619.504,4319,336
Raw,1.45792494e+05,4324,336
Raw,49401.728,4325,336
Raw,38834.514,4329,336
Raw,1.42395623e+05,4330,336
Raw,48005.372,4330,336
Raw,1.08821586e+05,4332,336
Raw,41292.641,4334,336
Raw,1.38522939e+05,4342,336
Raw,92772.226,4343,336
Raw,76854.026,4344,336
Raw,1.23792104e+05,4344,336
Raw,48265.423,4351,336
Raw,33305.022,4352,336
Raw,66121.101,4353,336
Raw,30262.15,4355,336
Raw,1.78560897e+05,4356,336
Raw,85454.56,4357,336
Raw,64533.426,4357,336
Raw,54295.414,4361,336
Raw,12153.021,4369,336
Raw,1.10867972e+05,4369,336
Raw,1.13805353e+05,4379,336
Raw,1.4989422e+05,4379,336
Raw,59238.118,4384,336
Raw,70789.204,4388,336
Raw,47194.009,4394,336
Raw,1.12361246e+05,4397,336
Raw,1.03218144e+05,4398,336
Raw,40741.529,4402,336
Raw,1.33764983e+05,4402,336
Raw,97121.5,4409,336
Raw,88374.072,4416,336
Raw,67194.656,4417,336
Raw,1.02117936e+05,4423,336
Raw,18571.743,4424,336
Raw,68254.945,4425,336
Raw,53786.181,4426,336
Raw,91271.496,4429,336
Raw,51523.912,4436,336
Raw,2.03781288e+05,4438,336
Raw,99513.241,4442,336
Raw,1.69899145e+05,4443,336
Raw,2.08977688e+05,4444,336
Raw,57891.003,4446,336
Raw,98031.123,4447,336
Raw,65747.061,4449,336
Raw,81121.663,4449,336
Raw,87327.828,4451,336
Raw,60007.26,4451,336
Raw,66288.257,4455,336
Raw,54401.528,4455,336
Raw,1.01146402e+05,4456,336
Raw,96487.729,4458,336
Raw,1.65246683e+05,4460,336
Raw,1.80385757e+05,4461,336
Raw,67022.909,4464,336
Raw,56627.316,4465,336
Raw,1.54866268e+05,4467,336
Raw,46795.226,4468,336
Raw,82133.434,4474,336
Raw,1.33251593e+05,4476,336
Raw,59499.209,4477,336
Raw,96226.765,4479,336
Raw,82218.055,4484,336
Raw,71117.656,4485,336
Raw,79585.808,4485,336
Raw,87581.276,4490,336
Raw,68282.454,4491,336
Raw,15637.677,4498,336
Raw,1.8707045e+05,4500,336
Raw,30378.855,4502,336
Raw,70977.158,4502,336
Raw,99022.872,4507,336
Raw,70325.568,4507,336
Raw,49334,4512,336
Raw,1.39007562e+05,4512,336
Raw,76761.6,4515,336
Raw,1.39219137e+05,4516,336
Raw,2.00168427e+05,4523,336
Raw,1.65739997e+05,4525,336
Raw,87007.991,4528,336
Raw,57807.639,4530,336
Raw,41423.398,4530,336
Raw,80755.79,4535,336
Raw,46180.156,4538,336
Raw,73900.48,4547,336
Raw,1.01577008e+05,4547,336
Raw,78367.146,4548,336
Raw,38014.351,4550,336
Raw,99502.175,4553,336
Raw,56602.849,4554,336
Raw,59629.014,4560,336
Raw,84334.672,4562,336
Raw,50386.269,4569,336
Raw,1.92055068e+05,4570,336
Raw,1.50002153e+05,4574,336
Raw,1.51908182e+05,4583,336
Raw,76574.401,4584,336
Raw,97948.419,4584,336
Raw,1.45338434e+05,4586,336
Raw,52937.499,4588,336
Raw,56201.254,4590,336
Raw,1.01799548e+05,4590,336
Raw,47446.241,4593,336
Raw,98657.209,4595,336
Raw,92859.504,4596,336
Raw,34407.691,4598,336
Raw,2.15472095e+05,4599,336
Raw,1.75954775e+05,4602,336
Raw,1.52273196e+05,4605,336
Raw,71882.717,4605,336
Raw,87373.064,4606,336
Raw,1.00036669e+05,4608,336
Raw,54132.503,4608,336
Raw,96515.721,4610,336
Raw,1.21144847e+05,4611,336
Raw,20947.87,4613,336
Raw,54015.205,4615,336
Raw,12460.378,4616,336
Raw,1.15972306e+05,4617,336
Raw,93550.789,4619,336
Raw,1.65272047e+05,4629,336
Raw,1.69982725e+05,4631,336
Raw,48809.089,4640,336
Raw,84609.422,4640,336
Raw,1.24621094e+05,4643,336
Raw,39218.123,4646,336
Raw,1.33289437e+05,4647,336
Raw,49349.957,4648,336
Raw,1.37925689e+05,4653,336
Raw,40756.97,4656,336
Raw,55369.002,4656,336
Raw,1.88695703e+05,4658,336
Raw,28293.853,4659,336
Raw,89582.784,4660,336
Raw,94171.093,4665,336
Raw,67024.031,4673,336
Raw,1.22170465e+05,4675,336
Raw,50654.96,4675,336
Raw,1.69589226e+05,4679,336
Raw,82353.889,4681,336
Raw,48410.359,4682,336
Raw,96421.784,4685,336
Raw,22106.503,4687,336
Raw,86728.016,4693,336
Raw,1.36000296e+05,4696,336
Raw,67902.604,4702,336
Raw,46162.283,4703,336
Raw,93031.646,4704,336
Raw,99607.928,4707,336
Raw,1.22140015e+05,4709,336
Raw,1.40374233e+05,4711,336
Raw,62299.611,4714,336
Raw,1.31170562e+05,4718,336
Raw,81965.329,4723,336
Raw,2.02146724e+05,4726,336
Raw,89262.189,4727,336
Raw,78826.346,4732,336
Raw,1.66372359e+05,4733,336
Raw,58756.812,4735,336
Raw,78878.808,4738,336
Raw,1.02234831e+05,4741,336
Raw,1.26718407e+05,4745,336
Raw,58158.925,4746,336
Raw,87218.267,4748,336
Raw,1.01934377e+05,4748,336
Raw,70160.165,4750,336
Raw,12438.428,4751,336
Raw,1.21952809e+05,4752,336
Raw,58739.316,4753,336
Raw,26427.718,4754,336
Raw,48607.259,4760,336
Raw,1.06393148e+05,4761,336
Raw,29847.941,4768,336
Raw,64843.561,4775,336
Raw,79921.419,4775,336
Raw,18955.287,4777,336
Raw,44118.159,4778,336
Raw,88781.206,4784,336
Raw,30811.126,4788,336
Raw,87378.068,4788,336
Raw,76443.266,4790,336
Raw,1.0965158e+05,4791,336
Raw,44035.211,4793,336
Raw,83313.494,4794,336
Raw,60959.664,4797,336
Raw,1.73701474e+05,4798,336
Raw,49088.8,4802,336
Raw,2.34037722e+05,4803,336
Raw,24711.894,4803,336
Raw,31824.217,4808,336
Raw,79860.684,4808,336
Raw,1.24060817e+05,4813,336
Raw,1.33758934e+05,4814,336
Raw,7960.4614,4814,336
Raw,1.93018433e+05,4816,336
Raw,32274.915,4816,336
Raw,81021.215,4820,336
Raw,48336.875,4822,336
Raw,1.06280443e+05,4822,336
Raw,1.15273823e+05,4823,336
Raw,1.83127612e+05,4824,336
Raw,17424.495,4825,336
Raw,37793.982,4826,336
Raw,2.14470072e+05,4830,336
Raw,1.68175702e+05,4831,336
Raw,1.40035121e+05,4832,336
Raw,59281.308,4833,336
Raw,1.01120944e+05,4833,336
Raw,47491.245,4835,336
Raw,40799.003,4842,336
Raw,1.03472241e+05,4842,336
Raw,89699.98,4843,336
Raw,1.14781823e+05,4846,336
Raw,75459.54,4848,336
Raw,67940.371,4852,336
Raw,1.42720933e+05,4853,336
Raw,79658.581,4858,336
Raw,57166.068,4867,336
Raw,84298.413,4867,336
Raw,52145.689,4868,336
Raw,89519.129,4869,336
Raw,40379.913,4872,336
Raw,1.0633232e+05,4875,336
Raw,1.16324862e+05,4875,336
Raw,48307.493,4875,336
Raw,66905.541,4876,336
Raw,1.08773311e+05,4883,336
Raw,53662.02,4884,336
Raw,1.39288897e+05,4885,336
Raw,41426.778,4886,336
Raw,2.11083323e+05,4891,336
Raw,31442.17,4896,336
Raw,1.77167604e+05,4899,336
Raw,40899.484,4902,336
Raw,1.33841909e+05,4902,336
Raw,1.2132122e+05,4904,336
Raw,16552.811,4906,336
Raw,36641.383,4913,336
Raw,45309.901,4913,336
Raw,60123.37,4920,336
Raw,2.24947125e+05,4922,336
Raw,75829.471,4925,336
Raw,84891.976,4926,336
Raw,87765.195,4937,336
Raw,56046.965,4938,336
Raw,39361.72,4938,336
Raw,93842.179,4941,336
Raw,33881.435,4945,336
Raw,30573.256,4948,336
Raw,1.41080064e+05,4948,336
Raw,94243.808,4949,336
Raw,43398.354,4952,336
Raw,38784.827,4952,336
Raw,1.03302374e+05,4955,336
Raw,60910.363,4957,336
Raw,51186.77,4957,336
Raw,48836.994,4960,336
Raw,1.35827213e+05,4961,336
Raw,1.18657837e+05,4962,336
Raw,54348.621,4965,336
Raw,1.27128196e+05,4972,336
Raw,26247.634,4975,336
Raw,33004.933,4975,336
Raw,24265.421,4982,336
Raw,94151.685,4982,336
Raw,1.56438893e+05,4985,336
Raw,2.09671303e+05,4985,336
Raw,1.6420402e+05,4986,336
Raw,98757.453,4987,336
Raw,81790.756,4989,336
Raw,73360.018,4990,336
Raw,80909.566,4991,336
Raw,63317.937,4992,336
Raw,61031.315,4993,336
Raw,86811.595,4994,336
Raw,1.00836566e+05,4994,336
Raw,1.30549686e+05,4997,336
Raw,68475.352,4999,336
Raw,48083.567,4999,336
Raw,1.13606939e+05,5000,336
Raw,1.45159532e+05,5008,336
Raw,55954.522,5012,336
Raw,69389.652,5015,336
Raw,1.06181847e+05,5018,336
Raw,1.69301557e+05,5018,336
Raw,51335.061,5019,336
Raw,1.02483168e+05,5020,336
Raw,1.38158508e+05,5022,336
Raw,93872.59,5029,336
Raw,78761.02,5033,336
Raw,47856.277,5036,336
Raw,79194.477,5038,336
Raw,57339.386,5039,336
Raw,47793.845,5043,336
Raw,1.01580748e+05,5044,336
Raw,92394.913,5048,336
Raw,56772.885,5050,336
Raw,1.06221874e+05,5054,336
Raw,18424.671,5055,336
Raw,80323.164,5057,336
Raw,1.07912697e+05,5058,336
Raw,1.96110837e+05,5060,336
Raw,1.90867658e+05,5061,336
Raw,41453.06,5061,336
Raw,66673.316,5063,336
Raw,76706.139,5068,336
Raw,84765.152,5070,336
Raw,85855.053,5073,336
Raw,53284.357,5077,336
Raw,1.14473937e+05,5078,336
Raw,23927.247,5080,336
Raw,62408.22,5085,336
Raw,80876.413,5088,336
Raw,29418.817,5092,336
Raw,41163.529,5092,336
Raw,1.1756289e+05,5093,336
Raw,1.03436919e+05,5095,336
Raw,75871.131,5097,336
Raw,95269.445,5098,336
Raw,2.21096145e+05,5103,336
Raw,74445.704,5109,336
Raw,59626.133,5123,336
Raw,1.68518147e+05,5124,336
Raw,1.35891707e+05,5124,336
Raw,58404.723,5125,336
Raw,1.37630719e+05,5127,336
Raw,95038.911,5131,336
Raw,72173.531,5137,336
Raw,61670.961,5137,336
Raw,2.07089418e+05,5138,336
Raw,72785.422,5139,336
Raw,1.06920446e+05,5139,336
Raw,2.09815103e+05,5140,336
Raw,1.4295511e+05,5143,336
Raw,1.90043397e+05,5144,336
Raw,78864.111,5145,336
Raw,59125.456,5146,336
Raw,1.8654253e+05,5148,336
Raw,90148.153,5156,336
Raw,1.19308335e+05,5158,336
Raw,1.04962024e+05,5159,336
Raw,25459.223,5160,336
Raw,2.24553695e+05,5161,336
Raw,1.19602567e+05,5162,336
Raw,84621.967,5165,336
Raw,18530.444,5170,336
Raw,1.04226751e+05,5175,336
Raw,1.35416579e+05,5175,336
Raw,69183.088,5177,336
Raw,52616.812,5178,336
Raw,85140.986,5178,336
Raw,1.71529028e+05,5179,336
Raw,25187.598,5179,336
Raw,1.32861064e+05,5182,336
Raw,82144.082,5183,336
Raw,1.15104257e+05,5186,336
Raw,65035.945,5186,336
Raw,1.18857445e+05,5191,336
Raw,1.37536779e+05,5192,336
Raw,1.04707238e+05,5195,336
Raw,84700.607,5196,336
Raw,92160.773,5197,336
Raw,67495.191,5198,336
Raw,89168.028,5198,336
Raw,1.34706425e+05,5199,336
Raw,67933.839,5200,336
Raw,95090.666,5203,336
Raw,86029.936,5204,336
Raw,62185.001,5204,336
Raw,42966.192,5205,336
Raw,2.06377696e+05,5206,336
Raw,1.00862935e+05,5206,336
Raw,30759.568,5206,336
Raw,1.06351397e+05,5209,336
Raw,1.10154441e+05,5214,336
Raw,57185.604,5225,336
Raw,62937.483,5232,336
Raw,1.37752943e+05,5233,336
Raw,1.48104014e+05,5239,336
Raw,92579.28,5245,336
Raw,1.4364475e+05,5245,336
Raw,75423.742,5248,336
Raw,1.31419699e+05,5248,336
Raw,27275.382,5249,336
Raw,97636.185,5251,336
Raw,2.1691118e+05,5252,336
Raw,1.52742618e+05,5254,336
Raw,1.1413535e+05,5258,336
Raw,40253.902,5261,336
Raw,72955.753,5262,336
Raw,47805.884,5264,336
Raw,46588.961,5267,336
Raw,1.29268768e+05,5269,336
Raw,49595.571,5274,336
Raw,67385.201,5278,336
Raw,1.1411296e+05,5280,336
Raw,67781.144,5282,336
Raw,1.08436729e+05,5283,336
Raw,38586.645,5285,336
Raw,90068.471,5288,336
Raw,44495.178,5289,336
Raw,50509.752,5290,336
Raw,25346.517,5290,336
Raw,53058.374,5292,336
Raw,24760.365,5300,336
Raw,1.25967001e+05,5300,336
Raw,66026.156,5300,336
Raw,64090.661,5301,336
Raw,61432.629,5302,336
Raw,38489.448,5302,336
Raw,81221.729,5307,336
Raw,89115.988,5309,336
Raw,1.07505361e+05,5310,336
Raw,1.93165778e+05,5313,336
Raw,85514.634,5317,336
Raw,29665.993,5319,336
Raw,64118.163,5319,336
Raw,72150.479,5324,336
Raw,1.3048187e+05,5329,336
Raw,28421.546,5329,336
Raw,79230.126,5334,336
Raw,62061.41,5334,336
Raw,49822.13,5334,336
Raw,1.22049179e+05,5337,336
Raw,17252.543,5344,336
Raw,1.03083474e+05,5352,336
Raw,1.13466694e+05,5359,336
Raw,1.0347834e+05,5362,336
Raw,52466.081,5363,336
Raw,69360.195,5363,336
Raw,70455.678,5372,336
Raw,79913.674,5373,336
Raw,1.11634596e+05,5377,336
Raw,50444.278,5382,336
Raw,25859.913,5382,336
Raw,86728.727,5383,336
Raw,10102.782,5383,336
Raw,95864.37,5389,336
Raw,1.08386523e+05,5390,336
Raw,82304.32,5393,336
Raw,87710.952,5394,336
Raw,86531.956,5396,336
Raw,80788.269,5396,336
Raw,1.47531666e+05,5397,336
Raw,81020.693,5400,336
Raw,1.13173733e+05,5400,336
Raw,40861.475,5403,336
Raw,61690.312,5404,336
Raw,1.44466167e+05,5406,336
Raw,43504.756,5407,336
Raw,85924.484,5407,336
Raw,44371.655,5409,336
Raw,80079.383,5410,336
Raw,1.22402793e+05,5411,336
Raw,1.16501849e+05,5415,336
Raw,1.32831417e+05,5418,336
Raw,18160.868,5423,336
Raw,1.23716005e+05,5427,336
Raw,82967.45,5434,336
Raw,66274.204,5435,336
Raw,67797.46,5438,336
Raw,1.5666386e+05,5441,336
Raw,9098.5537,5441,336
Raw,50251.432,5443,336
Raw,70678.195,5444,336
Raw,1.7093199e+05,5445,336
Raw,92378.402,5448,336
Raw,1.57855854e+05,5453,336
Raw,62928.33,5453,336
Raw,1.06909964e+05,5454,336
Raw,56104.012,5454,336
Raw,82114.237,5456,336
Raw,69008.643,5461,336
Raw,98850.565,5464,336
Raw,36591.035,5465,336
Raw,38877.742,5469,336
Raw,84838.557,5472,336
Raw,1.10577266e+05,5476,336
Raw,1.09629083e+05,5477,336
Raw,1.2557101e+05,5479,336
Raw,1.05167875e+05,5480,336
Raw,97445.489,5483,336
Raw,1.35293934e+05,5487,336
Raw,92083.645,5489,336
Raw,92931.525,5490,336
Raw,1.2080485e+05,5490,336
Raw,1.07745871e+05,5491,336
Raw,1.08513339e+05,5492,336
Raw,1.03572424e+05,5493,336
Raw,83161.642,5495,336
Raw,78691.658,5495,336
Raw,1.04180066e+05,5498,336
Raw,75380.697,5500,336
Raw,60124.205,5501,336
Raw,79083.585,5506,336
Raw,65030.911,5514,336
Raw,1.06741558e+05,5515,336
Raw,35428.681,5517,336
Raw,1.32619983e+05,5517,336
Raw,79832.851,5522,336
Raw,40664.608,5524,336
Raw,49149.428,5526,336
Raw,1.01239288e+05,5531,336
Raw,65203.731,5531,336
Raw,42317.7,5538,336
Raw,68093.673,5539,336
Raw,1.66765318e+05,5542,336
Raw,1.61746931e+05,5544,336
Raw,1.1754394e+05,5546,336
Raw,31791.29,5548,336
Raw,1.40378332e+05,5549,336
Raw,54271.201,5552,336
Raw,55106.69,5555,336
Raw,1.01603291e+05,5556,336
Raw,92015.297,5558,336
Raw,96171.966,5563,336
Raw,1.67251407e+05,5565,336
Raw,1.12371863e+05,5570,336
Raw,62209.959,5571,336
Raw,69425.956,5573,336
Raw,1.03977431e+05,5579,336
Raw,63125.69,5580,336
Raw,59807.26,5583,336
Raw,83363.246,5584,336
Raw,76102.5,5587,336
Raw,50768.647,5588,336
Raw,2.05772839e+05,5591,336
Raw,2.3034369e+05,5592,336
Raw,1.58086488e+05,5600,336
Raw,36522.686,5604,336
Raw,1.20102203e+05,5607,336
Raw,93492.598,5610,336
Raw,2.29234466e+05,5613,336
Raw,43469.423,5617,336
Raw,80868.212,5624,336
Raw,55751.847,5625,336
Raw,80189.734,5627,336
Raw,1.82194931e+05,5630,336
Raw,91223.032,5631,336
Raw,1.40231434e+05,5633,336
Raw,1.44163162e+05,5634,336
Raw,61819.921,5637,336
Raw,42618.48,5637,336
Raw,1.1641659e+05,5639,336
Raw,37511.529,5641,336
Raw,26242.935,5645,336
Raw,60684.257,5647,336
Raw,50291.503,5650,336
Raw,48981.777,5650,336
Raw,27455.211,5655,336
Raw,88993.945,5655,336
Raw,1.00295383e+05,5658,336
Raw,76091.462,5659,336
Raw,1.12086288e+05,5659,336
Raw,1.91864603e+05,5661,336
Raw,90932.84,5664,336
Raw,1.65247191e+05,5666,336
Raw,1.62868905e+05,5671,336
Raw,1.01175423e+05,5671,336
Raw,91972.322,5672,336
Raw,27455.605,5673,336
Raw,54908.509,5676,336
Raw,2.06395202e+05,5677,336
Raw,80589.565,5679,336
Raw,43496.31,5685,336
Raw,85798.386,5685,336
Raw,68019.023,5689,336
Raw,21732.234,5689,336
Raw,1.52908816e+05,5703,336
Raw,33769.597,5704,336
Raw,1.61560239e+05,5705,336
Raw,46434.845,5706,336
Raw,69879.021,5706,336
Raw,1.41903813e+05,5709,336
Raw,68707.915,5711,336
Raw,1.46783172e+05,5712,336
Raw,72273.856,5713,336
Raw,1.05489514e+05,5714,336
Raw,1.17314311e+05,5715,336
Raw,1.67652768e+05,5721,336
Raw,1.08458655e+05,5722,336
Raw,1.345538e+05,5723,336
Raw,1.4676876e+05,5726,336
Raw,1.5225263e+05,5730,336
Raw,1.88451095e+05,5734,336
Raw,1.16147445e+05,5736,336
Raw,1.57918103e+05,5738,336
Raw,90950.552,5741,336
Raw,84387.063,5742,336
Raw,78916.534,5746,336
Raw,55369.674,5746,336
Raw,63894.305,5748,336
Raw,21146.749,5755,336
Raw,1.74038087e+05,5758,336
Raw,77332.647,5760,336
Raw,55048.713,5768,336
Raw,44587.712,5779,336
Raw,1.89144762e+05,5784,336
Raw,73308.322,5789,336
Raw,1.07756925e+05,5791,336
Raw,79889.673,5797,336
Raw,93495.571,5797,336
Raw,1.59736625e+05,5800,336
Raw,46508.067,5800,336
Raw,40645.77,5806,336
Raw,62606.847,5806,336
Raw,72782.345,5807,336
Raw,82438.371,5807,336
Raw,47130.545,5809,336
Raw,1.17627123e+05,5812,336
Raw,2.06195247e+05,5814,336
Raw,42711.191,5815,336
Raw,33462.921,5817,336
Raw,9887.332,5820,336
Raw,1.74263557e+05,5822,336
Raw,2.29185924e+05,5823,336
Raw,62181.375,5823,336
Raw,9631.762,5827,336
Raw,41196.425,5832,336
Raw,83705.039,5833,336
Raw,1.33679285e+05,5837,336
Raw,44435.17,5838,336
Raw,85080.306,5845,336
Raw,1.13423536e+05,5846,336
Raw,1.31639878e+05,5848,336
Raw,75864.368,5854,336
Raw,1.58224516e+05,5858,336
Raw,53834.431,5858,336
Raw,1.13794571e+05,5859,336
Raw,66233.531,5859,336
Raw,1.10738608e+05,5859,336
Raw,94335.6,5861,336
Raw,67111.808,5863,336
Raw,96753.53,5863,336
Raw,93755.939,5863,336
Raw,1.36033729e+05,5865,336
Raw,73081.041,5865,336
Raw,27560.767,5871,336
Raw,1.15096391e+05,5875,336
Raw,92082.656,5881,336
Raw,51975.138,5881,336
Raw,57237.772,5886,336
Raw,1.15377044e+05,5898,336
Raw,85963.765,5899,336
Raw,2.01185057e+05,5901,336
Raw,86347.553,5902,336
Raw,17182.41,5903,336
Raw,1.26917429e+05,5904,336
Raw,74202.611,5905,336
Raw,27109.601,5908,336
Raw,73938.014,5913,336
Raw,21677.328,5917,336
Raw,1.42166171e+05,5918,336
Raw,72327.773,5920,336
Raw,73232.934,5922,336
Raw,1.28428664e+05,5926,336
Raw,59246.553,5931,336
Raw,20912.492,5936,336
Raw,75097.429,5938,336
Raw,24829.172,5942,336
Raw,27622.987,5946,336
Raw,70117.547,5953,336
Raw,14711.057,5954,336
Raw,18201.428,5954,336
Raw,79372.567,5957,336
Raw,1.07064607e+05,5958,336
Raw,87521.078,5959,336
Raw,1.75114232e+05,5960,336
Raw,43345.831,5962,336
Raw,1.16393285e+05,5964,336
Raw,1.90971418e+05,5964,336
Raw,47780.814,5965,336
Raw,42290.877,5969,336
Raw,1.30302015e+05,5971,336
Raw,59480.414,5972,336
Raw,1.38440599e+05,5975,336
Raw,62713.934,5979,336
Raw,1.14596521e+05,5980,336
Raw,83147.566,5984,336
Raw,55025.706,5986,336
