Cut?,Counts,eventNumber,runNumber
Raw,6.01001441e+05,2,345
Raw,5.970611e+05,3,345
Raw,4.36158944e+05,4,345
Raw,5.4507943e+05,8,345
Raw,5.57985094e+05,10,345
Raw,7.51718858e+05,11,345
Raw,2.15148258e+05,12,345
Raw,7.26208441e+05,13,345
Raw,5.71198646e+05,14,345
Raw,6.6269722e+05,17,345
Raw,6.06549792e+05,20,345
Raw,6.5052791e+05,24,345
Raw,6.12829016e+05,25,345
Raw,4.84764089e+05,26,345
Raw,2.77238979e+05,28,345
Raw,5.48158482e+05,28,345
Raw,6.76851854e+05,30,345
Raw,7.43695903e+05,31,345
Raw,2.23351875e+05,33,345
Raw,6.5002602e+05,37,345
Raw,6.46572753e+05,39,345
Raw,5.34845843e+05,40,345
Raw,5.98610148e+05,43,345
Raw,6.18444827e+05,44,345
Raw,4.84502464e+05,45,345
Raw,6.24915527e+05,47,345
Raw,5.70260677e+05,55,345
Raw,7.57858082e+05,58,345
Raw,6.93980659e+05,59,345
Raw,4.8864761e+05,61,345
Raw,7.6392002e+05,63,345
Raw,6.81541926e+05,67,345
Raw,6.66913056e+05,71,345
Raw,6.62227313e+05,73,345
Raw,4.13296489e+05,76,345
Raw,6.65855978e+05,79,345
Raw,6.97298075e+05,82,345
Raw,4.56207606e+05,84,345
Raw,2.97397304e+05,87,345
Raw,6.3237274e+05,89,345
Raw,2.72146487e+05,92,345
Raw,5.80849039e+05,93,345
Raw,6.41391865e+05,95,345
Raw,6.18029613e+05,99,345
Raw,2.33550226e+05,100,345
Raw,6.75663194e+05,105,345
Raw,6.32492428e+05,107,345
Raw,1.1621185e+05,109,345
Raw,8.55525659e+05,110,345
Raw,4.04137325e+05,113,345
Raw,3.34707603e+05,116,345
Raw,5.30873333e+05,120,345
Raw,6.02945455e+05,124,345
Raw,6.40306167e+05,125,345
Raw,7.36877083e+05,127,345
Raw,4.242581e+05,128,345
Raw,4.77677536e+05,130,345
Raw,6.12590208e+05,133,345
Raw,6.91163195e+05,134,345
Raw,80457.328,140,345
Raw,7.55808025e+05,142,345
Raw,3.20378407e+05,142,345
Raw,6.47712342e+05,146,345
Raw,6.30598865e+05,148,345
Raw,5.72277317e+05,149,345
Raw,6.84837869e+05,150,345
Raw,6.53332618e+05,157,345
Raw,6.40739237e+05,161,345
Raw,5.73814549e+05,164,345
Raw,5.60544162e+05,165,345
Raw,6.29281584e+05,166,345
Raw,6.38227236e+05,171,345
Raw,6.57587075e+05,173,345
Raw,6.60030771e+05,174,345
Raw,5.98815395e+05,176,345
Raw,6.18980143e+05,177,345
Raw,6.09387765e+05,178,345
Raw,6.79649953e+05,179,345
Raw,6.16025358e+05,180,345
Raw,8.64887653e+05,183,345
Raw,7.17908188e+05,185,345
Raw,5.37591654e+05,186,345
Raw,6.38140804e+05,187,345
Raw,2.43957924e+05,188,345
Raw,5.46243723e+05,190,345
Raw,6.53151058e+05,191,345
Raw,7.49864363e+05,192,345
Raw,5.64662727e+05,195,345
Raw,5.26489962e+05,196,345
Raw,9.42589609e+05,199,345
Raw,5.29606094e+05,202,345
Raw,6.03700998e+05,203,345
Raw,3.23823523e+05,204,345
Raw,6.81689228e+05,206,345
Raw,6.60484495e+05,208,345
Raw,4.76178798e+05,209,345
Raw,6.91619734e+05,210,345
Raw,7.66422569e+05,211,345
Raw,6.51545917e+05,212,345
Raw,6.57428064e+05,213,345
Raw,5.91307716e+05,214,345
Raw,6.61535513e+05,220,345
Raw,6.57864618e+05,221,345
Raw,4.42084754e+05,222,345
Raw,8.35128081e+05,223,345
Raw,5.42446655e+05,224,345
Raw,5.06871899e+05,225,345
Raw,6.4694862e+05,226,345
Raw,6.79524219e+05,228,345
Raw,6.3017362e+05,229,345
Raw,6.6408852e+05,232,345
Raw,6.42611546e+05,233,345
Raw,5.80014203e+05,240,345
Raw,7.07604756e+05,243,345
Raw,1.29079426e+06,244,345
Raw,6.17066768e+05,247,345
Raw,7.09528589e+05,248,345
Raw,1.38350094e+06,250,345
Raw,6.85175502e+05,251,345
Raw,6.66415611e+05,252,345
Raw,5.9519466e+05,252,345
Raw,5.09910196e+05,254,345
Raw,1.42886866e+05,255,345
Raw,1.99097226e+05,256,345
Raw,4.08529326e+05,259,345
Raw,2.83122199e+05,260,345
Raw,4.46264885e+05,262,345
Raw,7.16726127e+05,264,345
Raw,4.21488644e+05,266,345
Raw,4.31781838e+05,267,345
Raw,8.63917349e+05,269,345
Raw,6.78960423e+05,270,345
Raw,6.96190296e+05,272,345
Raw,3.82546868e+05,274,345
Raw,8.01962493e+05,275,345
Raw,6.70785902e+05,277,345
Raw,2.76311953e+05,279,345
Raw,4.26369789e+05,280,345
Raw,6.29535182e+05,281,345
Raw,6.40063443e+05,282,345
Raw,1.32212367e+06,283,345
Raw,7.34029933e+05,283,345
Raw,6.8428711e+05,284,345
Raw,69005.564,285,345
Raw,7.44470615e+05,286,345
Raw,7.18216213e+05,288,345
Raw,5.40421577e+05,289,345
Raw,8.08298793e+05,290,345
Raw,7.38222173e+05,291,345
Raw,1.68388816e+05,292,345
Raw,30141.967,292,345
Raw,3.69613942e+05,293,345
Raw,2.60571042e+05,294,345
Raw,6.62500422e+05,295,345
Raw,6.37595457e+05,298,345
Raw,7.09394431e+05,300,345
Raw,6.48267971e+05,301,345
Raw,6.70307221e+05,303,345
Raw,6.83458886e+05,306,345
Raw,7.39679461e+05,307,345
Raw,7.16232674e+05,308,345
Raw,7.75412221e+05,309,345
Raw,1.26268697e+06,310,345
Raw,6.09837399e+05,311,345
Raw,4.46155092e+05,312,345
Raw,7.87774135e+05,313,345
Raw,1.45458211e+06,314,345
Raw,6.03156488e+05,315,345
Raw,3.4851155e+05,317,345
Raw,4.78545736e+05,320,345
Raw,4.88566252e+05,321,345
Raw,6.11861293e+05,324,345
Raw,9.37602676e+05,326,345
Raw,5.68174236e+05,327,345
Raw,6.54958509e+05,328,345
Raw,5.91646915e+05,329,345
Raw,7.00000806e+05,330,345
Raw,6.10431366e+05,331,345
Raw,3.91147782e+05,332,345
Raw,7.25131301e+05,333,345
Raw,5.98900354e+05,334,345
Raw,4.49941379e+05,335,345
Raw,7.18847365e+05,336,345
Raw,3.31743556e+05,337,345
Raw,6.87585655e+05,339,345
Raw,6.01131969e+05,340,345
Raw,5.55556852e+05,341,345
Raw,3.36699203e+05,342,345
Raw,6.63024735e+05,343,345
Raw,6.90486878e+05,344,345
Raw,7.36031746e+05,346,345
Raw,6.58094738e+05,347,345
Raw,8.23086857e+05,351,345
Raw,5.33418982e+05,352,345
Raw,6.06631408e+05,355,345
Raw,7.68153189e+05,356,345
Raw,6.40804556e+05,360,345
Raw,5.96381688e+05,361,345
Raw,53860.945,361,345
Raw,7.17195724e+05,362,345
Raw,6.90747629e+05,363,345
Raw,6.47190415e+05,364,345
Raw,5.58364484e+05,365,345
Raw,5.68497552e+05,366,345
Raw,7.15480945e+05,368,345
Raw,1.34463672e+06,370,345
Raw,5.9304028e+05,375,345
Raw,8.56266074e+05,376,345
Raw,4.78214341e+05,378,345
Raw,1.19559476e+06,380,345
Raw,2.79134859e+05,382,345
Raw,6.77266647e+05,383,345
Raw,9.02596421e+05,385,345
Raw,1.61988374e+06,385,345
Raw,5.33902081e+05,385,345
Raw,6.62856583e+05,386,345
Raw,6.18205449e+05,387,345
Raw,7.76904109e+05,389,345
Raw,5.62498976e+05,390,345
Raw,9.13609884e+05,391,345
Raw,6.77421306e+05,392,345
Raw,6.21206005e+05,395,345
Raw,2.02237555e+05,396,345
Raw,5.66829102e+05,397,345
Raw,5.8692571e+05,399,345
Raw,7.13416929e+05,400,345
Raw,7.15122424e+05,401,345
Raw,7.01667155e+05,404,345
Raw,4.14278855e+05,405,345
Raw,4.65453038e+05,406,345
Raw,3.01238988e+05,407,345
Raw,5.01681369e+05,409,345
Raw,1.79728849e+05,410,345
Raw,6.4464695e+05,410,345
Raw,6.71062717e+05,412,345
Raw,5.22802832e+05,413,345
Raw,5.76837253e+05,414,345
Raw,5.35851196e+05,417,345
Raw,4.28537343e+05,418,345
Raw,7.29002495e+05,421,345
Raw,3.97317056e+05,422,345
Raw,6.05469488e+05,423,345
Raw,7.10756831e+05,424,345
Raw,6.79855931e+05,425,345
Raw,7.13509832e+05,427,345
Raw,6.17471394e+05,429,345
Raw,6.28767972e+05,430,345
Raw,9.27664976e+05,431,345
Raw,7.93169263e+05,434,345
Raw,5.58688591e+05,435,345
Raw,6.13312531e+05,439,345
Raw,6.70107904e+05,443,345
Raw,7.63857721e+05,444,345
Raw,7.6366517e+05,445,345
Raw,6.5114401e+05,446,345
Raw,5.13436088e+05,447,345
Raw,5.61220561e+05,449,345
Raw,6.12963924e+05,451,345
Raw,6.27518471e+05,453,345
Raw,4.92244418e+05,456,345
Raw,8.13798556e+05,458,345
Raw,7.11995384e+05,460,345
Raw,6.91004889e+05,461,345
Raw,7.42083666e+05,463,345
Raw,7.53521645e+05,465,345
Raw,1.04230779e+05,465,345
Raw,2.28402642e+05,466,345
Raw,6.9266187e+05,467,345
Raw,6.69670823e+05,471,345
Raw,18695.845,472,345
Raw,4.56617208e+05,474,345
Raw,6.99782486e+05,476,345
Raw,6.65009889e+05,479,345
Raw,7.66878533e+05,481,345
Raw,5.91729245e+05,482,345
Raw,7.52208275e+05,482,345
Raw,6.59706886e+05,483,345
Raw,6.97707062e+05,484,345
Raw,8.34528748e+05,485,345
Raw,7.38319811e+05,486,345
Raw,4.23746275e+05,488,345
Raw,7.28188097e+05,489,345
Raw,5.89039959e+05,490,345
Raw,7.62445649e+05,491,345
Raw,7.09562045e+05,492,345
Raw,6.07941241e+05,493,345
Raw,6.46545614e+05,494,345
Raw,6.98512941e+05,497,345
Raw,6.08582227e+05,498,345
Raw,6.4625323e+05,499,345
Raw,7.49459425e+05,501,345
Raw,5.11863754e+05,502,345
Raw,6.33818502e+05,503,345
Raw,6.08875531e+05,504,345
Raw,4.25859473e+05,505,345
Raw,4.48314615e+05,506,345
Raw,6.73449552e+05,507,345
Raw,3.46094737e+05,508,345
Raw,6.94934009e+05,511,345
Raw,6.4493208e+05,512,345
Raw,6.00198068e+05,513,345
Raw,3.44145866e+05,514,345
Raw,6.21183857e+05,515,345
Raw,1.31231574e+06,518,345
Raw,7.04113702e+05,520,345
Raw,7.48449429e+05,521,345
Raw,6.97633543e+05,526,345
Raw,99102.475,526,345
Raw,7.099297e+05,529,345
Raw,7.73203394e+05,530,345
Raw,19877.9,530,345
Raw,6.19888328e+05,532,345
Raw,5.85362635e+05,533,345
Raw,5.48840777e+05,534,345
Raw,7.48939575e+05,535,345
Raw,6.55813349e+05,537,345
Raw,59836.268,537,345
Raw,4.06972817e+05,538,345
Raw,5.91311989e+05,540,345
Raw,6.39190631e+05,542,345
Raw,3.60705411e+05,543,345
Raw,7.82975025e+05,545,345
Raw,5.05891284e+05,546,345
Raw,6.37561756e+05,548,345
Raw,7.8175475e+05,549,345
Raw,7.33775845e+05,553,345
Raw,6.02827568e+05,554,345
Raw,7.2959942e+05,558,345
Raw,4.41020578e+05,559,345
Raw,6.62627081e+05,560,345
Raw,6.93285929e+05,561,345
Raw,76523.829,562,345
Raw,5.0983033e+05,565,345
Raw,7.36249842e+05,566,345
Raw,1.1790018e+06,566,345
Raw,6.22201073e+05,569,345
Raw,7.80293849e+05,570,345
Raw,4.73148182e+05,571,345
Raw,8.05488103e+05,572,345
Raw,8.08852232e+05,573,345
Raw,6.11643651e+05,575,345
Raw,5.9509596e+05,579,345
Raw,6.47470194e+05,580,345
Raw,6.16385593e+05,581,345
Raw,1.22850576e+06,583,345
Raw,3.92685819e+05,584,345
Raw,5.97989056e+05,586,345
Raw,7.25339885e+05,587,345
Raw,7.07796969e+05,588,345
Raw,6.90383066e+05,589,345
Raw,7.95281177e+05,590,345
Raw,8.06820032e+05,591,345
Raw,7.83486981e+05,593,345
Raw,5.73303227e+05,596,345
Raw,6.89850043e+05,597,345
Raw,4.75636766e+05,598,345
Raw,8.08633123e+05,599,345
Raw,3.57620211e+05,600,345
Raw,6.57012597e+05,601,345
Raw,7.51492504e+05,602,345
Raw,1.19039257e+06,603,345
Raw,5.18381077e+05,604,345
Raw,7.31790352e+05,605,345
Raw,7.62760007e+05,606,345
Raw,2.00012589e+06,607,345
Raw,1.0269709e+06,608,345
Raw,7.15631623e+05,609,345
Raw,1.70742125e+05,611,345
Raw,6.82527421e+05,612,345
Raw,6.35153963e+05,614,345
Raw,6.3234023e+05,617,345
Raw,6.96021505e+05,618,345
Raw,6.40480504e+05,619,345
Raw,1.62106413e+05,619,345
Raw,7.14430697e+05,620,345
Raw,4.30061371e+05,621,345
Raw,5291.9406,627,345
Raw,5.7775522e+05,628,345
Raw,7.30185646e+05,632,345
Raw,7.2316345e+05,633,345
Raw,6.48347346e+05,636,345
Raw,2.49993699e+05,639,345
Raw,8.8090697e+05,642,345
Raw,1.43052124e+06,644,345
Raw,6.30141415e+05,645,345
Raw,4.46498678e+05,647,345
Raw,5.8813342e+05,648,345
Raw,6.45613044e+05,651,345
Raw,7.31437743e+05,653,345
Raw,8.50904817e+05,654,345
Raw,5.84308034e+05,655,345
Raw,7.34654023e+05,656,345
Raw,6.5270451e+05,657,345
Raw,6.96406957e+05,661,345
Raw,6.56125917e+05,662,345
Raw,7.75180071e+05,664,345
Raw,7.45755377e+05,665,345
Raw,5.58135524e+05,667,345
Raw,7.8328019e+05,669,345
Raw,6.35501081e+05,671,345
Raw,2.31416587e+05,671,345
Raw,32318.495,671,345
Raw,3.26268852e+05,672,345
Raw,6.66425605e+05,674,345
Raw,5.81329067e+05,675,345
Raw,7.39436016e+05,679,345
Raw,6.12696505e+05,680,345
Raw,6.69323988e+05,682,345
Raw,6.98137518e+05,683,345
Raw,3.75980343e+05,685,345
Raw,4.53658234e+05,687,345
Raw,6.22627795e+05,688,345
Raw,6.25526493e+05,689,345
Raw,7.86179483e+05,691,345
Raw,7.54586976e+05,693,345
Raw,5.61567742e+05,694,345
Raw,7.24556683e+05,695,345
Raw,6.66533379e+05,697,345
Raw,5.83749798e+05,698,345
Raw,6.05224611e+05,703,345
Raw,4.85788545e+05,704,345
Raw,8.1868622e+05,705,345
Raw,6.03204254e+05,706,345
Raw,6.72810049e+05,710,345
Raw,3.68696407e+05,711,345
Raw,6.97903678e+05,712,345
Raw,7.32526278e+05,713,345
Raw,8.50050897e+05,714,345
Raw,6.86869007e+05,715,345
Raw,6.43967421e+05,717,345
Raw,4.36867988e+05,718,345
Raw,5.88140176e+05,719,345
Raw,6.68231262e+05,720,345
Raw,3.78584142e+05,721,345
Raw,3.37996661e+05,722,345
Raw,5.90385252e+05,724,345
Raw,6.21159688e+05,725,345
Raw,6.9610573e+05,727,345
Raw,8.17092628e+05,728,345
Raw,2.14755006e+05,731,345
Raw,6.95439395e+05,732,345
Raw,6.82431815e+05,735,345
Raw,4.94113861e+05,736,345
Raw,6.58898551e+05,737,345
Raw,4.82635142e+05,738,345
Raw,4.33751277e+05,739,345
Raw,6.10319061e+05,742,345
Raw,8.15795387e+05,743,345
Raw,6.16089273e+05,744,345
Raw,4.5240429e+05,748,345
Raw,5.30076442e+05,749,345
Raw,6.73530976e+05,750,345
Raw,7.55950962e+05,751,345
Raw,5.47749054e+05,753,345
Raw,6.02411322e+05,754,345
Raw,4.02754355e+05,755,345
Raw,4.03375055e+05,756,345
Raw,1.97017723e+05,758,345
Raw,6.73200671e+05,760,345
Raw,6.60191824e+05,761,345
Raw,7.02025615e+05,763,345
Raw,2.91278499e+05,764,345
Raw,5.8141431e+05,766,345
Raw,7.06392776e+05,767,345
Raw,6.08512337e+05,771,345
Raw,6.98605704e+05,773,345
Raw,3.67860051e+05,774,345
Raw,4.69251325e+05,776,345
Raw,4.27467513e+05,778,345
Raw,6.13576202e+05,781,345
Raw,7.6051375e+05,785,345
Raw,6.0831194e+05,786,345
Raw,7.45911476e+05,788,345
Raw,5.38303455e+05,790,345
Raw,7.53049989e+05,791,345
Raw,4.64363485e+05,793,345
Raw,6.108772e+05,794,345
Raw,6.91119003e+05,796,345
Raw,7.08716972e+05,800,345
Raw,6.00256574e+05,801,345
Raw,6.02360875e+05,803,345
Raw,6.53806173e+05,804,345
Raw,6.37384502e+05,805,345
Raw,6.74051732e+05,806,345
Raw,3.04102757e+05,807,345
Raw,5.44488736e+05,808,345
Raw,9.53457285e+05,809,345
Raw,6.47013882e+05,811,345
Raw,7.10664342e+05,812,345
Raw,8.19628208e+05,813,345
Raw,6.94957451e+05,814,345
Raw,6.75897972e+05,815,345
Raw,7.16870827e+05,816,345
Raw,6.73170845e+05,817,345
Raw,7.77144935e+05,818,345
Raw,5.76810866e+05,819,345
Raw,5.63313097e+05,820,345
Raw,7.6512949e+05,822,345
Raw,6.71762915e+05,823,345
Raw,5.58883909e+05,824,345
Raw,6.60531408e+05,825,345
Raw,6.18448313e+05,827,345
Raw,6.74632385e+05,828,345
Raw,6.3869488e+05,829,345
Raw,7.72574238e+05,832,345
Raw,4.8216019e+05,833,345
Raw,5.58305269e+05,835,345
Raw,6.80978741e+05,836,345
Raw,4.6790348e+05,839,345
Raw,6.10713707e+05,840,345
Raw,6.40473495e+05,841,345
Raw,7.38581134e+05,842,345
Raw,7.09175094e+05,843,345
Raw,1.0743107e+05,843,345
Raw,7.50844608e+05,844,345
Raw,6.7259863e+05,846,345
Raw,6.81948999e+05,848,345
Raw,5.53713528e+05,849,345
Raw,4.38482417e+05,850,345
Raw,4.5025993e+05,851,345
Raw,7.63573154e+05,852,345
Raw,6.06056501e+05,853,345
Raw,7.10186027e+05,854,345
Raw,9.02175605e+05,855,345
Raw,4.29620173e+05,858,345
Raw,6.76387765e+05,859,345
Raw,6.49143266e+05,861,345
Raw,6.16422216e+05,862,345
Raw,5.34827738e+05,863,345
Raw,6.19697277e+05,865,345
Raw,8.10678406e+05,867,345
Raw,8.11233373e+05,868,345
Raw,7.40488689e+05,870,345
Raw,9.28575976e+05,871,345
Raw,6.66983416e+05,872,345
Raw,6.60743474e+05,873,345
Raw,3.60174676e+05,873,345
Raw,6.37503345e+05,874,345
Raw,7.86330709e+05,875,345
Raw,6.23453568e+05,876,345
Raw,7.54327722e+05,877,345
Raw,5.00109255e+05,878,345
Raw,6.40808427e+05,879,345
Raw,4.6957057e+05,880,345
Raw,6.93504081e+05,881,345
Raw,6.15879905e+05,882,345
Raw,7.23848959e+05,883,345
Raw,4.56915537e+05,884,345
Raw,5.65016043e+05,885,345
Raw,7.11834556e+05,888,345
Raw,3.84369232e+05,889,345
Raw,7.08588193e+05,891,345
Raw,4.14293891e+05,892,345
Raw,8.27414674e+05,895,345
Raw,5.05678869e+05,896,345
Raw,4.76247019e+05,897,345
Raw,4.40352104e+05,898,345
Raw,6.31161648e+05,901,345
Raw,6.77471384e+05,902,345
Raw,7.72355387e+05,903,345
Raw,7.04815176e+05,904,345
Raw,5.43115928e+05,905,345
Raw,5.97324526e+05,907,345
Raw,6.04087555e+05,911,345
Raw,5.77102327e+05,912,345
Raw,6.49635924e+05,913,345
Raw,7.08906249e+05,915,345
Raw,6.75857521e+05,916,345
Raw,8.26082794e+05,918,345
Raw,6.98225207e+05,919,345
Raw,5.5308529e+05,921,345
Raw,7.02331373e+05,924,345
Raw,4.71787395e+05,925,345
Raw,5.67845983e+05,926,345
Raw,7.55412022e+05,930,345
Raw,5.45909164e+05,931,345
Raw,4.04112316e+05,936,345
Raw,6.13176118e+05,937,345
Raw,7.09749695e+05,938,345
Raw,5.64983797e+05,939,345
Raw,6.7904491e+05,940,345
Raw,3.37309287e+05,944,345
Raw,3.30441794e+05,945,345
Raw,1.90471241e+05,948,345
Raw,4.30721017e+05,949,345
Raw,5.61672616e+05,950,345
Raw,3.77986446e+05,951,345
Raw,8.17139711e+05,952,345
Raw,4.34489199e+05,953,345
Raw,6.41509998e+05,956,345
Raw,6.14478477e+05,962,345
Raw,4.49267017e+05,963,345
Raw,7.01243981e+05,964,345
Raw,5.60377031e+05,966,345
Raw,5.97620912e+05,967,345
Raw,6.43558244e+05,968,345
Raw,7.31999778e+05,969,345
Raw,4.26997429e+05,972,345
Raw,4.74708673e+05,973,345
Raw,3.89557738e+05,974,345
Raw,7.17253845e+05,977,345
Raw,3.80388887e+05,979,345
Raw,5.5127141e+05,980,345
Raw,6.01899324e+05,981,345
Raw,7.05685632e+05,982,345
Raw,84823.628,984,345
Raw,6.41966068e+05,985,345
Raw,6.84839792e+05,986,345
Raw,2.20196487e+05,987,345
Raw,6.30771471e+05,989,345
Raw,7.16397022e+05,990,345
Raw,6.31513508e+05,991,345
Raw,6.12242465e+05,993,345
Raw,1.89246366e+05,993,345
Raw,4.76071562e+05,994,345
Raw,6.68924725e+05,995,345
Raw,6.39079992e+05,997,345
Raw,6.70055601e+05,998,345
Raw,7.64962353e+05,1000,345
Raw,6.69682935e+05,1005,345
Raw,7.71207565e+05,1006,345
Raw,8.16348437e+05,1007,345
Raw,6.33419837e+05,1008,345
Raw,6.13307988e+05,1009,345
Raw,7.44206217e+05,1010,345
Raw,7.76427744e+05,1012,345
Raw,5.48134668e+05,1013,345
Raw,6.67681413e+05,1015,345
Raw,5.78133078e+05,1017,345
Raw,6.97227363e+05,1018,345
Raw,5.94600992e+05,1021,345
Raw,6.02719636e+05,1022,345
Raw,7.22770998e+05,1025,345
Raw,2.82317496e+05,1026,345
Raw,6.82557771e+05,1027,345
Raw,7.24149664e+05,1029,345
Raw,6.47472855e+05,1031,345
Raw,5.5000014e+05,1032,345
Raw,6.44082238e+05,1033,345
Raw,9.20677981e+05,1034,345
Raw,4.45359222e+05,1035,345
Raw,7.61397723e+05,1039,345
Raw,7.13165125e+05,1040,345
Raw,2.91328101e+05,1041,345
Raw,5.16016187e+05,1042,345
Raw,5.6521078e+05,1043,345
Raw,6.99246157e+05,1046,345
Raw,4.03694399e+05,1047,345
Raw,3.77655966e+05,1048,345
Raw,4.52824362e+05,1050,345
Raw,2.93953937e+05,1053,345
Raw,8.07694728e+05,1055,345
Raw,7.00793535e+05,1056,345
Raw,4.71264862e+05,1057,345
Raw,3.80010722e+05,1058,345
Raw,7.14459898e+05,1059,345
Raw,6.13625196e+05,1061,345
Raw,7.43688133e+05,1062,345
Raw,6.33822085e+05,1063,345
Raw,8.53921358e+05,1064,345
Raw,7.09965179e+05,1065,345
Raw,8.41484016e+05,1066,345
Raw,1.09660532e+06,1067,345
Raw,7.55344389e+05,1067,345
Raw,5.76716403e+05,1068,345
Raw,6.43323223e+05,1070,345
Raw,3.04767206e+05,1071,345
Raw,3.91843291e+05,1072,345
Raw,5.62430723e+05,1073,345
Raw,1.50926252e+05,1073,345
Raw,6.05520115e+05,1074,345
Raw,7.08244169e+05,1076,345
Raw,6.33063392e+05,1077,345
Raw,4.70729686e+05,1078,345
Raw,7.97012577e+05,1079,345
Raw,2.31723727e+05,1080,345
Raw,6.37796565e+05,1081,345
Raw,7.44358702e+05,1082,345
Raw,5.97568089e+05,1083,345
Raw,4.65409687e+05,1086,345
Raw,7.06479425e+05,1087,345
Raw,4.61991292e+05,1088,345
Raw,6.6863666e+05,1089,345
Raw,4.24575422e+05,1090,345
Raw,3.6316318e+05,1091,345
Raw,4.85602217e+05,1092,345
Raw,6.22242648e+05,1094,345
Raw,5.69744928e+05,1095,345
Raw,3.99606922e+05,1097,345
Raw,2.70481341e+05,1097,345
Raw,7.18058733e+05,1098,345
Raw,6.18864702e+05,1099,345
Raw,7.87537616e+05,1100,345
Raw,7.36981126e+05,1101,345
Raw,7.88439695e+05,1105,345
Raw,5.50478401e+05,1106,345
Raw,3.05168001e+05,1111,345
Raw,5.76074791e+05,1113,345
Raw,4.50232937e+05,1115,345
Raw,6.62553899e+05,1117,345
Raw,7.09614166e+05,1118,345
Raw,5.07603504e+05,1120,345
Raw,6.52505165e+05,1121,345
Raw,5.92468263e+05,1122,345
Raw,7.03547039e+05,1125,345
Raw,8.43070492e+05,1126,345
Raw,7.43014812e+05,1127,345
Raw,5.78257839e+05,1129,345
Raw,6.43937532e+05,1130,345
Raw,6.38169677e+05,1131,345
Raw,7.66517284e+05,1132,345
Raw,2.62234252e+05,1133,345
Raw,4.9767904e+05,1134,345
Raw,7.38649397e+05,1135,345
Raw,3.90140677e+05,1136,345
Raw,5.95976365e+05,1137,345
Raw,4.61828019e+05,1139,345
Raw,6.88274766e+05,1142,345
Raw,7.29928406e+05,1143,345
Raw,5.62718232e+05,1144,345
Raw,6.98345052e+05,1147,345
Raw,28577.383,1149,345
Raw,3.72274437e+05,1149,345
Raw,7.03778476e+05,1150,345
Raw,8.09673057e+05,1152,345
Raw,6.90811636e+05,1153,345
Raw,4.51283811e+05,1153,345
Raw,7.08707112e+05,1154,345
Raw,6.54125443e+05,1155,345
Raw,3.07171769e+05,1157,345
Raw,2.99447814e+05,1160,345
Raw,8.43864894e+05,1162,345
Raw,6.05833205e+05,1163,345
Raw,6.8900975e+05,1164,345
Raw,5.8457068e+05,1165,345
Raw,5.16216875e+05,1166,345
Raw,1.12508489e+05,1167,345
Raw,6.59210165e+05,1168,345
Raw,3.6118919e+05,1170,345
Raw,4.55608908e+05,1173,345
Raw,7.66508905e+05,1174,345
Raw,8.82129222e+05,1176,345
Raw,5.48291681e+05,1177,345
Raw,5.42801554e+05,1178,345
Raw,6.5516753e+05,1179,345
Raw,4.54733074e+05,1180,345
Raw,5.61144478e+05,1181,345
Raw,6.93155922e+05,1182,345
Raw,5.25597454e+05,1183,345
Raw,9.03246106e+05,1184,345
Raw,6.82411614e+05,1186,345
Raw,6.72379883e+05,1187,345
Raw,3.99063418e+05,1188,345
Raw,3.65750409e+05,1189,345
Raw,4.73930316e+05,1190,345
Raw,5.21147064e+05,1193,345
Raw,8.13058507e+05,1194,345
Raw,7.16795504e+05,1195,345
Raw,5.07693881e+05,1196,345
Raw,5.90712581e+05,1197,345
Raw,6.32698397e+05,1198,345
Raw,5.71142523e+05,1200,345
Raw,1.46578087e+06,1202,345
Raw,6.11771923e+05,1203,345
Raw,5.92163141e+05,1205,345
Raw,6.96932621e+05,1208,345
Raw,4.68970251e+05,1209,345
Raw,4.75345065e+05,1210,345
Raw,5.81184169e+05,1212,345
Raw,8.93173376e+05,1214,345
Raw,3.29268482e+05,1215,345
Raw,3.72008893e+05,1216,345
Raw,6.45086234e+05,1217,345
Raw,6.09936649e+05,1218,345
Raw,5.05690392e+05,1219,345
Raw,9.70146931e+05,1222,345
Raw,5.08534852e+05,1225,345
Raw,6.0843042e+05,1226,345
Raw,5.9015158e+05,1227,345
Raw,8.7817491e+05,1228,345
Raw,6.58329746e+05,1230,345
Raw,6.59799066e+05,1231,345
Raw,5.89396256e+05,1232,345
Raw,7.04751599e+05,1233,345
Raw,4.1480615e+05,1236,345
Raw,6.44031136e+05,1238,345
Raw,2.73939635e+05,1239,345
Raw,7.00508285e+05,1241,345
Raw,6.10165012e+05,1242,345
Raw,4.27059739e+05,1244,345
Raw,7.71679937e+05,1246,345
Raw,5.48948729e+05,1247,345
Raw,6.42225269e+05,1250,345
Raw,1.90094405e+06,1251,345
Raw,6.79639013e+05,1252,345
Raw,4.8343249e+05,1253,345
Raw,2.54692263e+05,1256,345
Raw,7.94639813e+05,1257,345
Raw,2.51814449e+05,1259,345
Raw,2.02506156e+05,1259,345
Raw,7.060789e+05,1260,345
Raw,7.28735604e+05,1262,345
Raw,4.68653122e+05,1265,345
Raw,7.7344623e+05,1266,345
Raw,4.57825608e+05,1267,345
Raw,7.05014664e+05,1268,345
Raw,2.39278331e+05,1270,345
Raw,7.39220654e+05,1271,345
Raw,6.32941886e+05,1272,345
Raw,5.42605366e+05,1275,345
Raw,6.76331698e+05,1277,345
Raw,5.99525046e+05,1278,345
Raw,6.81785745e+05,1279,345
Raw,6.86315307e+05,1280,345
Raw,6.19333551e+05,1281,345
Raw,6.2605399e+05,1287,345
Raw,7.34932043e+05,1290,345
Raw,1.26651241e+06,1292,345
Raw,6.99474905e+05,1293,345
Raw,2.81495473e+05,1294,345
Raw,3.99594343e+05,1295,345
Raw,6.44235481e+05,1296,345
Raw,6.78330292e+05,1297,345
Raw,5.67410497e+05,1298,345
Raw,8.90953358e+05,1299,345
Raw,6.97681231e+05,1300,345
Raw,7.20611619e+05,1303,345
Raw,8.59213823e+05,1305,345
Raw,7.35681739e+05,1307,345
Raw,6.8595827e+05,1308,345
Raw,6.53973541e+05,1309,345
Raw,5.21916674e+05,1311,345
Raw,7.35625499e+05,1312,345
Raw,2.56188652e+05,1314,345
Raw,7.12974437e+05,1316,345
Raw,6.04940478e+05,1317,345
Raw,3.38847495e+05,1319,345
Raw,4.62439988e+05,1321,345
Raw,6.90425582e+05,1322,345
Raw,1.20292188e+06,1325,345
Raw,6.34816333e+05,1327,345
Raw,5.86245363e+05,1329,345
Raw,5.62596328e+05,1332,345
Raw,6.12606348e+05,1333,345
Raw,6.02320606e+05,1334,345
Raw,1.1763477e+06,1335,345
Raw,6.61919985e+05,1336,345
Raw,5.16801644e+05,1338,345
Raw,7.95322728e+05,1339,345
Raw,6.94839481e+05,1340,345
Raw,6.49715531e+05,1341,345
Raw,6.7290303e+05,1344,345
Raw,7.17814623e+05,1346,345
Raw,3.51075153e+05,1348,345
Raw,2.03805838e+05,1348,345
Raw,5.80286411e+05,1351,345
Raw,4.69988736e+05,1352,345
Raw,7.6635792e+05,1353,345
Raw,7.53147232e+05,1354,345
Raw,7.39515723e+05,1355,345
Raw,6.41570115e+05,1357,345
Raw,7.22192509e+05,1359,345
Raw,6.34724366e+05,1366,345
Raw,5.62025237e+05,1367,345
Raw,6.90170835e+05,1368,345
Raw,5.55099079e+05,1371,345
Raw,6.99281887e+05,1372,345
Raw,7.32880614e+05,1373,345
Raw,7.76513594e+05,1375,345
Raw,6.60590809e+05,1376,345
Raw,7.13186231e+05,1377,345
Raw,7.05662685e+05,1378,345
Raw,7.0019088e+05,1379,345
Raw,5.04907628e+05,1380,345
Raw,2.75076519e+05,1380,345
Raw,6.17211958e+05,1381,345
Raw,4.67167676e+05,1382,345
Raw,6.51879726e+05,1383,345
Raw,4.88748212e+05,1384,345
Raw,1.68068062e+05,1385,345
Raw,6.16236083e+05,1386,345
Raw,6.00831154e+05,1387,345
Raw,2.59115659e+05,1390,345
Raw,7.02943778e+05,1391,345
Raw,4.49989884e+05,1394,345
Raw,7.01622018e+05,1395,345
Raw,6.19730792e+05,1396,345
Raw,6.6753834e+05,1398,345
Raw,3.13556928e+05,1399,345
Raw,7.09087295e+05,1400,345
Raw,5.38673754e+05,1402,345
Raw,6.34616582e+05,1403,345
Raw,8.95820782e+05,1404,345
Raw,5.30508154e+05,1405,345
Raw,7.83552464e+05,1406,345
Raw,4.39430941e+05,1407,345
Raw,8.15046585e+05,1408,345
Raw,6.97754747e+05,1410,345
Raw,6.82488585e+05,1411,345
Raw,5.64057941e+05,1413,345
Raw,8.55787141e+05,1414,345
Raw,6.73614631e+05,1416,345
Raw,5.49754141e+05,1417,345
Raw,4.08928944e+05,1418,345
Raw,1.35699587e+05,1418,345
Raw,7.34155937e+05,1419,345
Raw,8.90998259e+05,1420,345
Raw,5.68873931e+05,1421,345
Raw,4.04843793e+05,1422,345
Raw,6.5527334e+05,1423,345
Raw,7.03185155e+05,1424,345
Raw,7.19242152e+05,1425,345
Raw,2.73051284e+05,1426,345
Raw,3.59579592e+05,1428,345
Raw,3.06231205e+05,1431,345
Raw,4.89369765e+05,1432,345
Raw,7.64616593e+05,1434,345
Raw,6.9024182e+05,1435,345
Raw,8.89682666e+05,1436,345
Raw,7.56938966e+05,1438,345
Raw,4.024606e+05,1439,345
Raw,4.23088046e+05,1442,345
Raw,4.59126327e+05,1443,345
Raw,7.80962348e+05,1444,345
Raw,4.33625094e+05,1445,345
Raw,4.6126566e+05,1448,345
Raw,5.44365201e+05,1450,345
Raw,6.79033897e+05,1453,345
Raw,6.99356959e+05,1454,345
Raw,4.39306093e+05,1456,345
Raw,6.40821918e+05,1457,345
Raw,6.11344594e+05,1458,345
Raw,3.82804437e+05,1459,345
Raw,6.47354066e+05,1461,345
Raw,4.68166179e+05,1462,345
Raw,4.9749608e+05,1464,345
Raw,6.19650599e+05,1465,345
Raw,6.53884893e+05,1467,345
Raw,3.70557685e+05,1468,345
Raw,5.12145354e+05,1469,345
Raw,6.08205127e+05,1470,345
Raw,6.90587652e+05,1473,345
Raw,5.14189254e+05,1474,345
Raw,8.75013956e+05,1476,345
Raw,7.4125604e+05,1476,345
Raw,5.63730706e+05,1477,345
Raw,9.06537117e+05,1478,345
Raw,7.3431309e+05,1480,345
Raw,1.55349931e+05,1480,345
Raw,5.40763248e+05,1481,345
Raw,3.52212276e+05,1482,345
Raw,5.21343013e+05,1484,345
Raw,6.97327867e+05,1485,345
Raw,5.19705964e+05,1486,345
Raw,1.12897738e+05,1487,345
Raw,6.1317405e+05,1489,345
Raw,7.16926859e+05,1491,345
Raw,6.82410674e+05,1492,345
Raw,5.31077023e+05,1493,345
Raw,7.04273169e+05,1494,345
Raw,5.94705695e+05,1495,345
Raw,7.03688097e+05,1497,345
Raw,2.37070854e+05,1498,345
Raw,1.22351713e+06,1503,345
Raw,9.36385038e+05,1507,345
Raw,4.46491799e+05,1509,345
Raw,6.11663316e+05,1511,345
Raw,6.54037875e+05,1513,345
Raw,6.18704243e+05,1514,345
Raw,6.1372523e+05,1515,345
Raw,3.96298926e+05,1517,345
Raw,6.23567295e+05,1518,345
Raw,7.25142984e+05,1519,345
Raw,2.39339129e+05,1521,345
Raw,2.68826429e+05,1523,345
Raw,6.11360872e+05,1524,345
Raw,8.34534326e+05,1526,345
Raw,2.68414512e+05,1529,345
Raw,3.11732674e+05,1533,345
Raw,5.54132115e+05,1534,345
Raw,4.0336898e+05,1535,345
Raw,6.97855697e+05,1536,345
Raw,5.48992085e+05,1538,345
Raw,5.65846024e+05,1544,345
Raw,6.36189516e+05,1545,345
Raw,7.21005584e+05,1547,345
Raw,6.56320001e+05,1548,345
Raw,6.04528139e+05,1549,345
Raw,5.92981946e+05,1551,345
Raw,2.26808148e+05,1553,345
Raw,5.73358311e+05,1554,345
Raw,6.1505549e+05,1556,345
Raw,1.14241607e+06,1557,345
Raw,5.08458998e+05,1558,345
Raw,5.22952709e+05,1559,345
Raw,6.97877201e+05,1560,345
Raw,6.66380222e+05,1564,345
Raw,7.34982731e+05,1565,345
Raw,7.59642532e+05,1567,345
Raw,6.22041736e+05,1568,345
Raw,5.58957517e+05,1569,345
Raw,6.39842491e+05,1571,345
Raw,6.16436767e+05,1572,345
Raw,5.72710595e+05,1573,345
Raw,4.08403585e+05,1574,345
Raw,2.58704026e+05,1574,345
Raw,5.39213042e+05,1575,345
Raw,5.8361726e+05,1576,345
Raw,4.61183972e+05,1577,345
Raw,5.63278339e+05,1579,345
Raw,6.68147325e+05,1580,345
Raw,70314.714,1581,345
Raw,7.99219945e+05,1582,345
Raw,4.16797893e+05,1583,345
Raw,6.61034574e+05,1585,345
Raw,7.96636487e+05,1588,345
Raw,5.53390712e+05,1589,345
Raw,6.22986459e+05,1590,345
Raw,5.07963064e+05,1591,345
Raw,4.93362428e+05,1592,345
Raw,3.69915678e+05,1593,345
Raw,5.52200559e+05,1594,345
Raw,7.21587829e+05,1596,345
Raw,6.54602572e+05,1599,345
Raw,3.92938989e+05,1601,345
Raw,7.82109071e+05,1604,345
Raw,7.11622429e+05,1605,345
Raw,5.15113263e+05,1607,345
Raw,5.81513493e+05,1608,345
Raw,6.45353327e+05,1609,345
Raw,3.43934299e+05,1610,345
Raw,7.16365221e+05,1612,345
Raw,4.30031796e+05,1615,345
Raw,6.92779329e+05,1616,345
Raw,7.13269015e+05,1617,345
Raw,1.71142127e+06,1618,345
Raw,7.08635621e+05,1620,345
Raw,7.72164611e+05,1621,345
Raw,5.92808715e+05,1622,345
Raw,7.15895519e+05,1623,345
Raw,7.47664769e+05,1624,345
Raw,6.59710053e+05,1625,345
Raw,1.64993969e+06,1626,345
Raw,6.42876213e+05,1627,345
Raw,6.664589e+05,1628,345
Raw,5.93113095e+05,1629,345
Raw,4.76649974e+05,1631,345
Raw,3.53997421e+05,1632,345
Raw,2.31731746e+05,1632,345
Raw,5.50022171e+05,1634,345
Raw,6.55055959e+05,1635,345
Raw,4.4931424e+05,1636,345
Raw,2.03343393e+05,1637,345
Raw,8.56893739e+05,1638,345
Raw,6.30882221e+05,1639,345
Raw,5.96022548e+05,1640,345
Raw,6.97070779e+05,1641,345
Raw,3.41952875e+05,1643,345
Raw,6.85363529e+05,1644,345
Raw,6.16926463e+05,1645,345
Raw,6.18815284e+05,1646,345
Raw,2.70884239e+05,1647,345
Raw,8.77980683e+05,1648,345
Raw,5.8193094e+05,1650,345
Raw,7.00428572e+05,1651,345
Raw,4.23938846e+05,1652,345
Raw,7.2269328e+05,1655,345
Raw,5.86003907e+05,1656,345
Raw,4.06580089e+05,1659,345
Raw,8.22839275e+05,1661,345
Raw,3.87675076e+05,1662,345
Raw,6.29722942e+05,1663,345
Raw,3.95610739e+05,1664,345
Raw,6.23743728e+05,1665,345
Raw,7.05702595e+05,1666,345
Raw,6.84309105e+05,1667,345
Raw,5.30119219e+05,1668,345
Raw,5.37458976e+05,1669,345
Raw,6.61716235e+05,1670,345
Raw,6.83084349e+05,1671,345
Raw,6.51264478e+05,1672,345
Raw,5.28729871e+05,1673,345
Raw,8.35892095e+05,1674,345
Raw,7.82244437e+05,1675,345
Raw,5.84535256e+05,1678,345
Raw,2.55089355e+05,1679,345
Raw,6.35435941e+05,1680,345
Raw,2.88009267e+05,1681,345
Raw,8733.7512,1681,345
Raw,6.76858778e+05,1682,345
Raw,6.22885283e+05,1683,345
Raw,3.74043896e+05,1686,345
Raw,5.38060619e+05,1687,345
Raw,6.19114639e+05,1689,345
Raw,6.62515977e+05,1691,345
Raw,1.70409314e+06,1692,345
Raw,9.00168075e+05,1693,345
Raw,4.43397605e+05,1694,345
Raw,4.85869791e+05,1695,345
Raw,2.28371569e+05,1698,345
Raw,5.63361151e+05,1699,345
Raw,4.71073839e+05,1701,345
Raw,6.95081972e+05,1703,345
Raw,5.79827563e+05,1704,345
Raw,5.69332923e+05,1705,345
Raw,1.15636457e+06,1706,345
Raw,4.81399976e+05,1707,345
Raw,8.59001294e+05,1708,345
Raw,4.05246195e+05,1709,345
Raw,5.72106279e+05,1711,345
Raw,7.40031109e+05,1712,345
Raw,5.99610833e+05,1714,345
Raw,6.69618012e+05,1715,345
Raw,6.9317989e+05,1716,345
Raw,4.74548444e+05,1717,345
Raw,5.46753343e+05,1719,345
Raw,8.71554959e+05,1720,345
Raw,6.03607479e+05,1722,345
Raw,6.41105021e+05,1723,345
Raw,6.45963208e+05,1724,345
Raw,7.45395065e+05,1726,345
Raw,4.57154482e+05,1727,345
Raw,3.66661671e+05,1728,345
Raw,6.07346192e+05,1729,345
Raw,7.04537147e+05,1731,345
Raw,5.37307453e+05,1732,345
Raw,7.98700375e+05,1733,345
Raw,4.00128386e+05,1734,345
Raw,6.04502256e+05,1736,345
Raw,6.08813037e+05,1739,345
Raw,7.75312775e+05,1740,345
Raw,6.45860541e+05,1741,345
Raw,6.30749649e+05,1743,345
Raw,3.79492876e+05,1744,345
Raw,6.50019765e+05,1745,345
Raw,6.68695533e+05,1746,345
Raw,5.26095093e+05,1748,345
Raw,5.36369507e+05,1749,345
Raw,7.63528446e+05,1750,345
Raw,6.17276898e+05,1751,345
Raw,7.20376535e+05,1757,345
Raw,4.93261636e+05,1758,345
Raw,6.14209102e+05,1759,345
Raw,6.66733066e+05,1760,345
Raw,6.81937629e+05,1764,345
Raw,6.53381762e+05,1766,345
Raw,7.16596795e+05,1767,345
Raw,6.62862858e+05,1768,345
Raw,6.79429865e+05,1769,345
Raw,7.49595282e+05,1770,345
Raw,7.78210915e+05,1771,345
Raw,8.30894638e+05,1772,345
Raw,7.45204372e+05,1773,345
Raw,5.90348747e+05,1774,345
Raw,3.97126254e+05,1775,345
Raw,5.14757932e+05,1776,345
Raw,5.86580733e+05,1779,345
Raw,5.80683915e+05,1780,345
Raw,7.77331411e+05,1781,345
Raw,6.04613278e+05,1785,345
Raw,5.6625894e+05,1786,345
Raw,7.29214275e+05,1788,345
Raw,6.79472124e+05,1790,345
Raw,6.30113317e+05,1792,345
Raw,7.13922525e+05,1795,345
Raw,6.98309092e+05,1797,345
Raw,6.01126498e+05,1798,345
Raw,5.52544427e+05,1802,345
Raw,6.17364717e+05,1803,345
Raw,6.66752768e+05,1805,345
Raw,4.60344516e+05,1807,345
Raw,5.94603062e+05,1808,345
Raw,6.62164629e+05,1810,345
Raw,4.03298871e+05,1811,345
Raw,4.7132302e+05,1812,345
Raw,6.38501565e+05,1813,345
Raw,5.64549632e+05,1814,345
Raw,6.89833391e+05,1816,345
Raw,6.50801467e+05,1817,345
Raw,6.43125813e+05,1818,345
Raw,6.35534769e+05,1820,345
Raw,2.5881992e+05,1821,345
Raw,6.35054701e+05,1822,345
Raw,3.7168069e+05,1824,345
Raw,5.45702683e+05,1825,345
Raw,6.80952584e+05,1826,345
Raw,6.66860779e+05,1827,345
Raw,7.48198556e+05,1829,345
Raw,4.26517462e+05,1837,345
Raw,7.27159085e+05,1838,345
Raw,6.01019854e+05,1840,345
Raw,6.89911646e+05,1841,345
Raw,6.67498307e+05,1842,345
Raw,3.85312153e+05,1843,345
Raw,6.06808141e+05,1844,345
Raw,7.07579804e+05,1845,345
Raw,3.53764327e+05,1846,345
Raw,6.60886286e+05,1847,345
Raw,4.19569204e+05,1848,345
Raw,6.34567412e+05,1850,345
Raw,6.78998928e+05,1855,345
Raw,5.12880796e+05,1856,345
Raw,7.07873201e+05,1857,345
Raw,5.29195813e+05,1858,345
Raw,6.61299283e+05,1859,345
Raw,6.64871474e+05,1860,345
Raw,1.57021651e+05,1861,345
Raw,1.56717109e+06,1863,345
Raw,6.50940835e+05,1864,345
Raw,6.26626151e+05,1866,345
Raw,5.56245157e+05,1867,345
Raw,4.95304638e+05,1869,345
Raw,6.87824877e+05,1870,345
Raw,5.16562018e+05,1871,345
Raw,2.68118068e+05,1872,345
Raw,6.03917072e+05,1874,345
Raw,8.11139149e+05,1875,345
Raw,2.967855e+05,1878,345
Raw,4.19667563e+05,1881,345
Raw,2.45519463e+05,1882,345
Raw,6.43571218e+05,1884,345
Raw,5.55361585e+05,1885,345
Raw,6.87104785e+05,1890,345
Raw,3.77284103e+05,1891,345
Raw,86642.569,1892,345
Raw,6.36911896e+05,1897,345
Raw,6.99652378e+05,1900,345
Raw,6.15750851e+05,1902,345
Raw,4.19085123e+05,1903,345
Raw,7.4906605e+05,1904,345
Raw,8.3111207e+05,1905,345
Raw,5.15621406e+05,1906,345
Raw,3.52774324e+05,1909,345
Raw,6.96455305e+05,1910,345
Raw,2.51409167e+05,1911,345
Raw,7.69614925e+05,1913,345
Raw,5.94409189e+05,1915,345
Raw,6.79741017e+05,1917,345
Raw,3.71124758e+05,1920,345
Raw,4.51647147e+05,1921,345
Raw,5.44988023e+05,1922,345
Raw,6.68485163e+05,1925,345
Raw,5.21578172e+05,1926,345
Raw,7.1267703e+05,1928,345
Raw,6.83641269e+05,1929,345
Raw,6.14606284e+05,1931,345
Raw,6.72949344e+05,1933,345
Raw,6.87046208e+05,1934,345
Raw,6.31972659e+05,1935,345
Raw,3.69120194e+05,1936,345
Raw,8.11770718e+05,1938,345
Raw,6.98667143e+05,1939,345
Raw,1.03136978e+05,1940,345
Raw,6.92033261e+05,1942,345
Raw,5.27210451e+05,1946,345
Raw,1.15589628e+06,1947,345
Raw,6.47149145e+05,1949,345
Raw,1.22534289e+06,1950,345
Raw,7.89958258e+05,1952,345
Raw,6.25775742e+05,1954,345
Raw,6.27569631e+05,1956,345
Raw,4.51942902e+05,1957,345
Raw,8.14365446e+05,1959,345
Raw,5.6358883e+05,1960,345
Raw,4.30145756e+05,1961,345
Raw,7.62406087e+05,1964,345
Raw,1.02286751e+06,1965,345
Raw,5.4684873e+05,1966,345
Raw,5.92177757e+05,1967,345
Raw,6.16690447e+05,1968,345
Raw,5.33216571e+05,1969,345
Raw,6.17054621e+05,1969,345
Raw,1.18720224e+05,1970,345
Raw,6.65935538e+05,1972,345
Raw,6.13465146e+05,1973,345
Raw,6.04152846e+05,1976,345
Raw,6.54954728e+05,1977,345
Raw,6.79434821e+05,1980,345
Raw,7.72423819e+05,1982,345
Raw,7.45388788e+05,1983,345
Raw,5.47451055e+05,1986,345
Raw,6.46511704e+05,1987,345
Raw,6.04885654e+05,1989,345
Raw,6.87751588e+05,1990,345
Raw,6.38023765e+05,1991,345
Raw,2.73827755e+05,1993,345
Raw,6.30555146e+05,1995,345
Raw,6.38469257e+05,1996,345
Raw,6.93960452e+05,1997,345
Raw,5.56312604e+05,1998,345
Raw,7.55667512e+05,1999,345
Raw,7.2892386e+05,2000,345
Raw,9.32946798e+05,2004,345
Raw,6.80219673e+05,2005,345
Raw,2.98002807e+05,2006,345
Raw,7.50424412e+05,2007,345
Raw,5.38883283e+05,2008,345
Raw,4.7423013e+05,2009,345
Raw,7.42737012e+05,2010,345
Raw,5.65469563e+05,2011,345
Raw,5.93075654e+05,2013,345
Raw,4.21988537e+05,2014,345
Raw,6.37130718e+05,2015,345
Raw,6.27484113e+05,2016,345
Raw,3.8073083e+05,2017,345
Raw,6.46424016e+05,2018,345
Raw,7.47335912e+05,2019,345
Raw,1.90551345e+06,2021,345
Raw,3.73353144e+05,2022,345
Raw,2.51415767e+05,2025,345
Raw,5.70956892e+05,2026,345
Raw,7.39960412e+05,2027,345
Raw,42819.227,2027,345
Raw,5.9347299e+05,2028,345
Raw,5.57056655e+05,2030,345
Raw,5.85550864e+05,2031,345
Raw,5.74654385e+05,2033,345
Raw,6.36592788e+05,2034,345
Raw,6.34787348e+05,2035,345
Raw,7.47870634e+05,2037,345
Raw,2.13685887e+05,2038,345
Raw,7.99613902e+05,2039,345
Raw,6.16432301e+05,2040,345
Raw,7.06249871e+05,2043,345
Raw,1.31329016e+06,2044,345
Raw,6.97673752e+05,2046,345
Raw,6.12603011e+05,2048,345
Raw,7.25424338e+05,2049,345
Raw,5.6363745e+05,2050,345
Raw,7.00895862e+05,2051,345
Raw,5.44156723e+05,2054,345
Raw,63798.137,2054,345
Raw,3.64276942e+05,2055,345
Raw,6.81225105e+05,2056,345
Raw,5.1428799e+05,2060,345
Raw,7.43507614e+05,2061,345
Raw,6.68040189e+05,2062,345
Raw,6.13644208e+05,2064,345
Raw,8.82608618e+05,2065,345
Raw,2.07038713e+05,2066,345
Raw,3.56154032e+05,2066,345
Raw,4.26603227e+05,2067,345
Raw,5.81817965e+05,2068,345
Raw,7.00384317e+05,2069,345
Raw,5.17618468e+05,2070,345
Raw,5.80549313e+05,2072,345
Raw,6.10768804e+05,2073,345
Raw,6.05325732e+05,2076,345
Raw,4.61511282e+05,2079,345
Raw,4.82351755e+05,2080,345
Raw,2.60513651e+05,2081,345
Raw,6.39826721e+05,2082,345
Raw,1.92440361e+05,2085,345
Raw,6.03998851e+05,2086,345
Raw,7.95317757e+05,2088,345
Raw,6.26271184e+05,2089,345
Raw,5.63811229e+05,2091,345
Raw,5.9605275e+05,2093,345
Raw,6.05449696e+05,2094,345
Raw,6.24569813e+05,2095,345
Raw,1.74199746e+06,2096,345
Raw,5.572625e+05,2096,345
Raw,5.91653444e+05,2098,345
Raw,7.42547674e+05,2099,345
Raw,4.81661855e+05,2100,345
Raw,5.51616918e+05,2101,345
Raw,4.80644452e+05,2102,345
Raw,6.27128615e+05,2103,345
Raw,4.31863682e+05,2104,345
Raw,6.93512557e+05,2105,345
Raw,6.86649771e+05,2106,345
Raw,3.4321513e+05,2107,345
Raw,8.26169977e+05,2108,345
Raw,6.20015405e+05,2110,345
Raw,6.76560509e+05,2111,345
Raw,6.80010103e+05,2112,345
Raw,6.10242456e+05,2113,345
Raw,6.41141551e+05,2114,345
Raw,6.96135217e+05,2117,345
Raw,6.1312405e+05,2118,345
Raw,9.56396636e+05,2119,345
Raw,6.02457379e+05,2119,345
Raw,6.5300048e+05,2120,345
Raw,6.72125128e+05,2121,345
Raw,7.65109271e+05,2122,345
Raw,5.41099628e+05,2124,345
Raw,6.44659336e+05,2125,345
Raw,6.55807725e+05,2126,345
Raw,1.79848952e+06,2128,345
Raw,7.72140089e+05,2129,345
Raw,3.87046792e+05,2131,345
Raw,4.02202917e+05,2133,345
Raw,7.43808831e+05,2135,345
Raw,7.331484e+05,2136,345
Raw,5.10922638e+05,2137,345
Raw,6.08125671e+05,2141,345
Raw,3.18001869e+05,2142,345
Raw,3.00156782e+05,2143,345
Raw,5.95963852e+05,2144,345
Raw,7.74323338e+05,2146,345
Raw,2.43046466e+05,2147,345
Raw,6.32852818e+05,2149,345
Raw,39881.219,2149,345
Raw,5.85102378e+05,2151,345
Raw,5.89153621e+05,2154,345
Raw,6.37739295e+05,2155,345
Raw,7.91973105e+05,2157,345
Raw,6.50778689e+05,2158,345
Raw,6.94536644e+05,2159,345
Raw,4.9104611e+05,2163,345
Raw,4.58418898e+05,2165,345
Raw,6.46547637e+05,2166,345
Raw,5.50493928e+05,2167,345
Raw,9.13345469e+05,2168,345
Raw,8.05487341e+05,2169,345
Raw,7.47193699e+05,2170,345
Raw,7.89013735e+05,2172,345
Raw,6.24430306e+05,2173,345
Raw,5.56117407e+05,2174,345
Raw,7.22457047e+05,2175,345
Raw,6.45643935e+05,2176,345
Raw,8.03808828e+05,2177,345
Raw,3.46765875e+05,2178,345
Raw,3.70593501e+05,2179,345
Raw,6.77844765e+05,2180,345
Raw,7.55372473e+05,2182,345
Raw,1.9530932e+05,2183,345
Raw,6.00700463e+05,2184,345
Raw,4.48274452e+05,2185,345
Raw,5.92207735e+05,2186,345
Raw,8.42083536e+05,2187,345
Raw,2.64110779e+05,2188,345
Raw,5.99479153e+05,2190,345
Raw,5.12567636e+05,2191,345
Raw,1.43335935e+06,2192,345
Raw,6.97524839e+05,2193,345
Raw,8.27464106e+05,2194,345
Raw,5.27163862e+05,2196,345
Raw,7.584027e+05,2199,345
Raw,3.45886205e+05,2200,345
Raw,6.5557253e+05,2201,345
Raw,3.80065544e+05,2202,345
Raw,4.80128853e+05,2203,345
Raw,6.2004716e+05,2204,345
Raw,3.45662234e+05,2205,345
Raw,6.88621403e+05,2206,345
Raw,4.8199173e+05,2208,345
Raw,5.81353648e+05,2209,345
Raw,7.32071171e+05,2212,345
Raw,3.44431167e+05,2213,345
Raw,3.82626636e+05,2215,345
Raw,7.06755826e+05,2217,345
Raw,7.02274639e+05,2218,345
Raw,3.69444517e+05,2222,345
Raw,6.59209807e+05,2223,345
Raw,5.70664129e+05,2225,345
Raw,5.61759084e+05,2226,345
Raw,6.60913405e+05,2227,345
Raw,5.30512722e+05,2229,345
Raw,5.04881486e+05,2230,345
Raw,1.25750904e+06,2231,345
Raw,6.86157189e+05,2234,345
Raw,1.58436925e+05,2234,345
Raw,7.25348211e+05,2236,345
Raw,6.7307503e+05,2237,345
Raw,6.89218068e+05,2239,345
Raw,6.62151174e+05,2240,345
Raw,7.80830157e+05,2241,345
Raw,5.44939959e+05,2242,345
Raw,7.02888383e+05,2244,345
Raw,3.51543756e+05,2245,345
Raw,7.38594046e+05,2246,345
Raw,7.41193958e+05,2247,345
Raw,5.0769328e+05,2252,345
Raw,3.31463092e+05,2253,345
Raw,3.67666038e+05,2254,345
Raw,7489.4205,2254,345
Raw,7.22156225e+05,2256,345
Raw,5.10194053e+05,2258,345
Raw,7.74318935e+05,2259,345
Raw,6.62156124e+05,2260,345
Raw,9.49002278e+05,2261,345
Raw,7.24343731e+05,2262,345
Raw,7.3230465e+05,2263,345
Raw,8.644514e+05,2265,345
Raw,5.91073711e+05,2266,345
Raw,5.06191674e+05,2268,345
Raw,9.4831297e+05,2269,345
Raw,4.11435653e+05,2270,345
Raw,4.72138506e+05,2271,345
Raw,7.41289867e+05,2274,345
Raw,7.0494421e+05,2275,345
Raw,5.12537168e+05,2276,345
Raw,3.99113478e+05,2277,345
Raw,6.90877869e+05,2278,345
Raw,6.66191044e+05,2280,345
Raw,8.35562584e+05,2283,345
Raw,6.50835999e+05,2284,345
Raw,7.44595953e+05,2285,345
Raw,5.92278276e+05,2286,345
Raw,5.58917436e+05,2287,345
Raw,7.47847726e+05,2288,345
Raw,4.51614309e+05,2289,345
Raw,5.73652284e+05,2290,345
Raw,8.46851371e+05,2293,345
Raw,6.18874534e+05,2294,345
Raw,8.17013193e+05,2296,345
Raw,5.40268594e+05,2298,345
Raw,5.21686081e+05,2300,345
Raw,5.01171673e+05,2301,345
Raw,6.66822932e+05,2302,345
Raw,7.32419672e+05,2303,345
Raw,6.78235878e+05,2304,345
Raw,6.17368124e+05,2306,345
Raw,6.72142571e+05,2307,345
Raw,6.03014989e+05,2308,345
Raw,7.00310264e+05,2310,345
Raw,7.23557716e+05,2311,345
Raw,6.78691575e+05,2312,345
Raw,7.33000122e+05,2313,345
Raw,6.68490348e+05,2315,345
Raw,7.57970435e+05,2316,345
Raw,4.08908995e+05,2317,345
Raw,6.61540065e+05,2318,345
Raw,2.8917032e+05,2320,345
Raw,6.41362446e+05,2321,345
Raw,6.37216926e+05,2322,345
Raw,5.09165374e+05,2323,345
Raw,5.80758126e+05,2324,345
Raw,7.76768383e+05,2326,345
Raw,6.65307762e+05,2327,345
Raw,7.39255972e+05,2328,345
Raw,7.55275788e+05,2329,345
Raw,6.07579607e+05,2330,345
Raw,7.04385038e+05,2331,345
Raw,8.12630804e+05,2332,345
Raw,73694.465,2332,345
Raw,7.55592114e+05,2333,345
Raw,6.16586727e+05,2341,345
Raw,5.3388621e+05,2343,345
Raw,6.18797669e+05,2348,345
Raw,4.98683601e+05,2349,345
Raw,4.58737139e+05,2352,345
Raw,3.80069209e+05,2353,345
Raw,3.0086383e+05,2354,345
Raw,6.78363917e+05,2356,345
Raw,6.48871295e+05,2357,345
Raw,6.25898418e+05,2358,345
Raw,7.12105038e+05,2359,345
Raw,6.09041544e+05,2360,345
Raw,6.4882221e+05,2361,345
Raw,5.719663e+05,2362,345
Raw,82287.882,2363,345
Raw,2.98993606e+05,2364,345
Raw,3.20692502e+05,2365,345
Raw,7.18516491e+05,2366,345
Raw,4.46709401e+05,2367,345
Raw,4.39031056e+05,2369,345
Raw,7.02721075e+05,2370,345
Raw,3.5657347e+05,2371,345
Raw,2.45125372e+05,2372,345
Raw,5.74814916e+05,2374,345
Raw,5.8089417e+05,2377,345
Raw,4.28157285e+05,2378,345
Raw,7.9347928e+05,2381,345
Raw,5.00727971e+05,2382,345
Raw,7.1487004e+05,2383,345
Raw,6.52798191e+05,2384,345
Raw,4.9418851e+05,2385,345
Raw,6.98621168e+05,2388,345
Raw,4.6591852e+05,2389,345
Raw,5.50576607e+05,2390,345
Raw,6.79436078e+05,2391,345
Raw,3.84259924e+05,2392,345
Raw,5.331472e+05,2393,345
Raw,6.41231631e+05,2394,345
Raw,5.87991644e+05,2397,345
Raw,6.66944458e+05,2399,345
Raw,5.33373498e+05,2400,345
Raw,5.04859999e+05,2401,345
Raw,6.70266196e+05,2402,345
Raw,6.28251891e+05,2403,345
Raw,6.35576962e+05,2407,345
Raw,6.32566412e+05,2408,345
Raw,3.60696699e+05,2409,345
Raw,1.19512602e+06,2410,345
Raw,5.57192624e+05,2411,345
Raw,4.91859346e+05,2412,345
Raw,5.33983424e+05,2414,345
Raw,3.72798066e+05,2415,345
Raw,1.06888065e+05,2415,345
Raw,6.52935992e+05,2417,345
Raw,6.45620825e+05,2419,345
Raw,5.8396105e+05,2421,345
Raw,7.69375229e+05,2422,345
Raw,4.17816057e+05,2423,345
Raw,7.43292323e+05,2424,345
Raw,6.72421563e+05,2425,345
Raw,1.33621035e+06,2426,345
Raw,5.94576018e+05,2426,345
Raw,5.86752137e+05,2429,345
Raw,7.42167664e+05,2430,345
Raw,5.27526363e+05,2433,345
Raw,6.3369765e+05,2435,345
Raw,6.7489069e+05,2436,345
Raw,3.77391074e+05,2437,345
Raw,5.57553825e+05,2438,345
Raw,6.49573657e+05,2439,345
Raw,5.91902605e+05,2440,345
Raw,5.67323813e+05,2441,345
Raw,1.03977738e+06,2442,345
Raw,4.28115669e+05,2445,345
Raw,6.89440921e+05,2446,345
Raw,6.27668767e+05,2447,345
Raw,6.03114613e+05,2449,345
Raw,6.7762985e+05,2450,345
Raw,5.02570249e+05,2452,345
Raw,1.25925204e+05,2452,345
Raw,1.0299642e+06,2453,345
Raw,6.29790462e+05,2454,345
Raw,5.47069711e+05,2455,345
Raw,6.29222443e+05,2456,345
Raw,6.62741396e+05,2461,345
Raw,6.3528954e+05,2462,345
Raw,6.7696485e+05,2463,345
Raw,4.65447217e+05,2464,345
Raw,6.71439612e+05,2466,345
Raw,2.26795029e+05,2467,345
Raw,6.64456439e+05,2468,345
Raw,1.64594493e+05,2468,345
Raw,4.68515181e+05,2469,345
Raw,7.84466421e+05,2470,345
Raw,6.24260633e+05,2471,345
Raw,5.92206568e+05,2473,345
Raw,6.65376839e+05,2476,345
Raw,6.56422553e+05,2477,345
Raw,6.61178069e+05,2478,345
Raw,5.75101736e+05,2479,345
Raw,5.19728234e+05,2480,345
Raw,5.14429159e+05,2481,345
Raw,7.5274368e+05,2482,345
Raw,6.79978629e+05,2484,345
Raw,5.53479444e+05,2485,345
Raw,5.26487305e+05,2486,345
Raw,6.07635671e+05,2487,345
Raw,7.12474242e+05,2488,345
Raw,4.88951826e+05,2489,345
Raw,7.2437825e+05,2490,345
Raw,4.94428662e+05,2492,345
Raw,7.01576898e+05,2493,345
Raw,3.16993936e+05,2496,345
Raw,4.84189939e+05,2497,345
Raw,6.47552731e+05,2499,345
Raw,1.40732492e+06,2499,345
Raw,2.30477414e+05,2500,345
Raw,7.58919152e+05,2501,345
Raw,6.35917994e+05,2502,345
Raw,6.94601245e+05,2503,345
Raw,5.41333496e+05,2504,345
Raw,7.43364921e+05,2506,345
Raw,7.45794273e+05,2507,345
Raw,5.66645462e+05,2509,345
Raw,4.93783872e+05,2510,345
Raw,6.11525592e+05,2515,345
Raw,6.8989585e+05,2516,345
Raw,9.01094307e+05,2517,345
Raw,6.11033097e+05,2519,345
Raw,5.67168715e+05,2520,345
Raw,5.90496018e+05,2521,345
Raw,5.64416204e+05,2522,345
Raw,3.64010523e+05,2523,345
Raw,6.11091339e+05,2524,345
Raw,7.03858037e+05,2525,345
Raw,5.39894164e+05,2526,345
Raw,6.80056539e+05,2527,345
Raw,9.04098777e+05,2528,345
Raw,1.84909439e+06,2528,345
Raw,5.05529989e+05,2529,345
Raw,7.35531143e+05,2531,345
Raw,7.94855033e+05,2533,345
Raw,5.72104853e+05,2534,345
Raw,6.66224643e+05,2536,345
Raw,7.45431366e+05,2538,345
Raw,6.89315622e+05,2540,345
Raw,4.27879126e+05,2541,345
Raw,3.71022643e+05,2542,345
Raw,6.2850993e+05,2543,345
Raw,4.53655205e+05,2545,345
Raw,6.4433909e+05,2546,345
Raw,6.82711944e+05,2547,345
Raw,2.73166779e+05,2552,345
Raw,5.72725713e+05,2553,345
Raw,6.79657432e+05,2554,345
Raw,6.24911387e+05,2556,345
Raw,6.45359285e+05,2557,345
Raw,7.10343215e+05,2558,345
Raw,8.59958965e+05,2560,345
Raw,6.88655978e+05,2561,345
Raw,7.01897334e+05,2562,345
Raw,8.24896893e+05,2563,345
Raw,7.62124594e+05,2564,345
Raw,4.67847994e+05,2566,345
Raw,6.30172099e+05,2567,345
Raw,3.81331894e+05,2568,345
Raw,4.53160523e+05,2569,345
Raw,6.5338409e+05,2572,345
Raw,5.64337577e+05,2573,345
Raw,2.75073856e+05,2578,345
Raw,6.92181113e+05,2579,345
Raw,1.02761708e+05,2579,345
Raw,15151.314,2579,345
Raw,4.62985609e+05,2580,345
Raw,6.06783822e+05,2582,345
Raw,6.6699146e+05,2585,345
Raw,2.22956608e+05,2586,345
Raw,6.59164558e+05,2588,345
Raw,6.96735173e+05,2589,345
Raw,6.89470341e+05,2590,345
Raw,7.70651536e+05,2591,345
Raw,4.17040842e+05,2592,345
Raw,3.91341691e+05,2593,345
Raw,7.34619941e+05,2596,345
Raw,7.4211992e+05,2598,345
Raw,2.36636274e+05,2599,345
Raw,5.85528908e+05,2600,345
Raw,7.761409e+05,2601,345
Raw,5.83836186e+05,2602,345
Raw,5.91248372e+05,2604,345
Raw,1.89929754e+05,2604,345
Raw,6.22453892e+05,2605,345
Raw,9.46136171e+05,2606,345
Raw,7.09086582e+05,2607,345
Raw,1.05221121e+06,2608,345
Raw,5.73838301e+05,2609,345
Raw,6.40733829e+05,2610,345
Raw,4.46991994e+05,2611,345
Raw,6.45577988e+05,2612,345
Raw,6.62622619e+05,2613,345
Raw,6.51730558e+05,2614,345
Raw,3.68313386e+05,2616,345
Raw,6.39902413e+05,2617,345
Raw,7.80118752e+05,2625,345
Raw,7.06107688e+05,2626,345
Raw,7.80066119e+05,2627,345
Raw,6.71385048e+05,2629,345
Raw,7.02230085e+05,2631,345
Raw,5.23315342e+05,2634,345
Raw,6.90258217e+05,2635,345
Raw,5.74266341e+05,2636,345
Raw,6.14698674e+05,2637,345
Raw,8.06350726e+05,2639,345
Raw,6.84303271e+05,2639,345
Raw,3.96267699e+05,2640,345
Raw,5.28406134e+05,2641,345
Raw,7.85974438e+05,2642,345
Raw,4.18733296e+05,2643,345
Raw,7.4224213e+05,2646,345
Raw,8.74509436e+05,2649,345
Raw,7.27477239e+05,2650,345
Raw,4.29457488e+05,2651,345
Raw,7.25454437e+05,2652,345
Raw,5.48564147e+05,2653,345
Raw,4.66828004e+05,2655,345
Raw,4.81239299e+05,2656,345
Raw,6.46603165e+05,2657,345
Raw,5.67788998e+05,2658,345
Raw,6.12515505e+05,2659,345
Raw,6.74711651e+05,2660,345
Raw,6.41220287e+05,2661,345
Raw,2.61779744e+05,2661,345
Raw,18126.947,2661,345
Raw,8.06598471e+05,2663,345
Raw,6.14492945e+05,2665,345
Raw,6.8393709e+05,2668,345
Raw,4.41579963e+05,2670,345
Raw,5.57291875e+05,2671,345
Raw,6.69497228e+05,2672,345
Raw,7.39449617e+05,2673,345
Raw,7.7388563e+05,2674,345
Raw,6.71310092e+05,2676,345
Raw,5.96311542e+05,2677,345
Raw,7.41469744e+05,2678,345
Raw,4.34233288e+05,2680,345
Raw,1.41876525e+05,2680,345
Raw,8.42400946e+05,2681,345
Raw,6.49982795e+05,2682,345
Raw,6.40021223e+05,2683,345
Raw,4.24071086e+05,2684,345
Raw,6.06708019e+05,2686,345
Raw,6.13627212e+05,2687,345
Raw,6.20222503e+05,2688,345
Raw,4.04238031e+05,2689,345
Raw,6.6687707e+05,2690,345
Raw,6.28308061e+05,2691,345
Raw,4.3204248e+05,2692,345
Raw,7.04627772e+05,2695,345
Raw,7.57870369e+05,2696,345
Raw,5.455896e+05,2697,345
Raw,6.15252545e+05,2699,345
Raw,7.49743774e+05,2702,345
Raw,2.85213405e+05,2705,345
Raw,6.64598472e+05,2706,345
Raw,7.43683508e+05,2707,345
Raw,5.89251871e+05,2708,345
Raw,7.08503838e+05,2710,345
Raw,6.61158248e+05,2714,345
Raw,6.60083893e+05,2715,345
Raw,3.88524424e+05,2717,345
Raw,2.9386097e+05,2718,345
Raw,6.72907617e+05,2719,345
Raw,6.49635331e+05,2720,345
Raw,3.9312402e+05,2721,345
Raw,2.11383468e+05,2721,345
Raw,6.08047435e+05,2722,345
Raw,6.35113814e+05,2724,345
Raw,5.56826678e+05,2725,345
Raw,6.44574605e+05,2729,345
Raw,7.02681437e+05,2731,345
Raw,6.10407754e+05,2732,345
Raw,7.84400632e+05,2733,345
Raw,6.45923194e+05,2735,345
Raw,3.43070814e+05,2736,345
Raw,6.54802989e+05,2738,345
Raw,7.17574674e+05,2739,345
Raw,6.8701049e+05,2740,345
Raw,4.84543067e+05,2741,345
Raw,6.66054017e+05,2743,345
Raw,5.05394908e+05,2745,345
Raw,6.4416071e+05,2746,345
Raw,6.96278906e+05,2747,345
Raw,6.70113849e+05,2748,345
Raw,7.085516e+05,2749,345
Raw,6.95535982e+05,2750,345
Raw,5.67846602e+05,2751,345
Raw,7.17674477e+05,2754,345
Raw,6.6430449e+05,2755,345
Raw,7.2124538e+05,2758,345
Raw,6.47080223e+05,2760,345
Raw,6.06507278e+05,2761,345
Raw,5.91273683e+05,2762,345
Raw,6.95791146e+05,2763,345
Raw,6.43450699e+05,2764,345
Raw,5.16149065e+05,2765,345
Raw,5.41806931e+05,2766,345
Raw,7.10408022e+05,2767,345
Raw,2.79156254e+05,2768,345
Raw,4.25189255e+05,2769,345
Raw,6.71961268e+05,2771,345
Raw,6.99823487e+05,2772,345
Raw,5.59296023e+05,2775,345
Raw,7.05182839e+05,2776,345
Raw,5.1009851e+05,2777,345
Raw,6.70063633e+05,2779,345
Raw,7.68259786e+05,2780,345
Raw,59805.213,2783,345
Raw,2.62775134e+05,2787,345
Raw,2.66313947e+05,2788,345
Raw,1.63639444e+06,2788,345
Raw,3.96766891e+05,2793,345
Raw,1.33102426e+06,2794,345
Raw,6.10158437e+05,2797,345
Raw,7.01887266e+05,2799,345
Raw,6.76987401e+05,2800,345
Raw,4.80433456e+05,2801,345
Raw,6.78863866e+05,2803,345
Raw,2.39144027e+05,2804,345
Raw,7.27266616e+05,2805,345
Raw,6.61385393e+05,2806,345
Raw,2.65699113e+05,2807,345
Raw,7.01412919e+05,2810,345
Raw,6.45544778e+05,2812,345
Raw,5.92307336e+05,2813,345
Raw,4.90731345e+05,2817,345
Raw,6.73702034e+05,2818,345
Raw,1.90506932e+06,2819,345
Raw,6.68301473e+05,2820,345
Raw,5.77329707e+05,2822,345
Raw,6.12653388e+05,2824,345
Raw,6.71534273e+05,2825,345
Raw,7.23348636e+05,2826,345
Raw,4.5351542e+05,2828,345
Raw,6.3013054e+05,2829,345
Raw,6.36065959e+05,2830,345
Raw,3.34986561e+05,2831,345
Raw,7.2003928e+05,2833,345
Raw,3.0864382e+05,2834,345
Raw,4.70722463e+05,2835,345
Raw,6.44510075e+05,2836,345
Raw,7.91873557e+05,2837,345
Raw,5.50623226e+05,2838,345
Raw,6.07382295e+05,2839,345
Raw,6.4273826e+05,2840,345
Raw,3.56097687e+05,2841,345
Raw,6.10941605e+05,2842,345
Raw,6.5125314e+05,2843,345
Raw,5.32474139e+05,2844,345
Raw,6.62166785e+05,2846,345
Raw,5.75598293e+05,2847,345
Raw,8.59158627e+05,2849,345
Raw,7.04711144e+05,2850,345
Raw,5.79248378e+05,2855,345
Raw,4.59363523e+05,2856,345
Raw,3.82187464e+05,2857,345
Raw,8.02032473e+05,2858,345
Raw,6.06059338e+05,2859,345
Raw,6.01072635e+05,2860,345
Raw,2.9730586e+05,2861,345
Raw,7.14234958e+05,2864,345
Raw,9.47881121e+05,2866,345
Raw,6.72184697e+05,2866,345
Raw,52371.499,2866,345
Raw,7.84261619e+05,2868,345
Raw,2.787569e+05,2869,345
Raw,6.80260808e+05,2870,345
Raw,7.08231663e+05,2871,345
Raw,5.3717622e+05,2873,345
Raw,6.02930361e+05,2874,345
Raw,5.90005911e+05,2875,345
Raw,5.08178788e+05,2876,345
Raw,3.5913593e+05,2877,345
Raw,6.79644634e+05,2879,345
Raw,5.09371911e+05,2881,345
Raw,6.19808241e+05,2882,345
Raw,4.17690148e+05,2883,345
Raw,7.35889877e+05,2884,345
Raw,6.838862e+05,2886,345
Raw,5.83919004e+05,2889,345
Raw,6.16759161e+05,2891,345
Raw,5.60420912e+05,2894,345
Raw,6.3309737e+05,2895,345
Raw,3.48494096e+05,2898,345
Raw,8.41626647e+05,2899,345
Raw,7.18754782e+05,2900,345
Raw,3.05201886e+05,2901,345
Raw,3.91538845e+05,2901,345
Raw,5.39426087e+05,2902,345
Raw,8.69169795e+05,2903,345
Raw,5.24779336e+05,2904,345
Raw,5.43092754e+05,2906,345
Raw,6.41402731e+05,2908,345
Raw,4.68716282e+05,2909,345
Raw,7.39748125e+05,2910,345
Raw,7.36892717e+05,2911,345
Raw,6.48859186e+05,2912,345
Raw,3.85957645e+05,2914,345
Raw,4.45222986e+05,2915,345
Raw,6.48762175e+05,2917,345
Raw,6.7711873e+05,2918,345
Raw,6.45978901e+05,2920,345
Raw,5.98313183e+05,2922,345
Raw,7.6164441e+05,2923,345
Raw,7.64170771e+05,2924,345
Raw,7.97997692e+05,2925,345
Raw,6.79001057e+05,2926,345
Raw,6.22866571e+05,2928,345
Raw,6.78726116e+05,2929,345
Raw,5.97069365e+05,2931,345
Raw,4.05759818e+05,2932,345
Raw,5.81697202e+05,2933,345
Raw,6.15411063e+05,2934,345
Raw,6.32080364e+05,2935,345
Raw,3.91056782e+05,2936,345
Raw,6.18526026e+05,2941,345
Raw,4.22979628e+05,2942,345
Raw,6.67867835e+05,2943,345
Raw,5.73054428e+05,2944,345
Raw,6.73953886e+05,2945,345
Raw,1.17921931e+05,2945,345
Raw,1.00474496e+05,2946,345
Raw,1.07483078e+05,2946,345
Raw,1.26983419e+05,2948,345
Raw,6.16963104e+05,2949,345
Raw,5.90009561e+05,2950,345
Raw,4.74608674e+05,2951,345
Raw,3.83017197e+05,2952,345
Raw,6.59068771e+05,2953,345
Raw,6.35602468e+05,2954,345
Raw,3.32364322e+05,2955,345
Raw,5.6411522e+05,2956,345
Raw,6.77957804e+05,2958,345
Raw,4.21442956e+05,2959,345
Raw,8.24443778e+05,2960,345
Raw,6.61648239e+05,2962,345
Raw,6.00809357e+05,2963,345
Raw,5.76004615e+05,2964,345
Raw,6.48887762e+05,2965,345
Raw,6.77465917e+05,2966,345
Raw,5.84543944e+05,2967,345
Raw,6.62870416e+05,2968,345
Raw,1.32830226e+05,2968,345
Raw,5.77986953e+05,2969,345
Raw,1.84829771e+06,2970,345
Raw,5.43856443e+05,2971,345
Raw,7.56451688e+05,2973,345
Raw,6.33556905e+05,2975,345
Raw,4.40600696e+05,2976,345
Raw,6.04465319e+05,2978,345
Raw,5.79209773e+05,2981,345
Raw,6.27159594e+05,2982,345
Raw,7.05985695e+05,2983,345
Raw,5.85552745e+05,2985,345
Raw,5.65379264e+05,2987,345
Raw,7.1955759e+05,2988,345
Raw,6.48729528e+05,2989,345
Raw,4.44622173e+05,2990,345
Raw,4.99830148e+05,2991,345
Raw,1.19452868e+06,2993,345
Raw,5.26319709e+05,2994,345
Raw,7.05217114e+05,2996,345
Raw,7.08143973e+05,2998,345
Raw,7.24496695e+05,2999,345
Raw,5.30162357e+05,3006,345
Raw,6.27160241e+05,3007,345
Raw,5.4185914e+05,3008,345
Raw,2.86204666e+05,3009,345
Raw,7.04465166e+05,3010,345
Raw,6.08748899e+05,3012,345
Raw,7.14046443e+05,3013,345
Raw,6.26259247e+05,3014,345
Raw,6.64967681e+05,3015,345
Raw,5.87036519e+05,3016,345
Raw,4.18940715e+05,3017,345
Raw,4.19130146e+05,3018,345
Raw,6.49224158e+05,3019,345
Raw,1.28848643e+05,3019,345
Raw,6.020099e+05,3020,345
Raw,84412.027,3020,345
Raw,6.44760752e+05,3022,345
Raw,5.26759299e+05,3023,345
Raw,5.94354543e+05,3024,345
Raw,5.77984395e+05,3025,345
Raw,3.85359076e+05,3027,345
Raw,2.58945363e+05,3028,345
Raw,6.68539622e+05,3029,345
Raw,5.02238059e+05,3031,345
Raw,5.98347805e+05,3034,345
Raw,6.57908825e+05,3035,345
Raw,4.85628686e+05,3036,345
Raw,7.11105451e+05,3037,345
Raw,4.98892419e+05,3039,345
Raw,2.96048695e+05,3040,345
Raw,6.22541284e+05,3041,345
Raw,6.05904753e+05,3042,345
Raw,6.10624409e+05,3046,345
Raw,6.77352456e+05,3047,345
Raw,4.94146205e+05,3048,345
Raw,3.31393321e+05,3049,345
Raw,4.63722922e+05,3051,345
Raw,6.59018359e+05,3053,345
Raw,6.05393915e+05,3054,345
Raw,7.77497879e+05,3056,345
Raw,6.96952397e+05,3057,345
Raw,4.40523556e+05,3058,345
Raw,1.00985371e+05,3058,345
Raw,3.53230129e+05,3059,345
Raw,5.76233194e+05,3060,345
Raw,3.81665121e+05,3062,345
Raw,5.2609917e+05,3063,345
Raw,5.8721142e+05,3064,345
Raw,7.09817772e+05,3067,345
Raw,3.94890465e+05,3073,345
Raw,5.99934396e+05,3074,345
Raw,5.75336185e+05,3075,345
Raw,6.18222468e+05,3076,345
Raw,6.26776092e+05,3078,345
Raw,4.48140929e+05,3079,345
Raw,6.09662467e+05,3080,345
Raw,5.93484854e+05,3084,345
Raw,6.83930876e+05,3086,345
Raw,3.54495682e+05,3087,345
Raw,6.5057941e+05,3089,345
Raw,5.25214038e+05,3090,345
Raw,8.39082837e+05,3091,345
Raw,5.86579676e+05,3094,345
Raw,6.78257073e+05,3095,345
Raw,5.79692177e+05,3096,345
Raw,4.58224368e+05,3097,345
Raw,8.43659719e+05,3099,345
Raw,4.20739366e+05,3101,345
Raw,7.22022778e+05,3105,345
Raw,7.56576519e+05,3106,345
Raw,2.40711792e+05,3107,345
Raw,6.88831062e+05,3110,345
Raw,6.70137526e+05,3111,345
Raw,8.09395452e+05,3112,345
Raw,7.12602016e+05,3113,345
Raw,5.08789933e+05,3114,345
Raw,6.52814371e+05,3115,345
Raw,7.97014493e+05,3116,345
Raw,6.44640581e+05,3118,345
Raw,5.06688967e+05,3119,345
Raw,7.10492783e+05,3122,345
Raw,5.56272519e+05,3125,345
Raw,6.36082511e+05,3126,345
Raw,1.35709064e+06,3127,345
Raw,4.64527216e+05,3131,345
Raw,6.19849183e+05,3132,345
Raw,9.00858887e+05,3133,345
Raw,5.61619598e+05,3136,345
Raw,5.34289649e+05,3137,345
Raw,5.90388091e+05,3139,345
Raw,6.94190819e+05,3140,345
Raw,6.57766587e+05,3141,345
Raw,9.55345903e+05,3142,345
Raw,6.0229417e+05,3143,345
Raw,4.27044406e+05,3144,345
Raw,4.44358464e+05,3146,345
Raw,3.9310356e+05,3147,345
Raw,7.03990958e+05,3148,345
Raw,6.04545866e+05,3149,345
Raw,6.00205582e+05,3151,345
Raw,6.43875478e+05,3152,345
Raw,37870.86,3153,345
Raw,4.8898099e+05,3155,345
Raw,6.04506381e+05,3157,345
Raw,3.52651447e+05,3158,345
Raw,6.14971241e+05,3159,345
Raw,8.64448251e+05,3160,345
Raw,7.86420098e+05,3162,345
Raw,4.12893836e+05,3164,345
Raw,3.58887895e+05,3166,345
Raw,5.47102382e+05,3167,345
Raw,8.49305336e+05,3168,345
Raw,4.06761958e+05,3175,345
Raw,5.62982542e+05,3177,345
Raw,6.99113705e+05,3180,345
Raw,3.78641745e+05,3181,345
Raw,3.7334397e+05,3182,345
Raw,6.9498064e+05,3186,345
Raw,3.66340454e+05,3187,345
Raw,6.64373379e+05,3188,345
Raw,45675.919,3189,345
Raw,8.10144558e+05,3190,345
Raw,6.87130807e+05,3192,345
Raw,6.06768265e+05,3193,345
Raw,6.9550995e+05,3194,345
Raw,6.61222487e+05,3195,345
Raw,4.2619251e+05,3196,345
Raw,6.14663025e+05,3197,345
Raw,7.00026344e+05,3198,345
Raw,5.45510179e+05,3199,345
Raw,7.1533048e+05,3200,345
Raw,4.26533974e+05,3201,345
Raw,7.07493821e+05,3203,345
Raw,6.54886967e+05,3204,345
Raw,9476.7678,3204,345
Raw,7.32829241e+05,3205,345
Raw,3.22820324e+05,3206,345
Raw,7.93329659e+05,3207,345
Raw,5.96712006e+05,3211,345
Raw,5.70645759e+05,3212,345
Raw,3.11423382e+05,3213,345
Raw,4.06691848e+05,3214,345
Raw,6.57005761e+05,3215,345
Raw,6.66893574e+05,3219,345
Raw,5.28242924e+05,3222,345
Raw,7.01223863e+05,3223,345
Raw,4.66197364e+05,3225,345
Raw,9.15103925e+05,3227,345
Raw,6.35893647e+05,3228,345
Raw,5.90400192e+05,3229,345
Raw,5.23433519e+05,3231,345
Raw,6.61419169e+05,3232,345
Raw,6.47716195e+05,3235,345
Raw,1.00831969e+06,3236,345
Raw,6.59671225e+05,3237,345
Raw,8.6225026e+05,3239,345
Raw,7.42414612e+05,3240,345
Raw,2.28223125e+05,3241,345
Raw,3.48336106e+05,3242,345
Raw,5.48346318e+05,3244,345
Raw,5.65432837e+05,3246,345
Raw,6.7180683e+05,3247,345
Raw,5.16484912e+05,3249,345
Raw,4.62930521e+05,3250,345
Raw,6.08612998e+05,3251,345
Raw,7.83695094e+05,3252,345
Raw,6.50741074e+05,3253,345
