Cut?,Counts,eventNumber,runNumber
Raw,251,2,345
Raw,261,3,345
Raw,180,4,345
Raw,213,8,345
Raw,257,10,345
Raw,247,11,345
Raw,94,12,345
Raw,299,13,345
Raw,207,14,345
Raw,263,17,345
Raw,232,20,345
Raw,255,24,345
Raw,265,25,345
Raw,215,26,345
Raw,112,28,345
Raw,203,28,345
Raw,259,30,345
Raw,281,31,345
Raw,96,33,345
Raw,278,37,345
Raw,263,39,345
Raw,237,40,345
Raw,234,43,345
Raw,274,44,345
Raw,225,45,345
Raw,270,47,345
Raw,254,55,345
Raw,248,58,345
Raw,284,59,345
Raw,214,61,345
Raw,274,63,345
Raw,277,67,345
Raw,256,71,345
Raw,251,73,345
Raw,186,76,345
Raw,194,79,345
Raw,267,82,345
Raw,182,84,345
Raw,134,87,345
Raw,260,89,345
Raw,112,92,345
Raw,254,93,345
Raw,248,95,345
Raw,228,99,345
Raw,101,100,345
Raw,252,105,345
Raw,269,107,345
Raw,53,109,345
Raw,151,110,345
Raw,41,113,345
Raw,157,116,345
Raw,228,120,345
Raw,253,124,345
Raw,246,125,345
Raw,291,127,345
Raw,175,128,345
Raw,213,130,345
Raw,265,133,345
Raw,278,134,345
Raw,37,140,345
Raw,217,142,345
Raw,27,142,345
Raw,290,146,345
Raw,265,148,345
Raw,252,149,345
Raw,284,150,345
Raw,256,157,345
Raw,241,161,345
Raw,248,164,345
Raw,245,165,345
Raw,265,166,345
Raw,244,171,345
Raw,289,173,345
Raw,277,174,345
Raw,247,176,345
Raw,255,177,345
Raw,263,178,345
Raw,275,179,345
Raw,266,180,345
Raw,212,183,345
Raw,249,185,345
Raw,253,186,345
Raw,263,187,345
Raw,93,188,345
Raw,244,190,345
Raw,265,191,345
Raw,175,192,345
Raw,222,195,345
Raw,214,196,345
Raw,265,199,345
Raw,229,202,345
Raw,237,203,345
Raw,129,204,345
Raw,262,206,345
Raw,282,208,345
Raw,196,209,345
Raw,223,210,345
Raw,290,211,345
Raw,273,212,345
Raw,274,213,345
Raw,260,214,345
Raw,289,220,345
Raw,279,221,345
Raw,201,222,345
Raw,270,223,345
Raw,238,224,345
Raw,228,225,345
Raw,274,226,345
Raw,273,228,345
Raw,272,229,345
Raw,250,232,345
Raw,289,233,345
Raw,252,240,345
Raw,290,243,345
Raw,486,244,345
Raw,262,247,345
Raw,286,248,345
Raw,540,250,345
Raw,287,251,345
Raw,257,252,345
Raw,239,252,345
Raw,217,254,345
Raw,62,255,345
Raw,96,256,345
Raw,174,259,345
Raw,129,260,345
Raw,777,262,345
Raw,185,262,345
Raw,270,264,345
Raw,181,266,345
Raw,187,267,345
Raw,254,269,345
Raw,287,270,345
Raw,278,272,345
Raw,165,274,345
Raw,198,275,345
Raw,282,277,345
Raw,124,279,345
Raw,189,280,345
Raw,267,281,345
Raw,261,282,345
Raw,527,283,345
Raw,286,283,345
Raw,271,284,345
Raw,31,285,345
Raw,286,286,345
Raw,255,288,345
Raw,227,289,345
Raw,198,290,345
Raw,261,291,345
Raw,81,292,345
Raw,11,292,345
Raw,157,293,345
Raw,120,294,345
Raw,232,295,345
Raw,261,298,345
Raw,248,300,345
Raw,258,301,345
Raw,257,303,345
Raw,254,306,345
Raw,303,307,345
Raw,223,308,345
Raw,295,309,345
Raw,530,310,345
Raw,253,311,345
Raw,46,312,345
Raw,302,313,345
Raw,448,314,345
Raw,249,315,345
Raw,671,316,345
Raw,116,317,345
Raw,222,320,345
Raw,221,321,345
Raw,240,324,345
Raw,247,326,345
Raw,249,327,345
Raw,249,328,345
Raw,254,329,345
Raw,271,330,345
Raw,251,331,345
Raw,161,332,345
Raw,262,333,345
Raw,281,334,345
Raw,171,335,345
Raw,297,336,345
Raw,131,337,345
Raw,288,339,345
Raw,249,340,345
Raw,265,341,345
Raw,149,342,345
Raw,278,343,345
Raw,300,344,345
Raw,267,346,345
Raw,270,347,345
Raw,155,351,345
Raw,238,352,345
Raw,266,355,345
Raw,226,356,345
Raw,260,360,345
Raw,249,361,345
Raw,27,361,345
Raw,287,362,345
Raw,274,363,345
Raw,269,364,345
Raw,253,365,345
Raw,241,366,345
Raw,284,368,345
Raw,555,370,345
Raw,75,375,345
Raw,275,376,345
Raw,181,378,345
Raw,527,380,345
Raw,116,382,345
Raw,277,383,345
Raw,228,385,345
Raw,487,385,345
Raw,245,385,345
Raw,285,386,345
Raw,207,387,345
Raw,286,389,345
Raw,257,390,345
Raw,304,391,345
Raw,277,392,345
Raw,266,395,345
Raw,94,396,345
Raw,197,397,345
Raw,240,399,345
Raw,288,400,345
Raw,292,401,345
Raw,281,404,345
Raw,184,405,345
Raw,212,406,345
Raw,115,407,345
Raw,230,409,345
Raw,82,410,345
Raw,265,410,345
Raw,256,412,345
Raw,210,413,345
Raw,254,414,345
Raw,224,417,345
Raw,175,418,345
Raw,303,421,345
Raw,173,422,345
Raw,254,423,345
Raw,224,424,345
Raw,284,425,345
Raw,276,427,345
Raw,267,429,345
Raw,241,430,345
Raw,180,431,345
Raw,281,434,345
Raw,248,435,345
Raw,211,439,345
Raw,275,443,345
Raw,261,444,345
Raw,267,445,345
Raw,290,446,345
Raw,238,447,345
Raw,262,449,345
Raw,281,451,345
Raw,278,453,345
Raw,214,456,345
Raw,357,458,345
Raw,269,460,345
Raw,286,461,345
Raw,260,463,345
Raw,280,465,345
Raw,39,465,345
Raw,98,466,345
Raw,279,467,345
Raw,271,471,345
Raw,8,472,345
Raw,190,474,345
Raw,283,476,345
Raw,262,479,345
Raw,306,481,345
Raw,263,482,345
Raw,230,482,345
Raw,280,483,345
Raw,270,484,345
Raw,155,485,345
Raw,287,486,345
Raw,188,488,345
Raw,257,489,345
Raw,263,490,345
Raw,271,491,345
Raw,277,492,345
Raw,260,493,345
Raw,281,494,345
Raw,276,497,345
Raw,243,498,345
Raw,250,499,345
Raw,240,501,345
Raw,130,502,345
Raw,271,503,345
Raw,224,504,345
Raw,210,505,345
Raw,163,506,345
Raw,238,507,345
Raw,156,508,345
Raw,794,510,345
Raw,267,511,345
Raw,281,512,345
Raw,249,513,345
Raw,143,514,345
Raw,250,515,345
Raw,542,518,345
Raw,234,520,345
Raw,293,521,345
Raw,274,526,345
Raw,45,526,345
Raw,271,529,345
Raw,235,530,345
Raw,4,530,345
Raw,256,532,345
Raw,201,533,345
Raw,243,534,345
Raw,296,535,345
Raw,263,537,345
Raw,10,537,345
Raw,179,538,345
Raw,223,540,345
Raw,268,542,345
Raw,141,543,345
Raw,286,545,345
Raw,237,546,345
Raw,269,548,345
Raw,278,549,345
Raw,274,553,345
Raw,262,554,345
Raw,287,558,345
Raw,189,559,345
Raw,268,560,345
Raw,282,561,345
Raw,38,562,345
Raw,200,565,345
Raw,325,566,345
Raw,476,566,345
Raw,249,569,345
Raw,229,570,345
Raw,191,571,345
Raw,190,572,345
Raw,307,573,345
Raw,275,575,345
Raw,239,579,345
Raw,258,580,345
Raw,271,581,345
Raw,471,583,345
Raw,154,584,345
Raw,264,586,345
Raw,279,587,345
Raw,277,588,345
Raw,268,589,345
Raw,279,590,345
Raw,249,591,345
Raw,270,593,345
Raw,233,596,345
Raw,290,597,345
Raw,226,598,345
Raw,232,599,345
Raw,146,600,345
Raw,219,601,345
Raw,265,602,345
Raw,515,603,345
Raw,685,603,345
Raw,235,604,345
Raw,263,605,345
Raw,267,606,345
Raw,118,608,345
Raw,282,609,345
Raw,71,611,345
Raw,266,612,345
Raw,267,614,345
Raw,272,617,345
Raw,295,618,345
Raw,282,619,345
Raw,73,619,345
Raw,292,620,345
Raw,180,621,345
Raw,3,627,345
Raw,246,628,345
Raw,274,632,345
Raw,303,633,345
Raw,242,636,345
Raw,108,639,345
Raw,252,642,345
Raw,494,644,345
Raw,257,645,345
Raw,124,647,345
Raw,266,648,345
Raw,233,651,345
Raw,295,653,345
Raw,307,654,345
Raw,251,655,345
Raw,243,656,345
Raw,249,657,345
Raw,269,661,345
Raw,259,662,345
Raw,312,664,345
Raw,290,665,345
Raw,254,667,345
Raw,112,669,345
Raw,231,671,345
Raw,80,671,345
Raw,15,671,345
Raw,128,672,345
Raw,279,674,345
Raw,265,675,345
Raw,291,679,345
Raw,256,680,345
Raw,276,682,345
Raw,262,683,345
Raw,154,685,345
Raw,219,687,345
Raw,265,688,345
Raw,269,689,345
Raw,288,691,345
Raw,282,693,345
Raw,235,694,345
Raw,273,695,345
Raw,278,697,345
Raw,245,698,345
Raw,264,703,345
Raw,225,704,345
Raw,275,705,345
Raw,253,706,345
Raw,277,710,345
Raw,150,711,345
Raw,273,712,345
Raw,271,713,345
Raw,240,714,345
Raw,281,715,345
Raw,251,717,345
Raw,184,718,345
Raw,261,719,345
Raw,263,720,345
Raw,151,721,345
Raw,148,722,345
Raw,237,724,345
Raw,261,725,345
Raw,274,727,345
Raw,243,728,345
Raw,75,731,345
Raw,236,732,345
Raw,283,735,345
Raw,193,736,345
Raw,292,737,345
Raw,190,738,345
Raw,209,739,345
Raw,266,742,345
Raw,321,743,345
Raw,275,744,345
Raw,168,748,345
Raw,258,749,345
Raw,272,750,345
Raw,290,751,345
Raw,656,752,345
Raw,232,753,345
Raw,210,754,345
Raw,164,755,345
Raw,163,756,345
Raw,76,758,345
Raw,280,760,345
Raw,266,761,345
Raw,280,763,345
Raw,126,764,345
Raw,233,766,345
Raw,275,767,345
Raw,750,769,345
Raw,245,771,345
Raw,286,773,345
Raw,159,774,345
Raw,185,776,345
Raw,202,778,345
Raw,267,781,345
Raw,253,785,345
Raw,259,786,345
Raw,267,788,345
Raw,223,790,345
Raw,287,791,345
Raw,183,793,345
Raw,265,794,345
Raw,274,796,345
Raw,283,800,345
Raw,241,801,345
Raw,268,803,345
Raw,259,804,345
Raw,271,805,345
Raw,254,806,345
Raw,140,807,345
Raw,224,808,345
Raw,163,809,345
Raw,275,811,345
Raw,271,812,345
Raw,304,813,345
Raw,276,814,345
Raw,276,815,345
Raw,295,816,345
Raw,253,817,345
Raw,294,818,345
Raw,219,819,345
Raw,246,820,345
Raw,226,822,345
Raw,277,823,345
Raw,232,824,345
Raw,256,825,345
Raw,251,827,345
Raw,270,828,345
Raw,271,829,345
Raw,290,832,345
Raw,206,833,345
Raw,263,835,345
Raw,233,836,345
Raw,223,839,345
Raw,255,840,345
Raw,223,841,345
Raw,266,842,345
Raw,289,843,345
Raw,46,843,345
Raw,241,844,345
Raw,266,846,345
Raw,279,848,345
Raw,246,849,345
Raw,188,850,345
Raw,206,851,345
Raw,269,852,345
Raw,272,853,345
Raw,237,854,345
Raw,114,855,345
Raw,170,858,345
Raw,123,859,345
Raw,269,861,345
Raw,241,862,345
Raw,244,863,345
Raw,271,865,345
Raw,326,867,345
Raw,221,868,345
Raw,261,870,345
Raw,220,871,345
Raw,284,872,345
Raw,278,873,345
Raw,161,873,345
Raw,252,874,345
Raw,293,875,345
Raw,249,876,345
Raw,255,877,345
Raw,216,878,345
Raw,242,879,345
Raw,180,880,345
Raw,257,881,345
Raw,264,882,345
Raw,262,883,345
Raw,183,884,345
Raw,240,885,345
Raw,290,888,345
Raw,182,889,345
Raw,281,891,345
Raw,139,892,345
Raw,89,895,345
Raw,220,896,345
Raw,231,897,345
Raw,176,898,345
Raw,230,901,345
Raw,292,902,345
Raw,285,903,345
Raw,274,904,345
Raw,201,905,345
Raw,253,907,345
Raw,244,911,345
Raw,239,912,345
Raw,278,913,345
Raw,286,915,345
Raw,247,916,345
Raw,267,918,345
Raw,228,919,345
Raw,245,921,345
Raw,284,924,345
Raw,183,925,345
Raw,242,926,345
Raw,297,930,345
Raw,237,931,345
Raw,181,936,345
Raw,272,937,345
Raw,267,938,345
Raw,259,939,345
Raw,271,940,345
Raw,156,944,345
Raw,148,945,345
Raw,97,948,345
Raw,180,949,345
Raw,243,950,345
Raw,171,951,345
Raw,186,952,345
Raw,174,953,345
Raw,253,956,345
Raw,278,962,345
Raw,171,963,345
Raw,271,964,345
Raw,229,966,345
Raw,235,967,345
Raw,272,968,345
Raw,235,969,345
Raw,202,972,345
Raw,205,973,345
Raw,164,974,345
Raw,272,977,345
Raw,172,979,345
Raw,250,980,345
Raw,254,981,345
Raw,256,982,345
Raw,43,984,345
Raw,227,985,345
Raw,261,986,345
Raw,95,987,345
Raw,247,989,345
Raw,284,990,345
Raw,201,991,345
Raw,251,993,345
Raw,92,993,345
Raw,215,994,345
Raw,265,995,345
Raw,243,997,345
Raw,250,998,345
Raw,255,1000,345
Raw,254,1005,345
Raw,282,1006,345
Raw,327,1007,345
Raw,294,1008,345
Raw,254,1009,345
Raw,200,1010,345
Raw,86,1012,345
Raw,253,1013,345
Raw,270,1015,345
Raw,252,1017,345
Raw,272,1018,345
Raw,242,1021,345
Raw,262,1022,345
Raw,298,1025,345
Raw,123,1026,345
Raw,268,1027,345
Raw,212,1029,345
Raw,241,1031,345
Raw,243,1032,345
Raw,274,1033,345
Raw,144,1034,345
Raw,197,1035,345
Raw,228,1039,345
Raw,306,1040,345
Raw,128,1041,345
Raw,108,1042,345
Raw,231,1043,345
Raw,263,1046,345
Raw,171,1047,345
Raw,148,1048,345
Raw,174,1050,345
Raw,126,1053,345
Raw,268,1055,345
Raw,255,1056,345
Raw,188,1057,345
Raw,163,1058,345
Raw,274,1059,345
Raw,273,1061,345
Raw,286,1062,345
Raw,255,1063,345
Raw,139,1064,345
Raw,237,1065,345
Raw,287,1066,345
Raw,464,1067,345
Raw,229,1067,345
Raw,252,1068,345
Raw,260,1070,345
Raw,139,1071,345
Raw,159,1072,345
Raw,220,1073,345
Raw,11,1073,345
Raw,246,1074,345
Raw,240,1076,345
Raw,274,1077,345
Raw,178,1078,345
Raw,268,1079,345
Raw,106,1080,345
Raw,238,1081,345
Raw,294,1082,345
Raw,254,1083,345
Raw,182,1086,345
Raw,283,1087,345
Raw,190,1088,345
Raw,266,1089,345
Raw,185,1090,345
Raw,154,1091,345
Raw,212,1092,345
Raw,253,1094,345
Raw,248,1095,345
Raw,164,1097,345
Raw,102,1097,345
Raw,257,1098,345
Raw,257,1099,345
Raw,300,1100,345
Raw,280,1101,345
Raw,263,1105,345
Raw,242,1106,345
Raw,136,1111,345
Raw,250,1113,345
Raw,211,1115,345
Raw,257,1117,345
Raw,290,1118,345
Raw,228,1120,345
Raw,232,1121,345
Raw,252,1122,345
Raw,272,1125,345
Raw,278,1126,345
Raw,287,1127,345
Raw,250,1129,345
Raw,261,1130,345
Raw,249,1131,345
Raw,283,1132,345
Raw,128,1133,345
Raw,182,1134,345
Raw,252,1135,345
Raw,175,1136,345
Raw,269,1137,345
Raw,108,1139,345
Raw,282,1142,345
Raw,320,1143,345
Raw,239,1144,345
Raw,269,1147,345
Raw,14,1149,345
Raw,38,1149,345
Raw,210,1150,345
Raw,212,1152,345
Raw,282,1153,345
Raw,185,1153,345
Raw,282,1154,345
Raw,283,1155,345
Raw,118,1157,345
Raw,123,1160,345
Raw,226,1162,345
Raw,227,1163,345
Raw,228,1164,345
Raw,229,1165,345
Raw,195,1166,345
Raw,49,1167,345
Raw,287,1168,345
Raw,171,1170,345
Raw,204,1173,345
Raw,303,1174,345
Raw,96,1176,345
Raw,243,1177,345
Raw,255,1178,345
Raw,255,1179,345
Raw,138,1180,345
Raw,246,1181,345
Raw,253,1182,345
Raw,240,1183,345
Raw,214,1184,345
Raw,270,1186,345
Raw,273,1187,345
Raw,178,1188,345
Raw,166,1189,345
Raw,220,1190,345
Raw,233,1193,345
Raw,295,1194,345
Raw,255,1195,345
Raw,209,1196,345
Raw,250,1197,345
Raw,293,1198,345
Raw,252,1200,345
Raw,485,1202,345
Raw,256,1203,345
Raw,232,1205,345
Raw,281,1208,345
Raw,186,1209,345
Raw,208,1210,345
Raw,248,1212,345
Raw,133,1214,345
Raw,119,1215,345
Raw,168,1216,345
Raw,259,1217,345
Raw,264,1218,345
Raw,228,1219,345
Raw,398,1222,345
Raw,232,1225,345
Raw,249,1226,345
Raw,256,1227,345
Raw,303,1228,345
Raw,267,1230,345
Raw,292,1231,345
Raw,268,1232,345
Raw,256,1233,345
Raw,152,1236,345
Raw,274,1238,345
Raw,86,1239,345
Raw,252,1241,345
Raw,257,1242,345
Raw,184,1244,345
Raw,272,1246,345
Raw,239,1247,345
Raw,276,1250,345
Raw,766,1251,345
Raw,279,1252,345
Raw,181,1253,345
Raw,117,1256,345
Raw,342,1257,345
Raw,110,1259,345
Raw,84,1259,345
Raw,258,1260,345
Raw,214,1262,345
Raw,177,1265,345
Raw,249,1266,345
Raw,210,1267,345
Raw,269,1268,345
Raw,108,1270,345
Raw,296,1271,345
Raw,250,1272,345
Raw,246,1275,345
Raw,286,1277,345
Raw,253,1278,345
Raw,266,1279,345
Raw,286,1280,345
Raw,194,1281,345
Raw,273,1287,345
Raw,283,1290,345
Raw,482,1292,345
Raw,252,1293,345
Raw,120,1294,345
Raw,179,1295,345
Raw,254,1296,345
Raw,274,1297,345
Raw,243,1298,345
Raw,315,1299,345
Raw,247,1300,345
Raw,268,1303,345
Raw,276,1305,345
Raw,213,1307,345
Raw,279,1308,345
Raw,239,1309,345
Raw,232,1311,345
Raw,279,1312,345
Raw,22,1314,345
Raw,272,1316,345
Raw,242,1317,345
Raw,150,1319,345
Raw,195,1321,345
Raw,120,1322,345
Raw,505,1325,345
Raw,250,1327,345
Raw,220,1329,345
Raw,240,1332,345
Raw,267,1333,345
Raw,187,1334,345
Raw,456,1335,345
Raw,224,1336,345
Raw,161,1338,345
Raw,255,1339,345
Raw,281,1340,345
Raw,270,1341,345
Raw,255,1344,345
Raw,279,1346,345
Raw,157,1348,345
Raw,83,1348,345
Raw,252,1351,345
Raw,200,1352,345
Raw,259,1353,345
Raw,273,1354,345
Raw,276,1355,345
Raw,262,1357,345
Raw,256,1359,345
Raw,240,1366,345
Raw,245,1367,345
Raw,284,1368,345
Raw,245,1371,345
Raw,245,1372,345
Raw,258,1373,345
Raw,319,1375,345
Raw,227,1376,345
Raw,287,1377,345
Raw,301,1378,345
Raw,271,1379,345
Raw,173,1380,345
Raw,104,1380,345
Raw,262,1381,345
Raw,158,1382,345
Raw,288,1383,345
Raw,225,1384,345
Raw,68,1385,345
Raw,255,1386,345
Raw,265,1387,345
Raw,113,1390,345
Raw,279,1391,345
Raw,176,1394,345
Raw,268,1395,345
Raw,265,1396,345
Raw,272,1398,345
Raw,132,1399,345
Raw,292,1400,345
Raw,237,1402,345
Raw,276,1403,345
Raw,176,1404,345
Raw,189,1405,345
Raw,288,1406,345
Raw,192,1407,345
Raw,258,1408,345
Raw,234,1410,345
Raw,265,1411,345
Raw,246,1413,345
Raw,197,1414,345
Raw,252,1416,345
Raw,227,1417,345
Raw,177,1418,345
Raw,55,1418,345
Raw,271,1419,345
Raw,251,1420,345
Raw,200,1421,345
Raw,170,1422,345
Raw,254,1423,345
Raw,250,1424,345
Raw,266,1425,345
Raw,111,1426,345
Raw,175,1428,345
Raw,148,1431,345
Raw,220,1432,345
Raw,250,1434,345
Raw,281,1435,345
Raw,210,1436,345
Raw,302,1438,345
Raw,174,1439,345
Raw,172,1442,345
Raw,195,1443,345
Raw,231,1444,345
Raw,180,1445,345
Raw,207,1448,345
Raw,223,1450,345
Raw,258,1453,345
Raw,270,1454,345
Raw,197,1456,345
Raw,268,1457,345
Raw,266,1458,345
Raw,143,1459,345
Raw,272,1461,345
Raw,161,1462,345
Raw,214,1464,345
Raw,241,1465,345
Raw,276,1467,345
Raw,151,1468,345
Raw,227,1469,345
Raw,228,1470,345
Raw,241,1473,345
Raw,225,1474,345
Raw,378,1476,345
Raw,280,1476,345
Raw,253,1477,345
Raw,385,1478,345
Raw,250,1480,345
Raw,78,1480,345
Raw,244,1481,345
Raw,151,1482,345
Raw,241,1484,345
Raw,269,1485,345
Raw,184,1486,345
Raw,47,1487,345
Raw,252,1489,345
Raw,263,1491,345
Raw,304,1492,345
Raw,220,1493,345
Raw,248,1494,345
Raw,242,1495,345
Raw,291,1497,345
Raw,94,1498,345
Raw,528,1503,345
Raw,274,1507,345
Raw,196,1509,345
Raw,274,1511,345
Raw,296,1513,345
Raw,277,1514,345
Raw,255,1515,345
Raw,170,1517,345
Raw,216,1518,345
Raw,278,1519,345
Raw,115,1521,345
Raw,106,1523,345
Raw,276,1524,345
Raw,223,1526,345
Raw,29,1529,345
Raw,141,1533,345
Raw,226,1534,345
Raw,180,1535,345
Raw,255,1536,345
Raw,220,1538,345
Raw,236,1544,345
Raw,270,1545,345
Raw,280,1547,345
Raw,285,1548,345
Raw,255,1549,345
Raw,245,1551,345
Raw,96,1553,345
Raw,261,1554,345
Raw,255,1556,345
Raw,463,1557,345
Raw,178,1558,345
Raw,241,1559,345
Raw,279,1560,345
Raw,238,1564,345
Raw,283,1565,345
Raw,262,1567,345
Raw,262,1568,345
Raw,247,1569,345
Raw,264,1571,345
Raw,277,1572,345
Raw,248,1573,345
Raw,167,1574,345
Raw,89,1574,345
Raw,217,1575,345
Raw,261,1576,345
Raw,215,1577,345
Raw,243,1579,345
Raw,273,1580,345
Raw,30,1581,345
Raw,297,1582,345
Raw,184,1583,345
Raw,290,1585,345
Raw,290,1588,345
Raw,226,1589,345
Raw,253,1590,345
Raw,164,1591,345
Raw,220,1592,345
Raw,155,1593,345
Raw,245,1594,345
Raw,278,1596,345
Raw,289,1599,345
Raw,163,1601,345
Raw,270,1604,345
Raw,241,1605,345
Raw,225,1607,345
Raw,79,1608,345
Raw,266,1609,345
Raw,146,1610,345
Raw,275,1612,345
Raw,186,1615,345
Raw,272,1616,345
Raw,235,1617,345
Raw,719,1618,345
Raw,280,1620,345
Raw,233,1621,345
Raw,259,1622,345
Raw,279,1623,345
Raw,279,1624,345
Raw,259,1625,345
Raw,660,1626,345
Raw,258,1627,345
Raw,282,1628,345
Raw,265,1629,345
Raw,170,1631,345
Raw,155,1632,345
Raw,109,1632,345
Raw,235,1634,345
Raw,275,1635,345
Raw,147,1636,345
Raw,16,1637,345
Raw,95,1638,345
Raw,265,1639,345
Raw,222,1640,345
Raw,279,1641,345
Raw,160,1643,345
Raw,264,1644,345
Raw,263,1645,345
Raw,253,1646,345
Raw,117,1647,345
Raw,299,1648,345
Raw,261,1650,345
Raw,248,1651,345
Raw,172,1652,345
Raw,265,1655,345
Raw,233,1656,345
Raw,172,1659,345
Raw,165,1661,345
Raw,179,1662,345
Raw,267,1663,345
Raw,178,1664,345
Raw,269,1665,345
Raw,292,1666,345
Raw,274,1667,345
Raw,213,1668,345
Raw,211,1669,345
Raw,266,1670,345
Raw,260,1671,345
Raw,195,1672,345
Raw,225,1673,345
Raw,300,1674,345
Raw,189,1675,345
Raw,256,1678,345
Raw,118,1679,345
Raw,271,1680,345
Raw,124,1681,345
Raw,3,1681,345
Raw,283,1682,345
Raw,257,1683,345
Raw,163,1686,345
Raw,218,1687,345
Raw,262,1689,345
Raw,259,1691,345
Raw,712,1692,345
Raw,171,1693,345
Raw,51,1694,345
Raw,206,1695,345
Raw,103,1698,345
Raw,241,1699,345
Raw,201,1701,345
Raw,225,1703,345
Raw,261,1704,345
Raw,234,1705,345
Raw,497,1706,345
Raw,213,1707,345
Raw,209,1708,345
Raw,159,1709,345
Raw,244,1711,345
Raw,260,1712,345
Raw,265,1714,345
Raw,269,1715,345
Raw,281,1716,345
Raw,203,1717,345
Raw,250,1719,345
Raw,263,1720,345
Raw,263,1722,345
Raw,272,1723,345
Raw,245,1724,345
Raw,271,1726,345
Raw,176,1727,345
Raw,162,1728,345
Raw,267,1729,345
Raw,290,1731,345
Raw,247,1732,345
Raw,282,1733,345
Raw,178,1734,345
Raw,253,1736,345
Raw,244,1739,345
Raw,263,1740,345
Raw,261,1741,345
Raw,258,1743,345
Raw,163,1744,345
Raw,253,1745,345
Raw,237,1746,345
Raw,238,1748,345
Raw,234,1749,345
Raw,262,1750,345
Raw,234,1751,345
Raw,229,1757,345
Raw,213,1758,345
Raw,245,1759,345
Raw,265,1760,345
Raw,262,1764,345
Raw,278,1766,345
Raw,234,1767,345
Raw,271,1768,345
Raw,276,1769,345
Raw,287,1770,345
Raw,203,1771,345
Raw,218,1772,345
Raw,280,1773,345
Raw,247,1774,345
Raw,164,1775,345
Raw,129,1776,345
Raw,241,1779,345
Raw,245,1780,345
Raw,262,1781,345
Raw,251,1785,345
Raw,207,1786,345
Raw,145,1788,345
Raw,278,1790,345
Raw,232,1792,345
Raw,264,1795,345
Raw,259,1797,345
Raw,208,1798,345
Raw,237,1802,345
Raw,238,1803,345
Raw,272,1805,345
Raw,197,1807,345
Raw,261,1808,345
Raw,281,1810,345
Raw,166,1811,345
Raw,188,1812,345
Raw,255,1813,345
Raw,236,1814,345
Raw,289,1816,345
Raw,177,1817,345
Raw,275,1818,345
Raw,252,1820,345
Raw,116,1821,345
Raw,264,1822,345
Raw,152,1824,345
Raw,236,1825,345
Raw,291,1826,345
Raw,259,1827,345
Raw,291,1829,345
Raw,177,1837,345
Raw,243,1838,345
Raw,245,1840,345
Raw,287,1841,345
Raw,261,1842,345
Raw,158,1843,345
Raw,265,1844,345
Raw,251,1845,345
Raw,151,1846,345
Raw,242,1847,345
Raw,164,1848,345
Raw,250,1850,345
Raw,282,1855,345
Raw,241,1856,345
Raw,290,1857,345
Raw,214,1858,345
Raw,277,1859,345
Raw,272,1860,345
Raw,68,1861,345
Raw,683,1863,345
Raw,269,1864,345
Raw,250,1866,345
Raw,249,1867,345
Raw,202,1869,345
Raw,277,1870,345
Raw,225,1871,345
Raw,123,1872,345
Raw,208,1874,345
Raw,310,1875,345
Raw,113,1878,345
Raw,157,1881,345
Raw,111,1882,345
Raw,277,1884,345
Raw,258,1885,345
Raw,280,1890,345
Raw,162,1891,345
Raw,40,1892,345
Raw,247,1897,345
Raw,269,1900,345
Raw,263,1902,345
Raw,181,1903,345
Raw,262,1904,345
Raw,247,1905,345
Raw,237,1906,345
Raw,161,1909,345
Raw,226,1910,345
Raw,94,1911,345
Raw,176,1913,345
Raw,268,1915,345
Raw,267,1917,345
Raw,167,1920,345
Raw,192,1921,345
Raw,224,1922,345
Raw,287,1925,345
Raw,229,1926,345
Raw,255,1928,345
Raw,266,1929,345
Raw,263,1931,345
Raw,280,1933,345
Raw,232,1934,345
Raw,263,1935,345
Raw,159,1936,345
Raw,267,1938,345
Raw,304,1939,345
Raw,41,1940,345
Raw,285,1942,345
Raw,199,1946,345
Raw,488,1947,345
Raw,267,1949,345
Raw,523,1950,345
Raw,309,1952,345
Raw,266,1954,345
Raw,249,1956,345
Raw,215,1957,345
Raw,272,1959,345
Raw,244,1960,345
Raw,207,1961,345
Raw,288,1964,345
Raw,164,1965,345
Raw,218,1966,345
Raw,251,1967,345
Raw,249,1968,345
Raw,224,1969,345
Raw,246,1969,345
Raw,55,1970,345
Raw,247,1972,345
Raw,256,1973,345
Raw,260,1976,345
Raw,236,1977,345
Raw,269,1980,345
Raw,290,1982,345
Raw,221,1983,345
Raw,252,1986,345
Raw,265,1987,345
Raw,268,1989,345
Raw,278,1990,345
Raw,259,1991,345
Raw,119,1993,345
Raw,256,1995,345
Raw,281,1996,345
Raw,277,1997,345
Raw,236,1998,345
Raw,312,1999,345
Raw,288,2000,345
Raw,193,2004,345
Raw,263,2005,345
Raw,123,2006,345
Raw,288,2007,345
Raw,225,2008,345
Raw,196,2009,345
Raw,305,2010,345
Raw,259,2011,345
Raw,261,2013,345
Raw,170,2014,345
Raw,261,2015,345
Raw,263,2016,345
Raw,165,2017,345
Raw,265,2018,345
Raw,271,2019,345
Raw,780,2021,345
Raw,151,2022,345
Raw,114,2025,345
Raw,252,2026,345
Raw,279,2027,345
Raw,22,2027,345
Raw,249,2028,345
Raw,241,2030,345
Raw,252,2031,345
Raw,243,2033,345
Raw,249,2034,345
Raw,265,2035,345
Raw,301,2037,345
Raw,106,2038,345
Raw,275,2039,345
Raw,268,2040,345
Raw,277,2043,345
Raw,473,2044,345
Raw,289,2046,345
Raw,263,2048,345
Raw,245,2049,345
Raw,226,2050,345
Raw,237,2051,345
Raw,231,2054,345
Raw,25,2054,345
Raw,146,2055,345
Raw,281,2056,345
Raw,231,2060,345
Raw,170,2061,345
Raw,245,2062,345
Raw,251,2064,345
Raw,124,2065,345
Raw,94,2066,345
Raw,171,2066,345
Raw,183,2067,345
Raw,258,2068,345
Raw,283,2069,345
Raw,198,2070,345
Raw,266,2072,345
Raw,253,2073,345
Raw,248,2076,345
Raw,158,2079,345
Raw,189,2080,345
Raw,109,2081,345
Raw,271,2082,345
Raw,91,2085,345
Raw,262,2086,345
Raw,273,2088,345
Raw,256,2089,345
Raw,242,2091,345
Raw,234,2093,345
Raw,242,2094,345
Raw,267,2095,345
Raw,659,2096,345
Raw,240,2096,345
Raw,184,2098,345
Raw,300,2099,345
Raw,228,2100,345
Raw,234,2101,345
Raw,175,2102,345
Raw,277,2103,345
Raw,177,2104,345
Raw,267,2105,345
Raw,278,2106,345
Raw,164,2107,345
Raw,281,2108,345
Raw,243,2110,345
Raw,287,2111,345
Raw,258,2112,345
Raw,260,2113,345
Raw,257,2114,345
Raw,290,2117,345
Raw,271,2118,345
Raw,375,2119,345
Raw,252,2119,345
Raw,275,2120,345
Raw,262,2121,345
Raw,266,2122,345
Raw,225,2124,345
Raw,270,2125,345
Raw,261,2126,345
Raw,764,2128,345
Raw,253,2129,345
Raw,177,2131,345
Raw,159,2133,345
Raw,275,2135,345
Raw,217,2136,345
Raw,217,2137,345
Raw,247,2141,345
Raw,121,2142,345
Raw,124,2143,345
Raw,249,2144,345
Raw,245,2146,345
Raw,105,2147,345
Raw,234,2149,345
Raw,5,2149,345
Raw,265,2151,345
Raw,240,2154,345
Raw,256,2155,345
Raw,141,2157,345
Raw,263,2158,345
Raw,269,2159,345
Raw,174,2163,345
Raw,176,2165,345
Raw,266,2166,345
Raw,235,2167,345
Raw,138,2168,345
Raw,274,2169,345
Raw,307,2170,345
Raw,205,2172,345
Raw,274,2173,345
Raw,258,2174,345
Raw,350,2175,345
Raw,271,2176,345
Raw,80,2177,345
Raw,146,2178,345
Raw,162,2179,345
Raw,232,2180,345
Raw,280,2182,345
Raw,97,2183,345
Raw,275,2184,345
Raw,151,2185,345
Raw,236,2186,345
Raw,300,2187,345
Raw,122,2188,345
Raw,221,2190,345
Raw,199,2191,345
Raw,604,2192,345
Raw,232,2193,345
Raw,291,2194,345
Raw,230,2196,345
Raw,283,2199,345
Raw,150,2200,345
Raw,262,2201,345
Raw,161,2202,345
Raw,210,2203,345
Raw,274,2204,345
Raw,130,2205,345
Raw,312,2206,345
Raw,190,2208,345
Raw,234,2209,345
Raw,267,2212,345
Raw,151,2213,345
Raw,149,2215,345
Raw,227,2217,345
Raw,277,2218,345
Raw,158,2222,345
Raw,232,2223,345
Raw,217,2225,345
Raw,241,2226,345
Raw,269,2227,345
Raw,247,2229,345
Raw,154,2230,345
Raw,540,2231,345
Raw,278,2234,345
Raw,70,2234,345
Raw,270,2236,345
Raw,232,2237,345
Raw,252,2239,345
Raw,272,2240,345
Raw,202,2241,345
Raw,244,2242,345
Raw,262,2244,345
Raw,130,2245,345
Raw,270,2246,345
Raw,256,2247,345
Raw,222,2252,345
Raw,137,2253,345
Raw,156,2254,345
Raw,3,2254,345
Raw,205,2256,345
Raw,188,2258,345
Raw,290,2259,345
Raw,259,2260,345
Raw,272,2261,345
Raw,287,2262,345
Raw,279,2263,345
Raw,226,2265,345
Raw,256,2266,345
Raw,198,2268,345
Raw,207,2269,345
Raw,171,2270,345
Raw,164,2271,345
Raw,267,2274,345
Raw,230,2275,345
Raw,204,2276,345
Raw,163,2277,345
Raw,264,2278,345
Raw,255,2280,345
Raw,287,2283,345
Raw,259,2284,345
Raw,295,2285,345
Raw,264,2286,345
Raw,243,2287,345
Raw,288,2288,345
Raw,163,2289,345
Raw,239,2290,345
Raw,227,2293,345
Raw,266,2294,345
Raw,289,2296,345
Raw,215,2298,345
Raw,204,2300,345
Raw,228,2301,345
Raw,264,2302,345
Raw,267,2303,345
Raw,258,2304,345
Raw,233,2306,345
Raw,226,2307,345
Raw,272,2308,345
Raw,277,2310,345
Raw,287,2311,345
Raw,260,2312,345
Raw,263,2313,345
Raw,258,2315,345
Raw,300,2316,345
Raw,182,2317,345
Raw,242,2318,345
Raw,112,2320,345
Raw,263,2321,345
Raw,263,2322,345
Raw,182,2323,345
Raw,254,2324,345
Raw,246,2326,345
Raw,270,2327,345
Raw,267,2328,345
Raw,118,2329,345
Raw,248,2330,345
Raw,257,2331,345
Raw,313,2332,345
Raw,27,2332,345
Raw,277,2333,345
Raw,258,2341,345
Raw,198,2343,345
Raw,279,2348,345
Raw,219,2349,345
Raw,190,2352,345
Raw,152,2353,345
Raw,135,2354,345
Raw,281,2356,345
Raw,286,2357,345
Raw,258,2358,345
Raw,237,2359,345
Raw,263,2360,345
Raw,247,2361,345
Raw,216,2362,345
Raw,39,2363,345
Raw,127,2364,345
Raw,141,2365,345
Raw,299,2366,345
Raw,169,2367,345
Raw,186,2369,345
Raw,278,2370,345
Raw,138,2371,345
Raw,100,2372,345
Raw,244,2374,345
Raw,245,2377,345
Raw,200,2378,345
Raw,270,2381,345
Raw,201,2382,345
Raw,299,2383,345
Raw,279,2384,345
Raw,220,2385,345
Raw,256,2388,345
Raw,205,2389,345
Raw,256,2390,345
Raw,267,2391,345
Raw,166,2392,345
Raw,104,2393,345
Raw,270,2394,345
Raw,244,2397,345
Raw,261,2399,345
Raw,220,2400,345
Raw,234,2401,345
Raw,274,2402,345
Raw,256,2403,345
Raw,268,2407,345
Raw,225,2408,345
Raw,177,2409,345
Raw,478,2410,345
Raw,208,2411,345
Raw,201,2412,345
Raw,253,2414,345
Raw,165,2415,345
Raw,45,2415,345
Raw,273,2417,345
Raw,281,2419,345
Raw,242,2421,345
Raw,274,2422,345
Raw,177,2423,345
Raw,314,2424,345
Raw,280,2425,345
Raw,497,2426,345
Raw,261,2426,345
Raw,212,2429,345
Raw,255,2430,345
Raw,236,2433,345
Raw,257,2435,345
Raw,294,2436,345
Raw,160,2437,345
Raw,228,2438,345
Raw,267,2439,345
Raw,252,2440,345
Raw,250,2441,345
Raw,428,2442,345
Raw,172,2445,345
Raw,263,2446,345
Raw,262,2447,345
Raw,242,2449,345
Raw,277,2450,345
Raw,217,2452,345
Raw,52,2452,345
Raw,93,2453,345
Raw,248,2454,345
Raw,236,2455,345
Raw,273,2456,345
Raw,274,2461,345
Raw,263,2462,345
Raw,266,2463,345
Raw,213,2464,345
Raw,271,2466,345
Raw,75,2467,345
Raw,264,2468,345
Raw,61,2468,345
Raw,211,2469,345
Raw,242,2470,345
Raw,240,2471,345
Raw,250,2473,345
Raw,269,2476,345
Raw,170,2477,345
Raw,268,2478,345
Raw,230,2479,345
Raw,228,2480,345
Raw,204,2481,345
Raw,225,2482,345
Raw,242,2484,345
Raw,253,2485,345
Raw,208,2486,345
Raw,242,2487,345
Raw,285,2488,345
Raw,197,2489,345
Raw,290,2490,345
Raw,241,2492,345
Raw,330,2493,345
Raw,135,2496,345
Raw,218,2497,345
Raw,228,2499,345
Raw,529,2499,345
Raw,98,2500,345
Raw,258,2501,345
Raw,244,2502,345
Raw,270,2503,345
Raw,257,2504,345
Raw,268,2506,345
Raw,270,2507,345
Raw,260,2509,345
Raw,197,2510,345
Raw,269,2515,345
Raw,235,2516,345
Raw,237,2517,345
Raw,281,2519,345
Raw,268,2520,345
Raw,258,2521,345
Raw,245,2522,345
Raw,172,2523,345
Raw,215,2524,345
Raw,268,2525,345
Raw,237,2526,345
Raw,269,2527,345
Raw,354,2528,345
Raw,797,2528,345
Raw,227,2529,345
Raw,269,2531,345
Raw,278,2533,345
Raw,253,2534,345
Raw,277,2536,345
Raw,272,2538,345
Raw,274,2540,345
Raw,168,2541,345
Raw,151,2542,345
Raw,269,2543,345
Raw,207,2545,345
Raw,277,2546,345
Raw,261,2547,345
Raw,116,2552,345
Raw,234,2553,345
Raw,281,2554,345
Raw,266,2556,345
Raw,276,2557,345
Raw,247,2558,345
Raw,297,2560,345
Raw,271,2561,345
Raw,237,2562,345
Raw,79,2563,345
Raw,272,2564,345
Raw,187,2566,345
Raw,266,2567,345
Raw,167,2568,345
Raw,55,2569,345
Raw,246,2572,345
Raw,243,2573,345
Raw,109,2578,345
Raw,280,2579,345
Raw,43,2579,345
Raw,8,2579,345
Raw,200,2580,345
Raw,260,2582,345
Raw,298,2585,345
Raw,100,2586,345
Raw,270,2588,345
Raw,258,2589,345
Raw,284,2590,345
Raw,242,2591,345
Raw,191,2592,345
Raw,141,2593,345
Raw,269,2596,345
Raw,266,2598,345
Raw,105,2599,345
Raw,223,2600,345
Raw,285,2601,345
Raw,245,2602,345
Raw,243,2604,345
Raw,84,2604,345
Raw,264,2605,345
Raw,403,2606,345
Raw,272,2607,345
Raw,472,2608,345
Raw,248,2609,345
Raw,251,2610,345
Raw,164,2611,345
Raw,277,2612,345
Raw,268,2613,345
Raw,255,2614,345
Raw,160,2616,345
Raw,270,2617,345
Raw,266,2625,345
Raw,269,2626,345
Raw,241,2627,345
Raw,260,2629,345
Raw,272,2631,345
Raw,220,2634,345
Raw,244,2635,345
Raw,259,2636,345
Raw,238,2637,345
Raw,358,2639,345
Raw,267,2639,345
Raw,172,2640,345
Raw,239,2641,345
Raw,289,2642,345
Raw,173,2643,345
Raw,287,2646,345
Raw,178,2649,345
Raw,263,2650,345
Raw,165,2651,345
Raw,283,2652,345
Raw,202,2653,345
Raw,203,2655,345
Raw,187,2656,345
Raw,240,2657,345
Raw,238,2658,345
Raw,266,2659,345
Raw,261,2660,345
Raw,264,2661,345
Raw,98,2661,345
Raw,9,2661,345
Raw,273,2663,345
Raw,256,2665,345
Raw,286,2668,345
Raw,158,2670,345
Raw,253,2671,345
Raw,216,2672,345
Raw,267,2673,345
Raw,249,2674,345
Raw,242,2676,345
Raw,244,2677,345
Raw,272,2678,345
Raw,176,2680,345
Raw,62,2680,345
Raw,195,2681,345
Raw,277,2682,345
Raw,261,2683,345
Raw,179,2684,345
Raw,256,2686,345
Raw,262,2687,345
Raw,239,2688,345
Raw,172,2689,345
Raw,276,2690,345
Raw,266,2691,345
Raw,189,2692,345
Raw,265,2695,345
Raw,286,2696,345
Raw,244,2697,345
Raw,267,2699,345
Raw,270,2702,345
Raw,136,2705,345
Raw,268,2706,345
Raw,233,2707,345
Raw,277,2708,345
Raw,288,2710,345
Raw,253,2714,345
Raw,290,2715,345
Raw,164,2717,345
Raw,112,2718,345
Raw,239,2719,345
Raw,274,2720,345
Raw,165,2721,345
Raw,84,2721,345
Raw,264,2722,345
Raw,250,2724,345
Raw,226,2725,345
Raw,236,2729,345
Raw,275,2731,345
Raw,255,2732,345
Raw,273,2733,345
Raw,267,2735,345
Raw,142,2736,345
Raw,228,2738,345
Raw,295,2739,345
Raw,282,2740,345
Raw,228,2741,345
Raw,273,2743,345
Raw,184,2745,345
Raw,267,2746,345
Raw,304,2747,345
Raw,274,2748,345
Raw,266,2749,345
Raw,277,2750,345
Raw,254,2751,345
Raw,299,2754,345
Raw,248,2755,345
Raw,78,2758,345
Raw,280,2760,345
Raw,238,2761,345
Raw,269,2762,345
Raw,267,2763,345
Raw,249,2764,345
Raw,225,2765,345
Raw,223,2766,345
Raw,268,2767,345
Raw,87,2768,345
Raw,166,2769,345
Raw,278,2771,345
Raw,276,2772,345
Raw,232,2775,345
Raw,243,2776,345
Raw,214,2777,345
Raw,265,2779,345
Raw,209,2780,345
Raw,28,2783,345
Raw,123,2787,345
Raw,108,2788,345
Raw,471,2788,345
Raw,179,2793,345
Raw,483,2794,345
Raw,250,2797,345
Raw,281,2799,345
Raw,295,2800,345
Raw,212,2801,345
Raw,276,2803,345
Raw,103,2804,345
Raw,241,2805,345
Raw,277,2806,345
Raw,116,2807,345
Raw,268,2810,345
Raw,284,2812,345
Raw,250,2813,345
Raw,196,2817,345
Raw,259,2818,345
Raw,270,2820,345
Raw,233,2822,345
Raw,265,2824,345
Raw,286,2825,345
Raw,301,2826,345
Raw,185,2828,345
Raw,253,2829,345
Raw,255,2830,345
Raw,148,2831,345
Raw,295,2833,345
Raw,148,2834,345
Raw,188,2835,345
Raw,260,2836,345
Raw,259,2837,345
Raw,223,2838,345
Raw,245,2839,345
Raw,277,2840,345
Raw,152,2841,345
Raw,256,2842,345
Raw,259,2843,345
Raw,237,2844,345
Raw,272,2846,345
Raw,256,2847,345
Raw,300,2849,345
Raw,221,2850,345
Raw,264,2855,345
Raw,198,2856,345
Raw,156,2857,345
Raw,303,2858,345
Raw,232,2859,345
Raw,234,2860,345
Raw,138,2861,345
Raw,247,2864,345
Raw,161,2866,345
Raw,268,2866,345
Raw,25,2866,345
Raw,273,2868,345
Raw,120,2869,345
Raw,232,2870,345
Raw,269,2871,345
Raw,243,2873,345
Raw,254,2874,345
Raw,238,2875,345
Raw,213,2876,345
Raw,163,2877,345
Raw,263,2879,345
Raw,232,2881,345
Raw,248,2882,345
Raw,168,2883,345
Raw,306,2884,345
Raw,279,2886,345
Raw,253,2889,345
Raw,238,2891,345
Raw,253,2894,345
Raw,282,2895,345
Raw,125,2898,345
Raw,257,2899,345
Raw,258,2900,345
Raw,136,2901,345
Raw,160,2901,345
Raw,187,2902,345
Raw,325,2903,345
Raw,238,2904,345
Raw,225,2906,345
Raw,327,2908,345
Raw,225,2909,345
Raw,194,2910,345
Raw,271,2911,345
Raw,268,2912,345
Raw,147,2914,345
Raw,176,2915,345
Raw,264,2917,345
Raw,213,2918,345
Raw,243,2920,345
Raw,263,2922,345
Raw,133,2923,345
Raw,246,2924,345
Raw,176,2925,345
Raw,276,2926,345
Raw,268,2928,345
Raw,277,2929,345
Raw,246,2931,345
Raw,168,2932,345
Raw,241,2933,345
Raw,269,2934,345
Raw,260,2935,345
Raw,165,2936,345
Raw,257,2941,345
Raw,203,2942,345
Raw,260,2943,345
Raw,257,2944,345
Raw,249,2945,345
Raw,49,2945,345
Raw,39,2946,345
Raw,42,2946,345
Raw,54,2948,345
Raw,244,2949,345
Raw,258,2950,345
Raw,205,2951,345
Raw,178,2952,345
Raw,252,2953,345
Raw,275,2954,345
Raw,131,2955,345
Raw,243,2956,345
Raw,285,2958,345
Raw,171,2959,345
Raw,297,2960,345
Raw,276,2962,345
Raw,260,2963,345
Raw,263,2964,345
Raw,280,2965,345
Raw,246,2966,345
Raw,262,2967,345
Raw,261,2968,345
Raw,58,2968,345
Raw,242,2969,345
Raw,677,2970,345
Raw,192,2971,345
Raw,222,2973,345
Raw,261,2975,345
Raw,196,2976,345
Raw,267,2978,345
Raw,244,2981,345
Raw,250,2982,345
Raw,241,2983,345
Raw,251,2985,345
Raw,229,2987,345
Raw,191,2988,345
Raw,277,2989,345
Raw,222,2990,345
Raw,233,2991,345
Raw,455,2993,345
Raw,242,2994,345
Raw,273,2996,345
Raw,288,2998,345
Raw,270,2999,345
Raw,239,3006,345
Raw,243,3007,345
Raw,237,3008,345
Raw,123,3009,345
Raw,289,3010,345
Raw,270,3012,345
Raw,279,3013,345
Raw,277,3014,345
Raw,262,3015,345
Raw,251,3016,345
Raw,181,3017,345
Raw,174,3018,345
Raw,217,3019,345
Raw,64,3019,345
Raw,245,3020,345
Raw,38,3020,345
Raw,260,3022,345
Raw,244,3023,345
Raw,267,3024,345
Raw,244,3025,345
Raw,190,3027,345
Raw,112,3028,345
Raw,274,3029,345
Raw,222,3031,345
Raw,250,3034,345
Raw,237,3035,345
Raw,217,3036,345
Raw,274,3037,345
Raw,213,3039,345
Raw,122,3040,345
Raw,244,3041,345
Raw,250,3042,345
Raw,249,3046,345
Raw,262,3047,345
Raw,186,3048,345
Raw,145,3049,345
Raw,177,3051,345
Raw,262,3053,345
Raw,243,3054,345
Raw,231,3056,345
Raw,246,3057,345
Raw,197,3058,345
Raw,46,3058,345
Raw,163,3059,345
Raw,260,3060,345
Raw,152,3062,345
Raw,233,3063,345
Raw,237,3064,345
Raw,287,3067,345
Raw,177,3073,345
Raw,260,3074,345
Raw,253,3075,345
Raw,261,3076,345
Raw,277,3078,345
Raw,176,3079,345
Raw,263,3080,345
Raw,219,3084,345
Raw,253,3086,345
Raw,154,3087,345
Raw,272,3089,345
Raw,242,3090,345
Raw,200,3091,345
Raw,252,3094,345
Raw,281,3095,345
Raw,257,3096,345
Raw,194,3097,345
Raw,198,3099,345
Raw,165,3101,345
Raw,279,3105,345
Raw,260,3106,345
Raw,83,3107,345
Raw,276,3110,345
Raw,284,3111,345
Raw,212,3112,345
Raw,284,3113,345
Raw,247,3114,345
Raw,272,3115,345
Raw,284,3116,345
Raw,251,3118,345
Raw,202,3119,345
Raw,262,3122,345
Raw,241,3125,345
Raw,265,3126,345
Raw,529,3127,345
Raw,167,3131,345
Raw,265,3132,345
Raw,248,3133,345
Raw,244,3136,345
Raw,215,3137,345
Raw,273,3139,345
Raw,280,3140,345
Raw,244,3141,345
Raw,106,3142,345
Raw,255,3143,345
Raw,190,3144,345
Raw,205,3146,345
Raw,159,3147,345
Raw,241,3148,345
Raw,262,3149,345
Raw,258,3151,345
Raw,275,3152,345
Raw,22,3153,345
Raw,237,3155,345
Raw,259,3157,345
Raw,139,3158,345
Raw,248,3159,345
Raw,341,3160,345
Raw,309,3162,345
Raw,175,3164,345
Raw,111,3166,345
Raw,227,3167,345
Raw,191,3168,345
Raw,183,3175,345
Raw,245,3177,345
Raw,268,3180,345
Raw,158,3181,345
Raw,171,3182,345
Raw,253,3186,345
Raw,168,3187,345
Raw,272,3188,345
Raw,12,3189,345
Raw,350,3190,345
Raw,257,3192,345
Raw,238,3193,345
Raw,260,3194,345
Raw,278,3195,345
Raw,149,3196,345
Raw,252,3197,345
Raw,291,3198,345
Raw,198,3199,345
Raw,247,3200,345
Raw,160,3201,345
Raw,289,3203,345
Raw,276,3204,345
Raw,4,3204,345
Raw,290,3205,345
Raw,140,3206,345
Raw,288,3207,345
Raw,234,3211,345
Raw,252,3212,345
Raw,100,3213,345
Raw,158,3214,345
Raw,232,3215,345
Raw,245,3219,345
Raw,232,3222,345
Raw,268,3223,345
Raw,195,3225,345
Raw,235,3227,345
Raw,267,3228,345
Raw,214,3229,345
Raw,211,3231,345
Raw,265,3232,345
Raw,271,3235,345
Raw,415,3236,345
Raw,240,3237,345
Raw,244,3239,345
Raw,269,3240,345
Raw,99,3241,345
Raw,137,3242,345
Raw,211,3244,345
Raw,218,3246,345
Raw,249,3247,345
Raw,223,3249,345
Raw,92,3250,345
Raw,248,3251,345
Raw,113,3252,345
Raw,267,3253,345
Raw,210,3254,345
Raw,269,3255,345
Raw,139,3256,345
Raw,191,3258,345
Raw,104,3260,345
Raw,244,3262,345
Raw,274,3265,345
Raw,248,3266,345
Raw,211,3267,345
Raw,95,3268,345
Raw,267,3268,345
Raw,176,3270,345
Raw,268,3271,345
Raw,239,3272,345
Raw,258,3273,345
Raw,703,3274,345
Raw,517,3275,345
Raw,233,3276,345
Raw,189,3277,345
Raw,427,3279,345
Raw,247,3279,345
Raw,232,3280,345
Raw,468,3281,345
Raw,157,3281,345
Raw,174,3282,345
Raw,256,3285,345
Raw,246,3288,345
Raw,256,3290,345
Raw,245,3292,345
Raw,244,3293,345
Raw,266,3294,345
Raw,283,3296,345
Raw,207,3297,345
Raw,32,3298,345
Raw,282,3301,345
Raw,240,3304,345
Raw,251,3305,345
Raw,265,3307,345
Raw,224,3308,345
Raw,539,3309,345
Raw,286,3311,345
Raw,246,3313,345
Raw,210,3315,345
Raw,267,3316,345
Raw,275,3317,345
Raw,238,3318,345
Raw,266,3319,345
Raw,256,3320,345
Raw,247,3321,345
Raw,195,3322,345
Raw,267,3325,345
Raw,290,3328,345
Raw,258,3329,345
Raw,276,3330,345
Raw,223,3331,345
Raw,175,3332,345
Raw,297,3333,345
Raw,248,3335,345
Raw,263,3337,345
Raw,198,3339,345
Raw,262,3342,345
Raw,243,3345,345
Raw,241,3346,345
Raw,188,3348,345
Raw,267,3350,345
Raw,259,3352,345
Raw,224,3356,345
Raw,102,3358,345
Raw,170,3359,345
Raw,250,3360,345
Raw,66,3360,345
Raw,224,3361,345
Raw,226,3362,345
Raw,542,3363,345
Raw,622,3363,345
Raw,239,3364,345
Raw,5,3366,345
Raw,275,3367,345
Raw,237,3369,345
Raw,222,3370,345
Raw,257,3371,345
Raw,260,3373,345
Raw,103,3374,345
Raw,269,3376,345
Raw,161,3377,345
Raw,149,3378,345
Raw,227,3379,345
Raw,123,3380,345
Raw,265,3383,345
Raw,222,3384,345
Raw,188,3388,345
Raw,285,3390,345
Raw,298,3391,345
Raw,190,3392,345
Raw,240,3394,345
Raw,267,3395,345
Raw,231,3396,345
Raw,135,3397,345
Raw,7,3397,345
Raw,225,3398,345
Raw,158,3399,345
Raw,245,3400,345
Raw,220,3403,345
Raw,262,3404,345
Raw,40,3405,345
Raw,91,3405,345
Raw,274,3406,345
Raw,263,3407,345
Raw,192,3408,345
Raw,288,3409,345
Raw,271,3412,345
Raw,206,3413,345
Raw,236,3414,345
Raw,249,3415,345
Raw,260,3418,345
Raw,271,3419,345
Raw,231,3420,345
Raw,274,3421,345
Raw,242,3422,345
Raw,155,3424,345
Raw,285,3426,345
Raw,254,3427,345
Raw,269,3428,345
Raw,285,3430,345
Raw,187,3432,345
Raw,272,3434,345
Raw,237,3435,345
Raw,237,3436,345
Raw,209,3438,345
Raw,493,3439,345
Raw,293,3440,345
Raw,199,3441,345
Raw,267,3442,345
Raw,274,3443,345
Raw,259,3444,345
Raw,152,3446,345
Raw,133,3447,345
Raw,269,3448,345
Raw,177,3450,345
Raw,198,3452,345
Raw,257,3453,345
Raw,270,3454,345
Raw,49,3454,345
Raw,150,3455,345
Raw,288,3459,345
Raw,274,3460,345
Raw,186,3462,345
Raw,437,3463,345
Raw,243,3464,345
Raw,286,3465,345
Raw,197,3466,345
Raw,153,3470,345
Raw,249,3471,345
Raw,362,3472,345
Raw,234,3473,345
Raw,267,3474,345
Raw,250,3475,345
Raw,181,3476,345
Raw,265,3477,345
Raw,290,3479,345
Raw,254,3481,345
Raw,63,3482,345
Raw,248,3483,345
Raw,239,3488,345
Raw,266,3489,345
Raw,232,3490,345
Raw,285,3494,345
Raw,247,3495,345
Raw,270,3496,345
Raw,294,3499,345
Raw,270,3500,345
Raw,286,3502,345
Raw,153,3505,345
Raw,250,3506,345
Raw,239,3507,345
Raw,197,3509,345
Raw,268,3510,345
Raw,176,3511,345
Raw,244,3512,345
Raw,270,3513,345
Raw,252,3515,345
Raw,254,3518,345
Raw,102,3519,345
Raw,193,3520,345
Raw,191,3521,345
Raw,13,3521,345
Raw,89,3522,345
Raw,226,3523,345
Raw,109,3524,345
Raw,240,3525,345
Raw,260,3528,345
Raw,176,3529,345
Raw,248,3530,345
Raw,181,3531,345
Raw,77,3531,345
Raw,311,3533,345
Raw,283,3535,345
Raw,226,3536,345
Raw,135,3537,345
Raw,250,3538,345
Raw,279,3539,345
Raw,223,3541,345
Raw,132,3542,345
Raw,223,3544,345
Raw,105,3545,345
Raw,143,3547,345
Raw,256,3548,345
Raw,210,3549,345
Raw,159,3550,345
Raw,200,3552,345
Raw,8,3552,345
Raw,258,3554,345
Raw,260,3556,345
Raw,274,3557,345
Raw,232,3558,345
Raw,183,3559,345
Raw,95,3561,345
Raw,107,3562,345
Raw,122,3566,345
Raw,221,3569,345
Raw,259,3570,345
Raw,274,3574,345
Raw,262,3575,345
Raw,227,3577,345
Raw,252,3578,345
Raw,227,3579,345
Raw,270,3580,345
Raw,201,3581,345
Raw,244,3582,345
Raw,224,3583,345
Raw,264,3584,345
Raw,169,3585,345
Raw,166,3586,345
Raw,271,3587,345
Raw,746,3589,345
Raw,165,3591,345
Raw,287,3592,345
Raw,273,3593,345
Raw,147,3594,345
Raw,199,3595,345
Raw,254,3596,345
Raw,224,3599,345
Raw,283,3600,345
Raw,56,3601,345
Raw,211,3602,345
Raw,269,3604,345
Raw,266,3607,345
Raw,247,3608,345
Raw,189,3609,345
Raw,227,3610,345
Raw,266,3611,345
Raw,242,3613,345
Raw,10,3613,345
Raw,188,3614,345
Raw,229,3619,345
Raw,231,3622,345
Raw,205,3623,345
Raw,142,3624,345
Raw,276,3625,345
Raw,246,3626,345
Raw,124,3627,345
Raw,248,3628,345
Raw,261,3630,345
Raw,339,3631,345
Raw,3,3632,345
Raw,249,3633,345
Raw,248,3635,345
Raw,350,3638,345
Raw,277,3641,345
Raw,211,3642,345
Raw,232,3647,345
Raw,254,3651,345
Raw,231,3652,345
Raw,217,3655,345
Raw,149,3656,345
Raw,205,3657,345
Raw,248,3658,345
Raw,366,3659,345
Raw,234,3659,345
Raw,279,3660,345
Raw,174,3661,345
Raw,178,3662,345
Raw,369,3664,345
Raw,236,3665,345
Raw,140,3667,345
Raw,233,3669,345
Raw,192,3672,345
Raw,228,3674,345
Raw,248,3675,345
Raw,442,3676,345
Raw,216,3676,345
Raw,253,3677,345
Raw,184,3678,345
Raw,300,3679,345
Raw,247,3681,345
Raw,177,3682,345
Raw,265,3684,345
Raw,212,3685,345
Raw,272,3686,345
Raw,130,3687,345
Raw,699,3688,345
Raw,253,3689,345
Raw,311,3694,345
Raw,289,3695,345
Raw,192,3696,345
Raw,300,3697,345
Raw,255,3698,345
Raw,226,3702,345
Raw,159,3703,345
Raw,259,3705,345
Raw,275,3707,345
Raw,251,3708,345
Raw,512,3709,345
Raw,80,3709,345
Raw,123,3710,345
Raw,284,3711,345
Raw,244,3713,345
Raw,275,3714,345
Raw,198,3715,345
Raw,307,3717,345
Raw,240,3719,345
Raw,174,3721,345
Raw,188,3722,345
Raw,155,3723,345
Raw,268,3724,345
Raw,269,3725,345
Raw,262,3726,345
Raw,129,3727,345
Raw,245,3728,345
Raw,243,3729,345
Raw,258,3731,345
Raw,186,3732,345
Raw,241,3733,345
Raw,245,3734,345
Raw,10,3736,345
Raw,265,3737,345
Raw,234,3738,345
Raw,281,3739,345
Raw,239,3740,345
Raw,251,3741,345
Raw,243,3742,345
Raw,103,3742,345
Raw,97,3743,345
Raw,112,3743,345
Raw,242,3744,345
Raw,262,3745,345
Raw,234,3746,345
Raw,266,3747,345
Raw,187,3748,345
Raw,236,3749,345
Raw,123,3750,345
Raw,249,3752,345
Raw,191,3754,345
Raw,284,3755,345
Raw,198,3756,345
Raw,288,3758,345
Raw,270,3761,345
Raw,275,3762,345
Raw,273,3763,345
Raw,267,3765,345
Raw,185,3766,345
Raw,175,3767,345
Raw,155,3768,345
Raw,267,3771,345
Raw,290,3772,345
Raw,251,3773,345
Raw,236,3774,345
Raw,127,3775,345
Raw,232,3776,345
Raw,280,3777,345
Raw,231,3778,345
Raw,225,3780,345
Raw,261,3781,345
Raw,253,3782,345
Raw,278,3783,345
Raw,225,3784,345
Raw,263,3785,345
Raw,217,3786,345
Raw,208,3787,345
Raw,262,3788,345
Raw,270,3790,345
Raw,108,3791,345
Raw,297,3792,345
Raw,235,3794,345
Raw,110,3795,345
Raw,276,3797,345
Raw,170,3798,345
Raw,275,3801,345
Raw,219,3803,345
Raw,252,3804,345
Raw,245,3806,345
Raw,254,3807,345
Raw,239,3808,345
Raw,258,3812,345
Raw,283,3813,345
Raw,201,3815,345
Raw,266,3816,345
Raw,211,3817,345
Raw,259,3819,345
Raw,137,3820,345
Raw,240,3821,345
Raw,165,3823,345
Raw,229,3826,345
Raw,231,3827,345
Raw,200,3829,345
Raw,181,3830,345
Raw,277,3832,345
Raw,258,3833,345
Raw,192,3834,345
Raw,295,3838,345
Raw,468,3842,345
Raw,229,3842,345
Raw,208,3845,345
Raw,272,3847,345
Raw,254,3849,345
Raw,261,3850,345
Raw,187,3853,345
Raw,121,3854,345
Raw,263,3855,345
Raw,251,3859,345
Raw,263,3862,345
Raw,211,3864,345
Raw,112,3865,345
Raw,220,3867,345
Raw,238,3869,345
Raw,266,3870,345
Raw,294,3875,345
Raw,187,3879,345
Raw,280,3880,345
Raw,246,3881,345
Raw,227,3885,345
Raw,253,3886,345
Raw,162,3887,345
Raw,268,3888,345
Raw,272,3890,345
Raw,282,3891,345
Raw,269,3896,345
Raw,185,3897,345
Raw,212,3900,345
Raw,235,3901,345
Raw,276,3902,345
Raw,269,3903,345
Raw,208,3904,345
Raw,269,3905,345
Raw,280,3906,345
Raw,255,3912,345
Raw,211,3913,345
Raw,151,3914,345
Raw,165,3915,345
Raw,223,3916,345
Raw,284,3917,345
Raw,269,3918,345
Raw,243,3919,345
Raw,260,3920,345
Raw,235,3921,345
Raw,206,3922,345
Raw,282,3924,345
Raw,291,3925,345
Raw,254,3926,345
Raw,306,3927,345
Raw,254,3929,345
Raw,260,3931,345
Raw,288,3932,345
Raw,275,3933,345
Raw,131,3935,345
Raw,243,3937,345
Raw,283,3938,345
Raw,236,3940,345
Raw,269,3941,345
Raw,279,3942,345
Raw,244,3944,345
Raw,139,3945,345
Raw,219,3946,345
Raw,73,3947,345
Raw,362,3947,345
Raw,202,3950,345
Raw,257,3951,345
Raw,174,3953,345
Raw,236,3955,345
Raw,253,3956,345
Raw,163,3957,345
Raw,235,3959,345
Raw,72,3959,345
Raw,154,3961,345
Raw,39,3962,345
Raw,212,3964,345
Raw,280,3966,345
Raw,272,3967,345
Raw,252,3969,345
Raw,106,3970,345
Raw,268,3971,345
Raw,244,3972,345
Raw,254,3973,345
Raw,438,3974,345
Raw,279,3976,345
Raw,201,3977,345
Raw,288,3978,345
Raw,216,3980,345
Raw,219,3981,345
Raw,263,3982,345
Raw,234,3983,345
Raw,248,3986,345
Raw,265,3987,345
Raw,261,3993,345
Raw,211,3994,345
Raw,190,3995,345
Raw,119,3996,345
Raw,205,3999,345
Raw,264,4000,345
Raw,278,4001,345
Raw,241,4002,345
Raw,265,4003,345
Raw,269,4004,345
Raw,287,4005,345
Raw,237,4006,345
Raw,256,4009,345
Raw,110,4012,345
Raw,269,4013,345
Raw,259,4014,345
Raw,268,4015,345
Raw,293,4016,345
Raw,247,4018,345
Raw,253,4019,345
Raw,254,4021,345
Raw,248,4022,345
Raw,281,4023,345
Raw,279,4024,345
Raw,267,4025,345
Raw,245,4026,345
Raw,182,4027,345
Raw,651,4029,345
Raw,222,4030,345
Raw,264,4034,345
Raw,232,4036,345
Raw,278,4038,345
Raw,255,4041,345
Raw,269,4043,345
Raw,3,4045,345
Raw,238,4046,345
Raw,247,4047,345
Raw,200,4048,345
Raw,142,4049,345
Raw,249,4050,345
Raw,235,4052,345
Raw,296,4053,345
Raw,162,4054,345
Raw,240,4057,345
Raw,245,4059,345
Raw,263,4060,345
Raw,248,4061,345
Raw,24,4061,345
Raw,263,4062,345
Raw,228,4063,345
Raw,74,4063,345
Raw,228,4065,345
Raw,255,4066,345
Raw,290,4067,345
Raw,117,4070,345
Raw,258,4071,345
Raw,252,4072,345
Raw,147,4073,345
Raw,213,4074,345
Raw,260,4075,345
Raw,291,4077,345
Raw,257,4078,345
Raw,276,4079,345
Raw,241,4081,345
Raw,162,4082,345
Raw,148,4083,345
Raw,271,4087,345
Raw,134,4088,345
Raw,252,4089,345
Raw,270,4090,345
Raw,197,4091,345
Raw,294,4094,345
Raw,262,4095,345
Raw,162,4096,345
Raw,219,4096,345
Raw,261,4097,345
Raw,259,4098,345
Raw,260,4103,345
Raw,235,4104,345
Raw,236,4105,345
Raw,264,4106,345
Raw,256,4107,345
Raw,248,4108,345
Raw,204,4110,345
Raw,207,4112,345
Raw,271,4113,345
Raw,250,4114,345
Raw,205,4115,345
Raw,216,4120,345
Raw,255,4121,345
Raw,249,4123,345
Raw,223,4124,345
Raw,86,4124,345
Raw,54,4125,345
Raw,269,4126,345
Raw,258,4127,345
Raw,246,4128,345
Raw,179,4129,345
Raw,277,4131,345
Raw,226,4133,345
Raw,180,4134,345
Raw,244,4135,345
Raw,258,4139,345
Raw,151,4140,345
Raw,221,4141,345
Raw,254,4142,345
Raw,197,4143,345
Raw,266,4146,345
Raw,270,4147,345
Raw,262,4149,345
Raw,258,4151,345
Raw,274,4152,345
Raw,259,4153,345
Raw,214,4158,345
Raw,248,4159,345
Raw,197,4160,345
Raw,266,4165,345
Raw,162,4166,345
Raw,263,4167,345
Raw,260,4173,345
Raw,274,4176,345
Raw,266,4179,345
Raw,247,4180,345
Raw,195,4181,345
Raw,7,4181,345
Raw,283,4182,345
Raw,546,4183,345
Raw,241,4186,345
Raw,276,4187,345
Raw,307,4189,345
Raw,284,4192,345
Raw,297,4193,345
Raw,137,4196,345
Raw,169,4200,345
Raw,203,4201,345
Raw,248,4204,345
Raw,270,4205,345
Raw,231,4206,345
Raw,261,4207,345
Raw,32,4207,345
Raw,271,4208,345
Raw,284,4209,345
Raw,122,4209,345
Raw,287,4213,345
Raw,252,4214,345
Raw,281,4215,345
Raw,184,4216,345
Raw,252,4217,345
Raw,161,4218,345
Raw,268,4219,345
Raw,260,4220,345
Raw,246,4221,345
Raw,284,4222,345
Raw,265,4224,345
Raw,176,4225,345
Raw,232,4226,345
Raw,133,4229,345
Raw,297,4233,345
Raw,149,4234,345
Raw,75,4242,345
Raw,248,4243,345
Raw,266,4248,345
Raw,211,4249,345
Raw,265,4250,345
Raw,268,4251,345
Raw,201,4252,345
Raw,249,4253,345
Raw,240,4254,345
Raw,272,4256,345
Raw,249,4257,345
Raw,139,4258,345
Raw,203,4260,345
Raw,144,4261,345
Raw,165,4262,345
Raw,273,4263,345
Raw,266,4265,345
Raw,288,4267,345
Raw,147,4268,345
Raw,138,4271,345
Raw,23,4274,345
Raw,242,4278,345
Raw,220,4281,345
Raw,247,4282,345
Raw,218,4285,345
Raw,254,4286,345
Raw,265,4287,345
Raw,264,4290,345
Raw,209,4292,345
Raw,292,4293,345
Raw,234,4294,345
Raw,219,4297,345
Raw,66,4299,345
Raw,264,4300,345
Raw,243,4301,345
Raw,169,4302,345
Raw,274,4303,345
Raw,7,4303,345
Raw,168,4304,345
Raw,142,4306,345
Raw,156,4307,345
Raw,277,4308,345
Raw,240,4309,345
Raw,245,4311,345
Raw,286,4312,345
Raw,266,4313,345
Raw,250,4315,345
Raw,273,4316,345
Raw,169,4317,345
Raw,227,4319,345
Raw,200,4320,345
Raw,213,4322,345
Raw,258,4323,345
Raw,280,4324,345
Raw,279,4325,345
Raw,243,4327,345
Raw,218,4329,345
Raw,143,4330,345
Raw,248,4332,345
Raw,82,4334,345
Raw,275,4336,345
Raw,278,4337,345
Raw,139,4341,345
Raw,285,4342,345
Raw,137,4343,345
Raw,232,4345,345
Raw,242,4346,345
Raw,246,4347,345
Raw,204,4348,345
Raw,244,4351,345
Raw,94,4352,345
Raw,409,4353,345
Raw,120,4353,345
Raw,254,4357,345
Raw,165,4359,345
Raw,168,4361,345
Raw,430,4362,345
Raw,259,4363,345
Raw,253,4366,345
Raw,64,4368,345
Raw,284,4369,345
Raw,149,4370,345
Raw,159,4373,345
Raw,488,4378,345
Raw,436,4379,345
Raw,264,4387,345
Raw,232,4388,345
Raw,140,4391,345
Raw,144,4393,345
Raw,272,4394,345
Raw,282,4397,345
Raw,268,4398,345
Raw,272,4399,345
Raw,233,4400,345
Raw,126,4402,345
Raw,570,4404,345
Raw,173,4404,345
Raw,265,4407,345
Raw,285,4408,345
Raw,249,4409,345
Raw,483,4416,345
Raw,279,4417,345
Raw,272,4423,345
Raw,395,4424,345
Raw,198,4425,345
Raw,259,4426,345
Raw,257,4435,345
Raw,283,4436,345
Raw,133,4438,345
Raw,550,4440,345
Raw,149,4440,345
Raw,118,4441,345
Raw,279,4442,345
Raw,178,4443,345
Raw,254,4444,345
Raw,102,4447,345
Raw,265,4449,345
Raw,197,4451,345
Raw,178,4453,345
Raw,197,4455,345
Raw,248,4456,345
Raw,278,4458,345
Raw,86,4459,345
Raw,252,4461,345
Raw,263,4462,345
Raw,239,4465,345
Raw,690,4467,345
Raw,316,4468,345
Raw,149,4470,345
Raw,266,4473,345
Raw,285,4475,345
Raw,308,4476,345
Raw,155,4477,345
Raw,91,4479,345
Raw,109,4480,345
Raw,176,4483,345
Raw,206,4484,345
Raw,284,4485,345
Raw,21,4485,345
Raw,688,4488,345
Raw,236,4489,345
Raw,335,4489,345
Raw,139,4489,345
Raw,230,4490,345
Raw,186,4491,345
Raw,115,4493,345
Raw,373,4494,345
Raw,106,4495,345
Raw,266,4497,345
Raw,248,4501,345
Raw,71,4501,345
Raw,166,4502,345
Raw,262,4503,345
Raw,260,4504,345
Raw,265,4507,345
Raw,270,4510,345
Raw,196,4512,345
Raw,198,4514,345
Raw,225,4515,345
Raw,180,4516,345
Raw,245,4518,345
Raw,208,4520,345
Raw,302,4521,345
Raw,257,4523,345
Raw,266,4524,345
Raw,259,4525,345
Raw,262,4528,345
Raw,69,4528,345
Raw,296,4532,345
Raw,74,4533,345
Raw,269,4534,345
Raw,190,4535,345
Raw,230,4536,345
Raw,251,4538,345
Raw,226,4539,345
Raw,288,4540,345
Raw,111,4541,345
Raw,261,4545,345
Raw,194,4548,345
Raw,134,4549,345
Raw,240,4550,345
Raw,780,4554,345
Raw,245,4555,345
Raw,261,4558,345
Raw,254,4560,345
Raw,89,4561,345
Raw,247,4565,345
Raw,228,4569,345
Raw,152,4570,345
Raw,200,4572,345
Raw,195,4574,345
Raw,263,4575,345
Raw,272,4576,345
Raw,249,4578,345
Raw,262,4579,345
Raw,266,4580,345
Raw,189,4583,345
Raw,265,4584,345
Raw,88,4585,345
Raw,203,4586,345
Raw,175,4587,345
Raw,277,4588,345
Raw,42,4589,345
Raw,173,4590,345
Raw,265,4591,345
Raw,251,4593,345
Raw,267,4593,345
Raw,256,4595,345
Raw,217,4596,345
Raw,273,4597,345
Raw,245,4599,345
Raw,245,4600,345
Raw,27,4602,345
Raw,173,4604,345
Raw,278,4605,345
Raw,102,4606,345
Raw,152,4608,345
Raw,244,4610,345
Raw,263,4612,345
Raw,169,4613,345
Raw,158,4615,345
Raw,277,4616,345
Raw,161,4618,345
Raw,164,4620,345
Raw,260,4621,345
Raw,267,4623,345
Raw,286,4627,345
Raw,214,4628,345
Raw,244,4629,345
Raw,251,4630,345
Raw,279,4631,345
Raw,274,4635,345
Raw,264,4637,345
Raw,275,4638,345
Raw,243,4640,345
Raw,266,4641,345
Raw,125,4642,345
Raw,250,4643,345
Raw,275,4644,345
Raw,215,4648,345
Raw,7,4654,345
Raw,241,4655,345
Raw,254,4656,345
Raw,248,4658,345
Raw,199,4659,345
Raw,280,4665,345
Raw,258,4666,345
Raw,236,4667,345
Raw,260,4670,345
Raw,169,4673,345
Raw,283,4674,345
Raw,278,4675,345
Raw,193,4678,345
Raw,247,4681,345
Raw,66,4681,345
Raw,108,4682,345
Raw,270,4685,345
Raw,272,4686,345
Raw,276,4687,345
Raw,287,4688,345
Raw,11,4688,345
Raw,295,4691,345
Raw,276,4696,345
Raw,273,4698,345
Raw,251,4702,345
Raw,218,4706,345
Raw,288,4708,345
Raw,163,4709,345
Raw,264,4711,345
Raw,274,4714,345
Raw,242,4715,345
Raw,248,4716,345
Raw,235,4717,345
Raw,150,4718,345
Raw,141,4719,345
Raw,269,4721,345
Raw,229,4722,345
Raw,266,4723,345
Raw,285,4725,345
Raw,174,4726,345
Raw,241,4727,345
Raw,472,4729,345
Raw,137,4730,345
Raw,174,4731,345
Raw,229,4732,345
Raw,248,4735,345
Raw,584,4738,345
Raw,269,4739,345
Raw,252,4740,345
Raw,110,4741,345
Raw,283,4742,345
Raw,211,4743,345
Raw,194,4745,345
Raw,249,4746,345
Raw,275,4748,345
Raw,138,4749,345
Raw,294,4750,345
Raw,61,4751,345
Raw,223,4753,345
Raw,242,4757,345
Raw,262,4759,345
Raw,229,4760,345
Raw,240,4761,345
Raw,91,4765,345
Raw,214,4767,345
Raw,99,4769,345
Raw,272,4770,345
Raw,182,4773,345
Raw,274,4775,345
Raw,248,4776,345
Raw,280,4777,345
Raw,276,4778,345
Raw,169,4779,345
Raw,90,4779,345
Raw,266,4784,345
Raw,297,4787,345
Raw,230,4788,345
Raw,310,4790,345
Raw,223,4791,345
Raw,230,4792,345
Raw,291,4793,345
Raw,277,4794,345
Raw,135,4795,345
Raw,241,4797,345
Raw,219,4797,345
Raw,264,4798,345
Raw,282,4802,345
Raw,38,4802,345
Raw,112,4804,345
Raw,158,4805,345
Raw,215,4806,345
Raw,269,4809,345
Raw,231,4810,345
Raw,230,4811,345
Raw,231,4812,345
Raw,158,4813,345
Raw,254,4814,345
Raw,277,4816,345
Raw,267,4817,345
Raw,194,4819,345
Raw,228,4820,345
Raw,58,4820,345
Raw,169,4822,345
Raw,231,4824,345
Raw,281,4825,345
Raw,119,4829,345
Raw,288,4830,345
Raw,228,4832,345
Raw,128,4833,345
Raw,216,4835,345
Raw,521,4836,345
Raw,293,4837,345
Raw,157,4837,345
Raw,194,4840,345
Raw,265,4844,345
Raw,185,4846,345
Raw,166,4849,345
Raw,293,4850,345
Raw,260,4852,345
Raw,257,4854,345
Raw,251,4856,345
Raw,268,4858,345
Raw,309,4860,345
Raw,272,4862,345
Raw,135,4867,345
Raw,254,4868,345
Raw,158,4871,345
Raw,132,4872,345
Raw,275,4874,345
Raw,278,4875,345
Raw,174,4876,345
Raw,250,4880,345
Raw,235,4882,345
Raw,222,4883,345
Raw,11,4885,345
Raw,262,4886,345
Raw,258,4888,345
Raw,182,4891,345
Raw,310,4892,345
Raw,300,4893,345
Raw,274,4894,345
Raw,273,4895,345
Raw,224,4896,345
Raw,128,4898,345
Raw,299,4899,345
Raw,173,4900,345
Raw,248,4901,345
Raw,246,4902,345
Raw,170,4904,345
Raw,224,4906,345
Raw,246,4911,345
Raw,220,4913,345
Raw,265,4916,345
Raw,259,4918,345
Raw,219,4919,345
Raw,33,4921,345
Raw,127,4922,345
Raw,249,4923,345
Raw,265,4924,345
Raw,270,4925,345
Raw,157,4926,345
Raw,236,4929,345
Raw,263,4931,345
Raw,175,4933,345
Raw,177,4936,345
Raw,217,4937,345
Raw,260,4938,345
Raw,290,4940,345
Raw,32,4941,345
Raw,158,4944,345
Raw,148,4945,345
Raw,291,4946,345
Raw,296,4947,345
Raw,251,4949,345
Raw,297,4951,345
Raw,231,4952,345
Raw,186,4955,345
Raw,281,4957,345
Raw,263,4958,345
Raw,226,4960,345
Raw,276,4961,345
Raw,301,4962,345
Raw,259,4964,345
Raw,155,4965,345
Raw,237,4970,345
Raw,222,4971,345
Raw,217,4972,345
Raw,143,4973,345
Raw,310,4974,345
Raw,264,4975,345
Raw,103,4976,345
Raw,285,4978,345
Raw,87,4981,345
Raw,265,4982,345
Raw,226,4983,345
Raw,218,4984,345
Raw,276,4985,345
Raw,149,4987,345
Raw,259,4990,345
Raw,271,4991,345
Raw,264,4992,345
Raw,181,4993,345
Raw,221,4994,345
Raw,291,4995,345
Raw,238,4996,345
Raw,284,4997,345
Raw,278,4998,345
Raw,272,4999,345
Raw,181,5000,345
Raw,99,5001,345
Raw,221,5002,345
Raw,268,5004,345
Raw,278,5006,345
Raw,245,5007,345
Raw,279,5008,345
Raw,89,5010,345
Raw,64,5011,345
Raw,266,5012,345
Raw,261,5014,345
Raw,151,5016,345
Raw,279,5018,345
Raw,261,5019,345
Raw,258,5020,345
Raw,302,5022,345
Raw,240,5023,345
Raw,280,5027,345
Raw,240,5029,345
Raw,185,5033,345
Raw,287,5034,345
Raw,234,5035,345
Raw,246,5036,345
Raw,161,5037,345
Raw,496,5038,345
Raw,239,5039,345
Raw,292,5040,345
Raw,269,5041,345
Raw,294,5042,345
Raw,214,5043,345
Raw,149,5044,345
Raw,273,5045,345
Raw,242,5046,345
Raw,268,5048,345
Raw,260,5050,345
Raw,150,5054,345
Raw,264,5055,345
Raw,298,5057,345
Raw,224,5058,345
Raw,276,5059,345
Raw,218,5060,345
Raw,93,5063,345
Raw,218,5064,345
Raw,216,5066,345
Raw,729,5069,345
Raw,274,5070,345
Raw,237,5072,345
Raw,274,5073,345
Raw,789,5076,345
Raw,153,5077,345
Raw,245,5078,345
Raw,304,5080,345
Raw,139,5081,345
Raw,230,5082,345
Raw,213,5083,345
Raw,298,5084,345
Raw,254,5085,345
Raw,364,5088,345
Raw,220,5089,345
Raw,62,5089,345
Raw,265,5090,345
Raw,160,5093,345
Raw,136,5094,345
Raw,243,5095,345
Raw,364,5097,345
Raw,283,5098,345
Raw,277,5099,345
Raw,283,5100,345
Raw,231,5101,345
Raw,7,5102,345
Raw,310,5103,345
Raw,264,5104,345
Raw,158,5106,345
Raw,131,5109,345
Raw,227,5110,345
Raw,221,5112,345
Raw,164,5114,345
Raw,32,5116,345
Raw,236,5117,345
Raw,270,5119,345
Raw,171,5120,345
Raw,280,5121,345
Raw,284,5123,345
Raw,54,5123,345
Raw,257,5124,345
Raw,276,5125,345
Raw,281,5128,345
Raw,256,5129,345
Raw,259,5131,345
Raw,292,5133,345
Raw,265,5135,345
Raw,229,5136,345
Raw,240,5137,345
Raw,231,5138,345
Raw,216,5139,345
Raw,243,5140,345
Raw,280,5142,345
Raw,265,5144,345
Raw,246,5145,345
Raw,156,5146,345
Raw,339,5148,345
Raw,113,5150,345
Raw,109,5151,345
Raw,205,5153,345
Raw,240,5154,345
Raw,256,5155,345
Raw,242,5156,345
Raw,263,5157,345
Raw,269,5158,345
Raw,221,5159,345
Raw,258,5160,345
Raw,298,5161,345
Raw,233,5162,345
Raw,216,5163,345
Raw,264,5164,345
Raw,230,5165,345
Raw,274,5166,345
Raw,292,5169,345
Raw,248,5170,345
Raw,65,5170,345
Raw,268,5171,345
Raw,242,5172,345
Raw,282,5173,345
Raw,283,5174,345
Raw,249,5175,345
Raw,246,5176,345
Raw,218,5177,345
Raw,258,5179,345
Raw,181,5180,345
Raw,303,5183,345
Raw,213,5186,345
Raw,258,5187,345
Raw,269,5189,345
Raw,251,5190,345
Raw,272,5191,345
Raw,153,5192,345
Raw,262,5195,345
Raw,86,5196,345
Raw,249,5197,345
Raw,329,5198,345
Raw,250,5199,345
Raw,130,5200,345
Raw,229,5202,345
Raw,278,5203,345
Raw,276,5205,345
Raw,254,5206,345
Raw,127,5207,345
Raw,214,5209,345
Raw,162,5211,345
Raw,18,5211,345
Raw,252,5212,345
Raw,156,5213,345
Raw,276,5214,345
Raw,244,5216,345
Raw,156,5217,345
Raw,279,5219,345
Raw,266,5220,345
Raw,217,5221,345
Raw,249,5224,345
Raw,231,5225,345
Raw,86,5227,345
Raw,219,5229,345
Raw,261,5230,345
Raw,218,5232,345
Raw,293,5233,345
Raw,263,5237,345
Raw,699,5239,345
Raw,203,5240,345
Raw,276,5242,345
Raw,195,5244,345
Raw,245,5245,345
Raw,220,5246,345
Raw,266,5248,345
Raw,171,5249,345
Raw,145,5250,345
Raw,136,5251,345
Raw,252,5252,345
Raw,167,5254,345
Raw,115,5254,345
Raw,269,5255,345
Raw,274,5258,345
Raw,270,5260,345
Raw,281,5261,345
Raw,280,5264,345
Raw,210,5267,345
Raw,179,5268,345
Raw,237,5269,345
Raw,91,5270,345
Raw,98,5271,345
Raw,18,5272,345
Raw,268,5273,345
Raw,264,5274,345
Raw,298,5275,345
Raw,140,5276,345
Raw,250,5277,345
Raw,241,5280,345
Raw,275,5282,345
Raw,296,5283,345
Raw,267,5285,345
Raw,232,5287,345
Raw,287,5288,345
Raw,110,5289,345
Raw,251,5290,345
Raw,262,5291,345
Raw,293,5292,345
Raw,281,5293,345
Raw,781,5294,345
Raw,129,5294,345
Raw,233,5297,345
Raw,111,5298,345
Raw,186,5300,345
Raw,237,5301,345
Raw,172,5302,345
Raw,234,5303,345
Raw,259,5304,345
Raw,260,5305,345
Raw,269,5307,345
Raw,309,5309,345
Raw,286,5310,345
Raw,257,5312,345
Raw,24,5312,345
Raw,142,5314,345
Raw,198,5317,345
Raw,197,5318,345
Raw,252,5319,345
Raw,252,5320,345
Raw,283,5321,345
Raw,289,5323,345
Raw,251,5325,345
Raw,251,5327,345
Raw,180,5328,345
Raw,253,5331,345
Raw,154,5332,345
Raw,232,5333,345
Raw,245,5334,345
Raw,169,5335,345
Raw,226,5337,345
Raw,264,5338,345
Raw,147,5339,345
Raw,269,5344,345
Raw,257,5348,345
Raw,230,5349,345
Raw,300,5350,345
Raw,225,5352,345
Raw,239,5355,345
Raw,236,5357,345
Raw,146,5358,345
Raw,252,5359,345
Raw,539,5362,345
Raw,270,5363,345
Raw,266,5364,345
Raw,262,5366,345
Raw,294,5368,345
Raw,284,5369,345
Raw,57,5369,345
Raw,247,5371,345
Raw,269,5372,345
Raw,168,5373,345
Raw,269,5374,345
Raw,205,5375,345
Raw,272,5377,345
Raw,211,5378,345
Raw,262,5380,345
Raw,267,5381,345
Raw,243,5382,345
Raw,241,5383,345
Raw,185,5387,345
Raw,293,5389,345
Raw,173,5391,345
Raw,187,5392,345
Raw,138,5393,345
Raw,184,5394,345
Raw,223,5395,345
Raw,211,5396,345
Raw,265,5397,345
Raw,287,5400,345
Raw,189,5404,345
Raw,250,5406,345
Raw,159,5407,345
Raw,240,5409,345
Raw,267,5410,345
Raw,278,5411,345
Raw,290,5412,345
Raw,187,5414,345
Raw,238,5415,345
Raw,264,5416,345
