Cut?,Counts,eventNumber,runNumber
Raw,331,2,320
Raw,84,10,320
Raw,226,11,320
Raw,93,23,320
Raw,336,25,320
Raw,304,26,320
Raw,327,30,320
Raw,653,39,320
Raw,230,45,320
Raw,31,45,320
Raw,476,48,320
Raw,293,55,320
Raw,620,58,320
Raw,303,62,320
Raw,310,63,320
Raw,142,64,320
Raw,224,66,320
Raw,455,67,320
Raw,564,75,320
Raw,313,76,320
Raw,4,89,320
Raw,322,94,320
Raw,323,100,320
Raw,190,101,320
Raw,25,105,320
Raw,603,108,320
Raw,325,111,320
Raw,267,113,320
Raw,640,116,320
Raw,7,120,320
Raw,210,121,320
Raw,319,135,320
Raw,177,135,320
Raw,322,138,320
Raw,163,140,320
Raw,268,141,320
Raw,302,142,320
Raw,321,148,320
Raw,264,157,320
Raw,298,161,320
Raw,316,164,320
Raw,354,164,320
Raw,308,168,320
Raw,318,173,320
Raw,219,176,320
Raw,344,177,320
Raw,70,183,320
Raw,129,183,320
Raw,207,187,320
Raw,627,191,320
Raw,209,196,320
Raw,214,206,320
Raw,504,210,320
Raw,322,220,320
Raw,353,221,320
Raw,571,222,320
Raw,338,223,320
Raw,320,224,320
Raw,306,233,320
Raw,340,239,320
Raw,212,251,320
Raw,202,259,320
Raw,312,270,320
Raw,247,274,320
Raw,574,279,320
Raw,306,284,320
Raw,296,285,320
Raw,328,286,320
Raw,38,289,320
Raw,306,290,320
Raw,331,291,320
Raw,280,298,320
Raw,318,300,320
Raw,267,310,320
Raw,589,317,320
Raw,611,325,320
Raw,544,327,320
Raw,67,336,320
Raw,305,339,320
Raw,210,341,320
Raw,56,342,320
Raw,312,351,320
Raw,245,351,320
Raw,296,352,320
Raw,583,361,320
Raw,217,361,320
Raw,306,362,320
Raw,161,363,320
Raw,142,376,320
Raw,80,387,320
Raw,647,392,320
Raw,300,396,320
Raw,348,399,320
Raw,231,409,320
Raw,636,422,320
Raw,316,434,320
Raw,163,436,320
Raw,329,439,320
Raw,256,442,320
Raw,212,443,320
Raw,326,446,320
Raw,258,446,320
Raw,250,447,320
Raw,333,469,320
Raw,317,471,320
Raw,285,472,320
Raw,328,478,320
Raw,340,482,320
Raw,275,484,320
Raw,141,484,320
Raw,469,485,320
Raw,326,487,320
Raw,356,490,320
Raw,329,503,320
Raw,556,504,320
Raw,509,507,320
Raw,285,509,320
Raw,280,515,320
Raw,332,518,320
Raw,277,520,320
Raw,201,524,320
Raw,302,526,320
Raw,135,535,320
Raw,265,537,320
Raw,309,538,320
Raw,4,543,320
Raw,326,558,320
Raw,117,563,320
Raw,608,566,320
Raw,469,568,320
Raw,506,569,320
Raw,329,579,320
Raw,322,581,320
Raw,585,585,320
Raw,631,587,320
Raw,273,588,320
Raw,335,593,320
Raw,174,596,320
Raw,343,597,320
Raw,249,598,320
Raw,190,600,320
Raw,304,601,320
Raw,270,602,320
Raw,332,646,320
Raw,221,650,320
Raw,310,653,320
Raw,160,659,320
Raw,297,664,320
Raw,190,669,320
Raw,776,671,320
Raw,280,676,320
Raw,316,683,320
Raw,284,683,320
Raw,97,688,320
Raw,334,698,320
Raw,219,698,320
Raw,75,705,320
Raw,322,710,320
Raw,324,712,320
Raw,313,713,320
Raw,313,715,320
Raw,293,718,320
Raw,315,720,320
Raw,532,734,320
Raw,567,741,320
Raw,310,758,320
Raw,522,769,320
Raw,309,775,320
Raw,213,785,320
Raw,293,790,320
Raw,38,791,320
Raw,197,792,320
Raw,337,803,320
Raw,610,809,320
Raw,223,812,320
Raw,274,813,320
Raw,181,813,320
Raw,575,815,320
Raw,249,822,320
Raw,308,829,320
Raw,285,849,320
Raw,331,850,320
Raw,334,851,320
Raw,332,854,320
Raw,248,854,320
Raw,281,864,320
Raw,287,866,320
Raw,391,869,320
Raw,221,875,320
Raw,359,876,320
Raw,616,881,320
Raw,151,885,320
Raw,258,885,320
Raw,315,889,320
Raw,335,891,320
Raw,74,892,320
Raw,133,897,320
Raw,327,912,320
Raw,149,915,320
Raw,242,915,320
Raw,94,924,320
Raw,310,931,320
Raw,54,932,320
Raw,661,939,320
Raw,304,945,320
Raw,514,948,320
Raw,257,962,320
Raw,624,963,320
Raw,348,968,320
Raw,882,973,320
Raw,339,981,320
Raw,292,984,320
Raw,343,985,320
Raw,200,986,320
Raw,347,993,320
Raw,19,994,320
Raw,285,1006,320
Raw,479,1009,320
Raw,381,1015,320
Raw,324,1017,320
Raw,324,1025,320
Raw,286,1029,320
Raw,702,1033,320
Raw,258,1043,320
Raw,274,1055,320
Raw,644,1062,320
Raw,329,1063,320
Raw,313,1071,320
Raw,151,1094,320
Raw,319,1129,320
Raw,197,1129,320
Raw,336,1131,320
Raw,351,1133,320
Raw,522,1166,320
Raw,314,1167,320
Raw,306,1173,320
Raw,208,1173,320
Raw,250,1181,320
Raw,176,1182,320
Raw,221,1183,320
Raw,359,1190,320
Raw,337,1198,320
Raw,316,1203,320
Raw,312,1208,320
Raw,326,1218,320
Raw,309,1225,320
Raw,85,1226,320
Raw,351,1227,320
Raw,327,1233,320
Raw,308,1236,320
Raw,26,1245,320
Raw,302,1247,320
Raw,298,1251,320
Raw,308,1252,320
Raw,309,1261,320
Raw,317,1262,320
Raw,333,1286,320
Raw,362,1287,320
Raw,583,1294,320
Raw,293,1297,320
Raw,547,1298,320
Raw,606,1300,320
Raw,307,1301,320
Raw,354,1309,320
Raw,312,1312,320
Raw,302,1314,320
Raw,279,1315,320
Raw,137,1316,320
Raw,620,1324,320
Raw,694,1325,320
Raw,291,1341,320
Raw,131,1346,320
Raw,240,1346,320
Raw,325,1348,320
Raw,199,1348,320
Raw,476,1355,320
Raw,470,1359,320
Raw,280,1371,320
Raw,130,1373,320
Raw,288,1375,320
Raw,367,1380,320
Raw,249,1386,320
Raw,264,1387,320
Raw,248,1390,320
Raw,323,1424,320
Raw,188,1431,320
Raw,312,1435,320
Raw,659,1436,320
Raw,326,1438,320
Raw,358,1448,320
Raw,235,1457,320
Raw,186,1457,320
Raw,160,1464,320
Raw,131,1467,320
Raw,321,1470,320
Raw,352,1474,320
Raw,321,1477,320
Raw,313,1481,320
Raw,610,1493,320
Raw,262,1494,320
Raw,310,1498,320
Raw,358,1500,320
Raw,203,1505,320
Raw,217,1514,320
Raw,82,1517,320
Raw,333,1524,320
Raw,310,1529,320
Raw,299,1530,320
Raw,345,1531,320
Raw,236,1551,320
Raw,313,1553,320
Raw,219,1553,320
Raw,339,1555,320
Raw,321,1556,320
Raw,333,1559,320
Raw,325,1561,320
Raw,36,1564,320
Raw,476,1566,320
Raw,272,1572,320
Raw,454,1573,320
Raw,423,1577,320
Raw,310,1577,320
Raw,290,1579,320
Raw,552,1579,320
Raw,132,1582,320
Raw,309,1583,320
Raw,181,1589,320
Raw,108,1589,320
Raw,292,1590,320
Raw,332,1593,320
Raw,230,1596,320
Raw,512,1602,320
Raw,326,1605,320
Raw,318,1610,320
Raw,87,1619,320
Raw,582,1623,320
Raw,349,1626,320
Raw,319,1629,320
Raw,329,1637,320
Raw,568,1639,320
Raw,275,1640,320
Raw,306,1650,320
Raw,639,1651,320
Raw,318,1655,320
Raw,191,1659,320
Raw,641,1664,320
Raw,54,1664,320
Raw,303,1670,320
Raw,250,1671,320
Raw,316,1673,320
Raw,169,1674,320
Raw,664,1675,320
Raw,313,1683,320
Raw,341,1683,320
Raw,318,1686,320
Raw,265,1689,320
Raw,203,1691,320
Raw,326,1698,320
Raw,178,1707,320
Raw,190,1707,320
Raw,25,1714,320
Raw,24,1717,320
Raw,276,1727,320
Raw,196,1731,320
Raw,137,1732,320
Raw,630,1733,320
Raw,346,1742,320
Raw,314,1745,320
Raw,337,1748,320
Raw,187,1749,320
Raw,632,1750,320
Raw,204,1752,320
Raw,283,1758,320
Raw,316,1767,320
Raw,222,1772,320
Raw,275,1780,320
Raw,258,1786,320
Raw,327,1813,320
Raw,138,1816,320
Raw,301,1818,320
Raw,333,1818,320
Raw,189,1825,320
Raw,326,1826,320
Raw,939,1827,320
Raw,270,1831,320
Raw,287,1842,320
Raw,206,1843,320
Raw,268,1856,320
Raw,224,1867,320
Raw,196,1887,320
Raw,354,1890,320
Raw,344,1891,320
Raw,180,1892,320
Raw,353,1903,320
Raw,81,1903,320
Raw,623,1909,320
Raw,408,1910,320
Raw,326,1910,320
Raw,237,1911,320
Raw,90,1922,320
Raw,325,1926,320
Raw,160,1928,320
Raw,316,1933,320
Raw,348,1935,320
Raw,276,1937,320
Raw,199,1938,320
Raw,61,1938,320
Raw,311,1941,320
Raw,503,1942,320
Raw,253,1949,320
Raw,579,1949,320
Raw,310,1954,320
Raw,348,1956,320
Raw,214,1961,320
Raw,204,1968,320
Raw,546,1970,320
Raw,338,1980,320
Raw,242,1987,320
Raw,109,1990,320
Raw,260,2014,320
Raw,522,2015,320
Raw,313,2018,320
Raw,181,2021,320
Raw,14,2021,320
Raw,232,2025,320
Raw,334,2031,320
Raw,305,2031,320
Raw,438,2040,320
Raw,327,2043,320
Raw,307,2054,320
Raw,337,2055,320
Raw,545,2064,320
Raw,132,2068,320
Raw,329,2076,320
Raw,331,2076,320
Raw,129,2079,320
Raw,225,2086,320
Raw,176,2091,320
Raw,885,2093,320
Raw,596,2094,320
Raw,240,2100,320
Raw,231,2101,320
Raw,614,2103,320
Raw,12,2103,320
Raw,51,2110,320
Raw,343,2112,320
Raw,313,2113,320
Raw,64,2113,320
Raw,295,2114,320
Raw,189,2115,320
Raw,351,2119,320
Raw,328,2120,320
Raw,372,2121,320
Raw,370,2122,320
Raw,595,2125,320
Raw,622,2128,320
Raw,207,2132,320
Raw,327,2136,320
Raw,62,2142,320
Raw,234,2146,320
Raw,320,2155,320
Raw,343,2157,320
Raw,99,2159,320
Raw,171,2168,320
Raw,330,2172,320
Raw,274,2177,320
Raw,115,2177,320
Raw,328,2178,320
Raw,306,2179,320
Raw,164,2190,320
Raw,331,2193,320
Raw,358,2204,320
Raw,313,2212,320
Raw,272,2223,320
Raw,446,2226,320
Raw,303,2227,320
Raw,667,2229,320
Raw,276,2230,320
Raw,124,2230,320
Raw,307,2236,320
Raw,264,2238,320
Raw,195,2239,320
Raw,33,2246,320
Raw,497,2247,320
Raw,244,2259,320
Raw,543,2263,320
Raw,247,2267,320
Raw,318,2270,320
Raw,321,2270,320
Raw,345,2284,320
Raw,313,2286,320
Raw,280,2288,320
Raw,121,2288,320
Raw,301,2292,320
Raw,303,2299,320
Raw,338,2313,320
Raw,296,2315,320
Raw,282,2317,320
Raw,300,2324,320
Raw,331,2326,320
Raw,207,2327,320
Raw,314,2333,320
Raw,290,2356,320
Raw,135,2356,320
Raw,349,2363,320
Raw,398,2364,320
Raw,103,2366,320
Raw,214,2369,320
Raw,365,2370,320
Raw,319,2371,320
Raw,335,2377,320
Raw,102,2382,320
Raw,309,2387,320
Raw,230,2391,320
Raw,639,2394,320
Raw,325,2397,320
Raw,649,2401,320
Raw,330,2403,320
Raw,311,2417,320
Raw,337,2419,320
Raw,194,2419,320
Raw,125,2422,320
Raw,569,2432,320
Raw,218,2436,320
Raw,276,2437,320
Raw,689,2440,320
Raw,92,2444,320
Raw,305,2445,320
Raw,616,2446,320
Raw,324,2453,320
Raw,321,2456,320
Raw,322,2456,320
Raw,98,2461,320
Raw,628,2478,320
Raw,300,2478,320
Raw,298,2479,320
Raw,296,2481,320
Raw,62,2481,320
Raw,274,2489,320
Raw,199,2496,320
Raw,363,2497,320
Raw,285,2500,320
Raw,251,2503,320
Raw,335,2504,320
Raw,356,2515,320
Raw,339,2517,320
Raw,269,2519,320
Raw,63,2523,320
Raw,331,2524,320
Raw,457,2527,320
Raw,102,2528,320
Raw,249,2528,320
Raw,122,2531,320
Raw,265,2533,320
Raw,324,2537,320
Raw,140,2537,320
Raw,242,2540,320
Raw,110,2545,320
Raw,324,2546,320
Raw,589,2552,320
Raw,281,2560,320
Raw,349,2568,320
Raw,686,2589,320
Raw,486,2590,320
Raw,187,2602,320
Raw,221,2608,320
Raw,306,2610,320
Raw,333,2617,320
Raw,296,2633,320
Raw,229,2633,320
Raw,341,2635,320
Raw,636,2649,320
Raw,306,2652,320
Raw,325,2655,320
Raw,217,2656,320
Raw,308,2671,320
Raw,354,2671,320
Raw,254,2672,320
Raw,594,2673,320
Raw,321,2682,320
Raw,301,2687,320
Raw,371,2689,320
Raw,250,2689,320
Raw,102,2690,320
Raw,291,2691,320
Raw,416,2691,320
Raw,193,2697,320
Raw,632,2708,320
Raw,245,2711,320
Raw,322,2723,320
Raw,311,2725,320
Raw,233,2726,320
Raw,512,2747,320
Raw,277,2748,320
Raw,250,2749,320
Raw,497,2751,320
Raw,193,2756,320
Raw,559,2758,320
Raw,102,2761,320
Raw,338,2761,320
Raw,112,2766,320
Raw,298,2767,320
Raw,178,2767,320
Raw,345,2773,320
Raw,298,2776,320
Raw,340,2779,320
Raw,521,2783,320
Raw,271,2783,320
Raw,193,2785,320
Raw,543,2787,320
Raw,341,2793,320
Raw,615,2807,320
Raw,283,2812,320
Raw,506,2813,320
Raw,181,2813,320
Raw,198,2815,320
Raw,350,2818,320
Raw,324,2819,320
Raw,568,2829,320
Raw,299,2837,320
Raw,178,2848,320
Raw,306,2850,320
Raw,165,2855,320
Raw,539,2858,320
Raw,268,2860,320
Raw,338,2866,320
Raw,10,2867,320
Raw,271,2871,320
Raw,365,2882,320
Raw,304,2883,320
Raw,303,2886,320
Raw,242,2909,320
Raw,307,2910,320
Raw,516,2911,320
Raw,291,2916,320
Raw,635,2918,320
Raw,82,2925,320
Raw,253,2926,320
Raw,345,2933,320
Raw,645,2936,320
Raw,304,2943,320
Raw,325,2943,320
Raw,149,2945,320
Raw,512,2946,320
Raw,667,2947,320
Raw,523,2953,320
Raw,366,2955,320
Raw,342,2963,320
Raw,338,2964,320
Raw,545,2969,320
Raw,305,2970,320
Raw,79,2970,320
Raw,331,2975,320
Raw,301,2976,320
Raw,258,2977,320
Raw,266,2986,320
Raw,629,2987,320
Raw,6,2988,320
Raw,715,2989,320
Raw,283,2991,320
Raw,210,2994,320
Raw,467,3012,320
Raw,341,3013,320
Raw,330,3017,320
Raw,77,3017,320
Raw,278,3024,320
Raw,274,3028,320
Raw,321,3033,320
Raw,421,3034,320
Raw,292,3035,320
Raw,131,3036,320
Raw,287,3052,320
Raw,267,3086,320
Raw,299,3087,320
Raw,329,3089,320
Raw,344,3096,320
Raw,307,3096,320
Raw,271,3097,320
Raw,630,3111,320
Raw,273,3111,320
Raw,467,3112,320
Raw,461,3113,320
Raw,312,3118,320
Raw,335,3129,320
Raw,341,3132,320
Raw,302,3136,320
Raw,353,3138,320
Raw,256,3143,320
Raw,619,3149,320
Raw,252,3166,320
Raw,526,3167,320
Raw,326,3171,320
Raw,335,3178,320
Raw,349,3190,320
Raw,750,3195,320
Raw,345,3196,320
Raw,710,3202,320
Raw,307,3212,320
Raw,341,3213,320
Raw,132,3222,320
Raw,255,3222,320
Raw,329,3223,320
Raw,384,3225,320
Raw,158,3227,320
Raw,570,3231,320
Raw,646,3248,320
Raw,230,3249,320
Raw,356,3250,320
Raw,323,3252,320
Raw,224,3253,320
Raw,321,3254,320
Raw,321,3266,320
Raw,214,3266,320
Raw,202,3270,320
Raw,206,3273,320
Raw,365,3276,320
Raw,294,3293,320
Raw,139,3297,320
Raw,292,3298,320
Raw,422,3305,320
Raw,329,3307,320
Raw,120,3309,320
Raw,302,3311,320
Raw,293,3311,320
Raw,207,3314,320
Raw,5,3317,320
Raw,341,3329,320
Raw,299,3329,320
Raw,294,3335,320
Raw,316,3335,320
Raw,225,3342,320
Raw,322,3351,320
Raw,322,3352,320
Raw,141,3355,320
Raw,120,3355,320
Raw,325,3359,320
Raw,314,3364,320
Raw,329,3366,320
Raw,292,3373,320
Raw,269,3385,320
Raw,10,3385,320
Raw,346,3395,320
Raw,307,3406,320
Raw,336,3409,320
Raw,317,3415,320
Raw,322,3420,320
Raw,337,3427,320
Raw,170,3432,320
Raw,306,3436,320
Raw,295,3441,320
Raw,8,3452,320
Raw,281,3458,320
Raw,310,3460,320
Raw,111,3460,320
Raw,97,3463,320
Raw,168,3466,320
Raw,218,3471,320
Raw,329,3475,320
Raw,179,3478,320
Raw,160,3478,320
Raw,230,3478,320
Raw,327,3481,320
Raw,228,3481,320
Raw,622,3487,320
Raw,147,3496,320
Raw,342,3502,320
Raw,826,3510,320
Raw,293,3512,320
Raw,308,3515,320
Raw,679,3523,320
Raw,331,3525,320
Raw,82,3529,320
Raw,304,3530,320
Raw,511,3531,320
Raw,256,3538,320
Raw,89,3547,320
Raw,185,3556,320
Raw,412,3581,320
Raw,629,3584,320
Raw,320,3591,320
Raw,314,3594,320
Raw,46,3595,320
Raw,71,3601,320
Raw,882,3608,320
Raw,19,3609,320
Raw,286,3617,320
Raw,318,3627,320
Raw,337,3628,320
Raw,92,3661,320
Raw,288,3664,320
Raw,304,3676,320
Raw,331,3677,320
Raw,355,3681,320
Raw,299,3688,320
Raw,225,3689,320
Raw,492,3695,320
Raw,260,3697,320
Raw,323,3698,320
Raw,329,3704,320
Raw,871,3707,320
Raw,219,3714,320
Raw,246,3714,320
Raw,251,3719,320
Raw,284,3737,320
Raw,569,3738,320
Raw,263,3740,320
Raw,276,3741,320
Raw,146,3742,320
Raw,224,3743,320
Raw,306,3750,320
Raw,342,3772,320
Raw,638,3777,320
Raw,191,3781,320
Raw,249,3794,320
Raw,630,3801,320
Raw,315,3804,320
Raw,325,3807,320
Raw,104,3807,320
Raw,326,3821,320
Raw,208,3821,320
Raw,624,3836,320
Raw,92,3850,320
Raw,588,3854,320
Raw,632,3867,320
Raw,336,3871,320
Raw,335,3882,320
Raw,81,3882,320
Raw,154,3891,320
Raw,304,3902,320
Raw,328,3906,320
Raw,356,3913,320
Raw,274,3916,320
Raw,229,3927,320
Raw,293,3931,320
Raw,5,3932,320
Raw,336,3934,320
Raw,187,3945,320
Raw,29,3945,320
Raw,337,3946,320
Raw,164,3950,320
Raw,80,3951,320
Raw,332,3952,320
Raw,313,3954,320
Raw,203,3955,320
Raw,312,3961,320
Raw,278,3977,320
Raw,42,3987,320
Raw,596,4003,320
Raw,286,4014,320
Raw,116,4014,320
Raw,605,4016,320
Raw,337,4022,320
Raw,619,4025,320
Raw,347,4029,320
Raw,361,4045,320
Raw,270,4049,320
Raw,209,4050,320
Raw,299,4054,320
Raw,345,4060,320
Raw,283,4063,320
Raw,339,4065,320
Raw,181,4066,320
Raw,187,4073,320
Raw,112,4073,320
Raw,29,4082,320
Raw,212,4094,320
Raw,299,4097,320
Raw,304,4103,320
Raw,329,4105,320
Raw,13,4119,320
Raw,323,4140,320
Raw,183,4146,320
Raw,316,4148,320
Raw,308,4158,320
Raw,318,4159,320
Raw,202,4160,320
Raw,219,4162,320
Raw,215,4165,320
Raw,333,4209,320
Raw,338,4211,320
Raw,248,4224,320
Raw,323,4248,320
Raw,189,4261,320
Raw,308,4284,320
Raw,351,4285,320
Raw,401,4288,320
Raw,304,4293,320
Raw,440,4295,320
Raw,247,4304,320
Raw,335,4307,320
Raw,197,4307,320
Raw,312,4317,320
Raw,307,4324,320
Raw,311,4324,320
Raw,57,4328,320
Raw,166,4334,320
Raw,68,4336,320
Raw,327,4347,320
Raw,178,4348,320
Raw,318,4349,320
Raw,239,4351,320
Raw,298,4352,320
Raw,331,4356,320
Raw,114,4356,320
Raw,517,4361,320
Raw,306,4362,320
Raw,255,4367,320
Raw,246,4367,320
Raw,281,4377,320
Raw,631,4388,320
Raw,276,4412,320
Raw,464,4432,320
Raw,340,4442,320
Raw,312,4444,320
Raw,288,4444,320
Raw,178,4452,320
Raw,282,4452,320
Raw,469,4453,320
Raw,285,4459,320
Raw,336,4460,320
Raw,151,4464,320
Raw,87,4467,320
Raw,282,4479,320
Raw,340,4494,320
Raw,428,4496,320
Raw,33,4502,320
Raw,47,4510,320
Raw,210,4514,320
Raw,232,4516,320
Raw,259,4530,320
Raw,222,4533,320
Raw,778,4535,320
Raw,297,4540,320
Raw,361,4553,320
Raw,298,4564,320
Raw,565,4569,320
Raw,144,4583,320
Raw,282,4593,320
Raw,333,4595,320
Raw,329,4602,320
Raw,54,4605,320
Raw,333,4611,320
Raw,335,4613,320
Raw,71,4616,320
Raw,211,4618,320
Raw,328,4621,320
Raw,625,4623,320
Raw,289,4626,320
Raw,208,4637,320
Raw,340,4642,320
Raw,206,4653,320
Raw,257,4656,320
Raw,332,4715,320
Raw,200,4718,320
Raw,317,4719,320
Raw,193,4730,320
Raw,293,4732,320
Raw,335,4736,320
Raw,503,4738,320
Raw,936,4759,320
Raw,316,4763,320
Raw,346,4768,320
Raw,237,4769,320
Raw,254,4773,320
Raw,185,4779,320
Raw,62,4795,320
Raw,354,4806,320
Raw,323,4808,320
Raw,193,4813,320
Raw,325,4822,320
Raw,301,4826,320
Raw,304,4829,320
Raw,85,4829,320
Raw,272,4843,320
Raw,264,4846,320
Raw,327,4848,320
Raw,269,4855,320
Raw,296,4856,320
Raw,210,4862,320
Raw,298,4867,320
Raw,149,4867,320
Raw,344,4869,320
Raw,314,4872,320
Raw,263,4872,320
Raw,499,4883,320
Raw,343,4891,320
Raw,336,4906,320
Raw,344,4915,320
Raw,286,4919,320
Raw,331,4922,320
Raw,194,4924,320
Raw,347,4926,320
Raw,325,4933,320
Raw,317,4936,320
Raw,201,4938,320
Raw,352,4941,320
Raw,322,4944,320
Raw,269,4949,320
Raw,269,4952,320
Raw,481,4958,320
Raw,316,4964,320
Raw,766,4965,320
Raw,322,4971,320
Raw,291,4974,320
Raw,517,4984,320
Raw,355,4986,320
Raw,432,4987,320
Raw,263,4991,320
Raw,176,4992,320
Raw,112,4999,320
Raw,353,5000,320
Raw,226,5004,320
Raw,322,5015,320
Raw,685,5041,320
Raw,311,5043,320
Raw,338,5044,320
Raw,309,5048,320
Raw,126,5069,320
Raw,273,5069,320
Raw,103,5069,320
Raw,211,5078,320
Raw,292,5082,320
Raw,451,5088,320
Raw,87,5088,320
Raw,358,5097,320
Raw,90,5101,320
Raw,330,5102,320
Raw,321,5106,320
Raw,444,5123,320
Raw,256,5140,320
Raw,212,5145,320
Raw,219,5145,320
Raw,160,5158,320
Raw,293,5160,320
Raw,184,5161,320
Raw,47,5172,320
Raw,318,5177,320
Raw,183,5179,320
Raw,247,5199,320
Raw,236,5200,320
Raw,334,5203,320
Raw,566,5213,320
Raw,524,5217,320
Raw,9,5219,320
Raw,324,5224,320
Raw,348,5225,320
Raw,350,5233,320
Raw,315,5239,320
Raw,182,5240,320
Raw,245,5251,320
Raw,321,5252,320
Raw,54,5261,320
Raw,99,5282,320
Raw,315,5288,320
Raw,364,5293,320
Raw,323,5297,320
Raw,336,5300,320
Raw,269,5301,320
Raw,649,5307,320
Raw,341,5317,320
Raw,301,5318,320
Raw,307,5335,320
Raw,71,5335,320
Raw,703,5353,320
Raw,682,5362,320
Raw,326,5363,320
Raw,371,5366,320
Raw,218,5383,320
Raw,344,5387,320
Raw,319,5391,320
Raw,623,5397,320
Raw,346,5403,320
Raw,245,5406,320
Raw,296,5407,320
Raw,109,5416,320
Raw,322,5417,320
Raw,298,5418,320
Raw,783,5423,320
Raw,669,5429,320
Raw,291,5431,320
Raw,254,5444,320
Raw,264,5448,320
Raw,300,5455,320
Raw,264,5458,320
Raw,337,5459,320
Raw,547,5464,320
Raw,617,5472,320
Raw,325,5487,320
Raw,211,5491,320
Raw,331,5501,320
Raw,283,5507,320
Raw,275,5513,320
Raw,337,5517,320
Raw,330,5518,320
Raw,336,5522,320
Raw,330,5532,320
Raw,333,5546,320
Raw,362,5558,320
Raw,125,5563,320
Raw,240,5581,320
Raw,361,5592,320
Raw,315,5601,320
Raw,299,5610,320
Raw,511,5630,320
Raw,312,5634,320
Raw,335,5637,320
Raw,688,5644,320
Raw,245,5649,320
Raw,600,5660,320
Raw,294,5684,320
Raw,230,5686,320
Raw,12,5686,320
Raw,368,5688,320
Raw,290,5739,320
Raw,650,5750,320
Raw,266,5755,320
Raw,275,5756,320
Raw,309,5758,320
Raw,162,5760,320
Raw,322,5768,320
Raw,269,5782,320
Raw,210,5784,320
Raw,326,5787,320
Raw,324,5791,320
Raw,301,5807,320
Raw,318,5817,320
Raw,340,5840,320
Raw,299,5846,320
Raw,637,5850,320
Raw,276,5858,320
Raw,178,5877,320
Raw,272,5882,320
Raw,205,5884,320
Raw,328,5897,320
Raw,35,5902,320
Raw,340,5904,320
Raw,171,5947,320
Raw,324,5965,320
Raw,158,6009,320
Raw,177,6009,320
Raw,605,6012,320
Raw,318,6019,320
Raw,632,6031,320
Raw,205,6034,320
Raw,269,6039,320
Raw,234,6064,320
Raw,236,6065,320
Raw,283,6067,320
Raw,328,6110,320
Raw,21,6122,320
Raw,222,6126,320
Raw,341,6142,320
Raw,336,6147,320
Raw,217,6150,320
Raw,339,6151,320
Raw,251,6155,320
Raw,311,6156,320
Raw,42,6171,320
Raw,337,6182,320
Raw,323,6186,320
Raw,337,6201,320
Raw,337,6214,320
Raw,232,6217,320
Raw,364,6223,320
Raw,179,6237,320
Raw,339,6256,320
Raw,171,6264,320
Raw,120,6265,320
Raw,325,6273,320
Raw,214,6274,320
Raw,153,6288,320
Raw,349,6289,320
Raw,334,6289,320
Raw,213,6292,320
Raw,123,6302,320
Raw,270,6303,320
Raw,346,6308,320
Raw,338,6310,320
Raw,640,6331,320
Raw,158,6335,320
Raw,295,6337,320
Raw,75,6342,320
Raw,355,6346,320
Raw,308,6355,320
Raw,409,6357,320
Raw,579,6358,320
Raw,397,6363,320
Raw,263,6367,320
Raw,351,6368,320
Raw,337,6374,320
Raw,108,6380,320
Raw,219,6381,320
Raw,278,6382,320
Raw,334,6392,320
Raw,112,6400,320
Raw,311,6430,320
Raw,313,6432,320
Raw,324,6433,320
Raw,236,6440,320
Raw,503,6442,320
Raw,330,6453,320
Raw,109,6468,320
Raw,63,6484,320
Raw,171,6503,320
Raw,290,6514,320
Raw,284,6522,320
Raw,293,6526,320
Raw,207,6535,320
Raw,340,6536,320
Raw,267,6539,320
Raw,326,6540,320
Raw,300,6549,320
Raw,36,6578,320
Raw,300,6592,320
Raw,298,6597,320
Raw,100,6620,320
Raw,542,6628,320
Raw,364,6631,320
Raw,363,6632,320
Raw,293,6634,320
Raw,322,6636,320
Raw,112,6641,320
Raw,322,6648,320
Raw,80,6655,320
Raw,470,6662,320
Raw,314,6668,320
Raw,335,6671,320
Raw,211,6677,320
Raw,330,6681,320
Raw,252,6681,320
Raw,585,6683,320
Raw,303,6684,320
Raw,301,6689,320
Raw,327,6690,320
Raw,340,6714,320
Raw,343,6718,320
Raw,330,6723,320
Raw,362,6739,320
Raw,598,6760,320
Raw,335,6762,320
Raw,939,6764,320
Raw,231,6766,320
Raw,655,6767,320
Raw,834,6769,320
Raw,335,6770,320
Raw,353,6777,320
Raw,49,6780,320
Raw,316,6781,320
Raw,290,6783,320
Raw,198,6783,320
Raw,331,6789,320
Raw,332,6791,320
Raw,308,6794,320
Raw,315,6809,320
Raw,204,6824,320
Raw,52,6827,320
Raw,341,6831,320
Raw,349,6837,320
Raw,324,6841,320
Raw,221,6841,320
Raw,107,6844,320
Raw,241,6849,320
Raw,351,6860,320
Raw,311,6862,320
Raw,302,6864,320
Raw,287,6864,320
Raw,315,6867,320
Raw,315,6872,320
Raw,308,6876,320
Raw,299,6878,320
Raw,288,6878,320
Raw,363,6883,320
Raw,203,6896,320
Raw,341,6902,320
Raw,323,6903,320
Raw,630,6904,320
Raw,310,6913,320
Raw,212,6918,320
Raw,242,6920,320
Raw,331,6921,320
Raw,294,6928,320
Raw,150,6928,320
Raw,308,6930,320
Raw,591,6934,320
Raw,300,6938,320
Raw,307,6955,320
Raw,200,6957,320
Raw,318,6965,320
Raw,125,6965,320
Raw,238,6970,320
Raw,665,6974,320
Raw,299,6975,320
Raw,248,6978,320
Raw,228,6979,320
Raw,421,6983,320
Raw,314,6993,320
Raw,511,6998,320
Raw,247,7005,320
Raw,683,7013,320
Raw,293,7015,320
Raw,233,7032,320
Raw,320,7041,320
Raw,667,7046,320
Raw,187,7047,320
Raw,196,7048,320
Raw,333,7059,320
Raw,664,7061,320
Raw,739,7072,320
Raw,318,7074,320
Raw,230,7079,320
Raw,223,7079,320
Raw,14,7081,320
Raw,612,7084,320
Raw,171,7095,320
Raw,110,7095,320
Raw,286,7096,320
Raw,162,7107,320
Raw,271,7114,320
Raw,305,7119,320
Raw,227,7123,320
Raw,232,7127,320
Raw,271,7136,320
Raw,252,7137,320
Raw,351,7146,320
Raw,288,7146,320
Raw,367,7161,320
Raw,505,7165,320
Raw,110,7166,320
Raw,513,7177,320
Raw,331,7190,320
Raw,380,7195,320
Raw,616,7197,320
Raw,336,7198,320
Raw,241,7201,320
Raw,181,7214,320
Raw,333,7218,320
Raw,318,7219,320
Raw,436,7221,320
Raw,344,7223,320
Raw,268,7233,320
Raw,335,7237,320
Raw,151,7238,320
Raw,579,7242,320
Raw,523,7247,320
Raw,191,7255,320
Raw,282,7258,320
Raw,342,7268,320
Raw,461,7272,320
Raw,287,7285,320
Raw,597,7287,320
Raw,307,7291,320
Raw,62,7295,320
Raw,314,7303,320
Raw,218,7305,320
Raw,344,7307,320
Raw,210,7313,320
Raw,231,7318,320
Raw,298,7323,320
Raw,171,7333,320
Raw,113,7333,320
Raw,391,7334,320
Raw,330,7336,320
Raw,681,7342,320
Raw,375,7347,320
Raw,260,7348,320
Raw,275,7350,320
Raw,110,7355,320
Raw,308,7357,320
Raw,660,7367,320
Raw,340,7368,320
Raw,295,7370,320
Raw,638,7376,320
Raw,919,7381,320
Raw,635,7386,320
Raw,319,7388,320
Raw,203,7388,320
Raw,330,7390,320
Raw,245,7393,320
Raw,331,7401,320
Raw,202,7401,320
Raw,211,7405,320
Raw,321,7416,320
Raw,249,7420,320
Raw,321,7440,320
Raw,597,7445,320
Raw,295,7452,320
Raw,518,7453,320
Raw,317,7454,320
Raw,535,7458,320
Raw,266,7459,320
Raw,307,7460,320
Raw,358,7464,320
Raw,567,7469,320
Raw,603,7470,320
Raw,348,7472,320
Raw,305,7473,320
Raw,220,7486,320
Raw,5,7486,320
Raw,298,7487,320
Raw,216,7492,320
Raw,534,7496,320
Raw,304,7497,320
Raw,296,7497,320
Raw,28,7502,320
Raw,133,7514,320
Raw,329,7515,320
Raw,610,7521,320
Raw,320,7535,320
Raw,208,7546,320
Raw,335,7548,320
Raw,319,7552,320
Raw,337,7555,320
Raw,108,7559,320
Raw,254,7560,320
Raw,302,7560,320
Raw,324,7569,320
Raw,319,7570,320
Raw,296,7579,320
Raw,138,7583,320
Raw,147,7592,320
Raw,527,7598,320
Raw,216,7607,320
Raw,320,7612,320
Raw,320,7616,320
Raw,307,7617,320
Raw,827,7619,320
Raw,280,7620,320
Raw,228,7621,320
Raw,233,7624,320
Raw,49,7645,320
Raw,264,7649,320
Raw,331,7655,320
Raw,336,7659,320
Raw,118,7660,320
Raw,604,7668,320
Raw,294,7678,320
Raw,195,7683,320
Raw,210,7684,320
Raw,201,7692,320
Raw,189,7701,320
Raw,311,7703,320
Raw,145,7727,320
Raw,336,7739,320
Raw,314,7761,320
Raw,361,7765,320
Raw,293,7768,320
Raw,321,7770,320
Raw,318,7771,320
Raw,214,7772,320
Raw,309,7778,320
Raw,173,7779,320
Raw,279,7785,320
Raw,296,7800,320
Raw,335,7801,320
Raw,20,7813,320
Raw,272,7816,320
Raw,155,7817,320
Raw,117,7824,320
Raw,885,7828,320
Raw,322,7835,320
Raw,412,7839,320
Raw,325,7841,320
Raw,301,7843,320
Raw,209,7843,320
Raw,286,7845,320
Raw,583,7846,320
Raw,295,7849,320
Raw,318,7857,320
Raw,200,7861,320
Raw,323,7862,320
Raw,286,7863,320
Raw,333,7865,320
Raw,311,7872,320
Raw,287,7886,320
Raw,296,7888,320
Raw,199,7888,320
Raw,136,7888,320
Raw,250,7893,320
Raw,146,7898,320
Raw,3,7898,320
Raw,340,7907,320
Raw,845,7914,320
Raw,391,7919,320
Raw,323,7921,320
Raw,336,7945,320
Raw,936,7952,320
Raw,317,7957,320
Raw,322,7963,320
Raw,321,7964,320
Raw,564,7967,320
Raw,187,7972,320
Raw,4,7972,320
Raw,168,7974,320
Raw,859,7977,320
Raw,185,7984,320
Raw,452,7984,320
Raw,297,7998,320
Raw,303,8001,320
Raw,329,8013,320
Raw,305,8015,320
Raw,93,8020,320
Raw,655,8027,320
Raw,331,8031,320
Raw,328,8032,320
Raw,324,8054,320
Raw,478,8061,320
Raw,568,8087,320
Raw,317,8089,320
Raw,30,8092,320
Raw,196,8110,320
Raw,546,8125,320
Raw,279,8129,320
Raw,315,8136,320
Raw,286,8142,320
Raw,176,8155,320
Raw,662,8158,320
Raw,292,8158,320
Raw,318,8166,320
Raw,305,8183,320
Raw,218,8183,320
Raw,133,8189,320
Raw,354,8195,320
Raw,476,8212,320
Raw,277,8214,320
Raw,304,8214,320
Raw,333,8220,320
Raw,311,8228,320
Raw,319,8231,320
Raw,41,8236,320
Raw,191,8239,320
Raw,300,8248,320
Raw,72,8248,320
Raw,7,8269,320
Raw,596,8270,320
Raw,509,8274,320
Raw,93,8281,320
Raw,187,8284,320
Raw,328,8288,320
Raw,246,8294,320
Raw,240,8301,320
Raw,334,8310,320
Raw,203,8316,320
Raw,278,8323,320
Raw,338,8327,320
Raw,302,8329,320
Raw,292,8344,320
Raw,332,8361,320
Raw,317,8362,320
Raw,628,8362,320
Raw,327,8365,320
Raw,876,8377,320
Raw,560,8391,320
Raw,342,8399,320
Raw,615,8404,320
Raw,315,8407,320
Raw,286,8412,320
Raw,297,8414,320
Raw,308,8421,320
Raw,343,8423,320
Raw,165,8427,320
Raw,323,8441,320
Raw,338,8443,320
Raw,347,8450,320
Raw,210,8460,320
Raw,305,8474,320
Raw,247,8474,320
Raw,819,8476,320
Raw,486,8477,320
Raw,700,8480,320
Raw,299,8481,320
Raw,318,8493,320
Raw,289,8494,320
Raw,87,8499,320
Raw,308,8515,320
Raw,332,8522,320
Raw,162,8530,320
Raw,147,8536,320
Raw,276,8542,320
Raw,138,8544,320
Raw,97,8558,320
Raw,280,8559,320
Raw,277,8561,320
Raw,292,8562,320
Raw,581,8565,320
Raw,311,8579,320
Raw,271,8580,320
Raw,300,8586,320
Raw,309,8592,320
Raw,306,8600,320
Raw,320,8617,320
Raw,205,8637,320
Raw,463,8643,320
Raw,244,8643,320
Raw,320,8647,320
Raw,281,8651,320
Raw,137,8663,320
Raw,303,8665,320
Raw,248,8666,320
Raw,174,8673,320
Raw,118,8673,320
Raw,112,8675,320
Raw,618,8694,320
Raw,256,8696,320
Raw,511,8710,320
Raw,305,8714,320
Raw,284,8715,320
Raw,306,8725,320
Raw,316,8731,320
Raw,290,8733,320
Raw,272,8738,320
Raw,323,8742,320
Raw,305,8760,320
Raw,335,8764,320
Raw,311,8765,320
Raw,357,8766,320
Raw,308,8768,320
Raw,286,8793,320
Raw,154,8805,320
Raw,308,8818,320
Raw,132,8825,320
Raw,267,8825,320
Raw,348,8833,320
Raw,325,8837,320
Raw,191,8838,320
Raw,315,8845,320
Raw,230,8845,320
Raw,192,8848,320
Raw,75,8857,320
Raw,334,8864,320
Raw,200,8864,320
Raw,67,8864,320
Raw,215,8867,320
Raw,324,8876,320
Raw,247,8877,320
Raw,248,8883,320
Raw,62,8889,320
Raw,251,8900,320
Raw,307,8901,320
Raw,13,8901,320
Raw,302,8914,320
Raw,200,8914,320
Raw,148,8914,320
Raw,289,8934,320
Raw,218,8935,320
Raw,31,8939,320
Raw,249,8940,320
Raw,296,8945,320
Raw,197,8947,320
Raw,285,8948,320
Raw,248,8952,320
Raw,265,8952,320
Raw,592,8954,320
Raw,249,8956,320
Raw,313,8973,320
Raw,321,8978,320
Raw,319,8995,320
Raw,261,9000,320
Raw,333,9003,320
Raw,214,9006,320
Raw,172,9007,320
Raw,279,9007,320
Raw,296,9012,320
Raw,275,9014,320
Raw,686,9016,320
Raw,333,9032,320
Raw,244,9032,320
Raw,288,9044,320
Raw,226,9045,320
Raw,312,9048,320
Raw,335,9050,320
Raw,249,9062,320
Raw,320,9069,320
Raw,189,9072,320
Raw,318,9077,320
Raw,314,9078,320
Raw,243,9081,320
Raw,321,9084,320
Raw,304,9088,320
Raw,332,9094,320
Raw,368,9112,320
Raw,119,9114,320
Raw,758,9114,320
Raw,272,9116,320
Raw,526,9116,320
Raw,101,9116,320
Raw,270,9138,320
Raw,208,9139,320
Raw,191,9140,320
Raw,10,9144,320
Raw,585,9147,320
Raw,53,9150,320
Raw,586,9156,320
Raw,317,9181,320
Raw,170,9181,320
Raw,304,9182,320
Raw,293,9182,320
Raw,218,9187,320
Raw,150,9187,320
Raw,297,9196,320
Raw,289,9201,320
Raw,318,9217,320
Raw,224,9222,320
Raw,296,9226,320
Raw,290,9228,320
Raw,288,9230,320
Raw,211,9231,320
Raw,60,9234,320
Raw,290,9244,320
Raw,608,9247,320
Raw,620,9253,320
Raw,620,9256,320
Raw,571,9264,320
Raw,3,9270,320
Raw,171,9270,320
Raw,246,9277,320
Raw,47,9295,320
Raw,310,9298,320
Raw,305,9299,320
Raw,215,9305,320
Raw,645,9316,320
Raw,796,9327,320
Raw,3,9334,320
Raw,260,9338,320
Raw,503,9341,320
Raw,336,9345,320
Raw,177,9347,320
Raw,237,9347,320
Raw,205,9349,320
Raw,8,9352,320
Raw,5,9352,320
Raw,165,9358,320
Raw,256,9366,320
Raw,330,9367,320
Raw,179,9367,320
Raw,310,9378,320
Raw,214,9384,320
Raw,270,9386,320
Raw,518,9388,320
Raw,297,9393,320
Raw,26,9397,320
Raw,335,9406,320
Raw,157,9406,320
Raw,303,9410,320
Raw,298,9416,320
Raw,539,9426,320
Raw,251,9433,320
Raw,492,9436,320
Raw,260,9444,320
Raw,505,9451,320
Raw,108,9451,320
Raw,194,9454,320
Raw,25,9454,320
Raw,307,9455,320
Raw,116,9455,320
Raw,150,9455,320
Raw,162,9460,320
Raw,257,9479,320
Raw,264,9497,320
Raw,312,9510,320
Raw,224,9511,320
Raw,312,9513,320
Raw,319,9519,320
Raw,287,9520,320
Raw,260,9527,320
Raw,144,9528,320
Raw,297,9538,320
Raw,307,9555,320
Raw,218,9555,320
Raw,569,9557,320
Raw,115,9557,320
Raw,224,9559,320
Raw,255,9563,320
Raw,271,9563,320
Raw,599,9580,320
Raw,267,9587,320
Raw,381,9588,320
Raw,341,9590,320
Raw,422,9596,320
Raw,882,9602,320
Raw,207,9603,320
Raw,265,9614,320
Raw,320,9618,320
Raw,259,9637,320
Raw,557,9645,320
Raw,223,9645,320
Raw,285,9655,320
Raw,300,9661,320
Raw,292,9667,320
Raw,324,9674,320
Raw,310,9679,320
Raw,301,9682,320
Raw,208,9699,320
Raw,320,9707,320
Raw,292,9709,320
Raw,209,9720,320
Raw,246,9720,320
Raw,171,9724,320
Raw,230,9726,320
Raw,269,9737,320
Raw,265,9739,320
Raw,305,9751,320
Raw,282,9761,320
Raw,280,9770,320
Raw,399,9773,320
Raw,528,9782,320
Raw,67,9789,320
Raw,387,9790,320
Raw,925,9791,320
Raw,337,9794,320
Raw,865,9802,320
Raw,130,9806,320
Raw,222,9808,320
Raw,467,9830,320
Raw,296,9832,320
Raw,333,9838,320
Raw,305,9839,320
Raw,124,9839,320
Raw,291,9864,320
Raw,306,9906,320
Raw,250,9912,320
Raw,214,9912,320
Raw,310,9918,320
Raw,297,9930,320
Raw,61,9937,320
Raw,181,9942,320
Raw,300,9948,320
Raw,193,9951,320
Raw,219,9954,320
Raw,258,9960,320
Raw,312,9976,320
Raw,135,9986,320
Raw,275,10003,320
Raw,321,10012,320
Raw,102,10014,320
Raw,310,10019,320
Raw,297,10019,320
Raw,266,10037,320
Raw,193,10037,320
Raw,110,10044,320
Raw,263,10054,320
Raw,188,10055,320
Raw,229,10065,320
Raw,276,10067,320
Raw,99,10072,320
Raw,341,10088,320
Raw,115,10090,320
Raw,195,10098,320
Raw,126,10098,320
Raw,301,10107,320
Raw,221,10107,320
Raw,346,10119,320
Raw,276,10140,320
Raw,240,10143,320
Raw,300,10150,320
Raw,46,10159,320
Raw,306,10162,320
Raw,213,10174,320
Raw,553,10179,320
Raw,220,10189,320
Raw,504,10202,320
Raw,280,10204,320
Raw,204,10206,320
Raw,117,10208,320
Raw,315,10217,320
Raw,219,10222,320
Raw,219,10231,320
Raw,56,10233,320
Raw,300,10239,320
Raw,103,10239,320
Raw,517,10240,320
Raw,290,10243,320
Raw,293,10248,320
Raw,316,10262,320
Raw,126,10267,320
Raw,241,10268,320
Raw,262,10271,320
Raw,342,10277,320
Raw,306,10281,320
Raw,328,10286,320
Raw,311,10288,320
Raw,306,10289,320
Raw,224,10294,320
Raw,414,10298,320
Raw,298,10311,320
Raw,293,10322,320
Raw,306,10323,320
Raw,609,10327,320
Raw,198,10328,320
Raw,64,10329,320
Raw,181,10333,320
Raw,98,10337,320
Raw,335,10398,320
Raw,282,10399,320
Raw,46,10404,320
Raw,286,10406,320
Raw,86,10406,320
Raw,634,10417,320
Raw,190,10420,320
Raw,284,10452,320
Raw,216,10453,320
Raw,298,10467,320
Raw,325,10470,320
Raw,319,10473,320
Raw,292,10489,320
Raw,453,10500,320
Raw,239,10501,320
Raw,597,10502,320
Raw,309,10510,320
Raw,337,10516,320
Raw,199,10525,320
Raw,307,10534,320
Raw,305,10537,320
Raw,277,10539,320
Raw,257,10540,320
Raw,320,10546,320
Raw,243,10547,320
Raw,254,10555,320
Raw,500,10574,320
Raw,71,10574,320
Raw,313,10591,320
Raw,299,10603,320
Raw,297,10614,320
Raw,319,10616,320
Raw,499,10617,320
Raw,294,10621,320
Raw,305,10623,320
Raw,290,10624,320
Raw,278,10633,320
Raw,274,10635,320
Raw,321,10680,320
Raw,294,10681,320
Raw,308,10689,320
Raw,320,10695,320
Raw,470,10710,320
Raw,191,10712,320
Raw,182,10720,320
Raw,300,10724,320
Raw,293,10729,320
Raw,225,10735,320
Raw,897,10737,320
Raw,257,10742,320
Raw,336,10755,320
Raw,306,10756,320
Raw,601,10758,320
Raw,285,10760,320
Raw,525,10764,320
Raw,295,10769,320
Raw,298,10770,320
Raw,485,10771,320
Raw,221,10779,320
Raw,293,10782,320
Raw,588,10814,320
Raw,331,10820,320
Raw,324,10829,320
Raw,160,10829,320
Raw,708,10836,320
Raw,52,10840,320
Raw,249,10844,320
Raw,327,10850,320
Raw,74,10860,320
Raw,231,10902,320
Raw,295,10909,320
Raw,259,10910,320
Raw,286,10919,320
Raw,615,10929,320
Raw,290,10931,320
Raw,179,10935,320
Raw,238,10938,320
Raw,178,10948,320
Raw,321,10952,320
Raw,289,10952,320
Raw,191,10960,320
Raw,320,10964,320
Raw,165,10977,320
Raw,202,10986,320
Raw,322,10987,320
Raw,276,10996,320
Raw,287,10996,320
Raw,71,11000,320
Raw,282,11001,320
Raw,326,11003,320
Raw,155,11010,320
Raw,494,11026,320
Raw,178,11038,320
Raw,256,11043,320
Raw,298,11058,320
Raw,258,11061,320
Raw,305,11077,320
Raw,251,11083,320
Raw,42,11118,320
Raw,295,11121,320
Raw,297,11123,320
Raw,62,11137,320
Raw,275,11182,320
Raw,377,11185,320
Raw,221,11207,320
Raw,362,11223,320
Raw,289,11227,320
Raw,281,11229,320
Raw,204,11235,320
Raw,326,11243,320
Raw,307,11280,320
Raw,277,11286,320
Raw,18,11286,320
Raw,306,11295,320
Raw,217,11322,320
Raw,300,11326,320
Raw,304,11334,320
Raw,291,11335,320
Raw,223,11335,320
Raw,132,11336,320
Raw,321,11340,320
Raw,186,11341,320
Raw,280,11345,320
Raw,187,11349,320
Raw,109,11351,320
Raw,191,11359,320
Raw,321,11369,320
Raw,287,11374,320
Raw,312,11376,320
Raw,319,11378,320
Raw,294,11385,320
Raw,312,11386,320
Raw,214,11389,320
Raw,874,11401,320
Raw,411,11414,320
Raw,282,11417,320
Raw,583,11431,320
Raw,233,11437,320
Raw,50,11447,320
Raw,310,11449,320
Raw,116,11452,320
Raw,139,11459,320
Raw,285,11470,320
Raw,299,11476,320
Raw,295,11491,320
Raw,81,11501,320
Raw,282,11503,320
Raw,308,11507,320
Raw,325,11513,320
Raw,10,11513,320
Raw,268,11520,320
Raw,217,11524,320
Raw,302,11540,320
Raw,310,11545,320
Raw,200,11548,320
Raw,290,11564,320
Raw,300,11566,320
Raw,141,11567,320
Raw,291,11570,320
Raw,322,11572,320
Raw,155,11572,320
Raw,167,11578,320
Raw,619,11581,320
Raw,156,11581,320
Raw,266,11585,320
Raw,250,11588,320
Raw,278,11592,320
Raw,328,11604,320
Raw,253,11607,320
Raw,276,11608,320
Raw,498,11609,320
Raw,643,11618,320
Raw,302,11621,320
Raw,116,11622,320
Raw,280,11626,320
Raw,289,11637,320
Raw,131,11644,320
Raw,308,11647,320
Raw,297,11651,320
Raw,104,11674,320
Raw,289,11682,320
Raw,244,11683,320
Raw,296,11689,320
Raw,135,11718,320
Raw,292,11719,320
Raw,305,11721,320
Raw,316,11722,320
Raw,319,11723,320
Raw,611,11729,320
Raw,308,11734,320
Raw,174,11737,320
Raw,326,11739,320
Raw,292,11745,320
Raw,228,11747,320
Raw,182,11749,320
Raw,324,11751,320
Raw,260,11752,320
Raw,150,11760,320
Raw,165,11764,320
Raw,298,11765,320
Raw,100,11767,320
Raw,346,11781,320
Raw,213,11794,320
Raw,223,11797,320
Raw,267,11799,320
Raw,320,11802,320
Raw,137,11808,320
Raw,558,11811,320
Raw,610,11813,320
Raw,310,11817,320
Raw,95,11819,320
Raw,299,11826,320
Raw,338,11835,320
Raw,611,11843,320
Raw,256,11845,320
Raw,109,11845,320
Raw,509,11857,320
Raw,326,11866,320
Raw,292,11866,320
Raw,859,11871,320
Raw,221,11871,320
Raw,491,11872,320
Raw,327,11874,320
Raw,227,11874,320
Raw,246,11877,320
Raw,229,11881,320
Raw,272,11885,320
Raw,180,11887,320
Raw,604,11888,320
Raw,525,11897,320
Raw,183,11901,320
Raw,56,11911,320
Raw,306,11917,320
Raw,376,11923,320
Raw,191,11947,320
Raw,256,11949,320
Raw,212,11969,320
Raw,223,11969,320
Raw,202,11989,320
Raw,244,11993,320
Raw,292,12001,320
Raw,280,12004,320
Raw,283,12016,320
Raw,309,12019,320
Raw,155,12020,320
Raw,653,12025,320
Raw,257,12035,320
Raw,607,12041,320
Raw,561,12043,320
Raw,114,12046,320
Raw,608,12055,320
Raw,272,12056,320
Raw,308,12063,320
Raw,325,12089,320
Raw,309,12090,320
Raw,192,12093,320
Raw,422,12094,320
Raw,296,12104,320
Raw,303,12111,320
Raw,165,12119,320
Raw,253,12122,320
Raw,307,12127,320
Raw,237,12130,320
Raw,317,12131,320
Raw,260,12133,320
Raw,329,12135,320
Raw,279,12136,320
Raw,265,12137,320
Raw,313,12151,320
Raw,307,12154,320
Raw,281,12155,320
Raw,611,12156,320
Raw,168,12156,320
Raw,311,12173,320
Raw,339,12186,320
Raw,274,12186,320
Raw,129,12187,320
Raw,618,12189,320
Raw,342,12194,320
Raw,8,12197,320
Raw,318,12198,320
Raw,59,12200,320
Raw,297,12201,320
Raw,272,12223,320
Raw,311,12229,320
Raw,240,12230,320
Raw,308,12233,320
Raw,206,12244,320
Raw,293,12248,320
Raw,284,12249,320
Raw,286,12257,320
Raw,313,12263,320
Raw,284,12268,320
Raw,206,12279,320
Raw,309,12291,320
Raw,146,12308,320
Raw,231,12309,320
Raw,195,12312,320
Raw,318,12318,320
Raw,209,12318,320
Raw,319,12321,320
Raw,231,12329,320
Raw,293,12333,320
Raw,335,12343,320
Raw,137,12343,320
Raw,279,12344,320
Raw,197,12345,320
Raw,148,12345,320
Raw,171,12348,320
Raw,175,12348,320
Raw,150,12351,320
Raw,586,12352,320
Raw,276,12357,320
Raw,279,12372,320
Raw,46,12373,320
Raw,119,12379,320
Raw,448,12380,320
Raw,281,12390,320
Raw,252,12408,320
Raw,307,12422,320
Raw,576,12425,320
Raw,263,12436,320
Raw,284,12443,320
Raw,302,12444,320
Raw,98,12455,320
Raw,296,12465,320
Raw,9,12472,320
Raw,294,12478,320
Raw,299,12480,320
Raw,143,12480,320
Raw,126,12482,320
Raw,236,12482,320
Raw,86,12489,320
Raw,307,12496,320
Raw,202,12505,320
Raw,300,12511,320
Raw,474,12513,320
Raw,335,12516,320
Raw,297,12517,320
Raw,280,12527,320
Raw,298,12532,320
Raw,652,12538,320
Raw,9,12540,320
Raw,307,12551,320
Raw,288,12556,320
Raw,228,12556,320
Raw,558,12579,320
Raw,602,12591,320
Raw,272,12597,320
Raw,161,12598,320
Raw,318,12599,320
Raw,360,12601,320
Raw,245,12606,320
Raw,196,12612,320
Raw,90,12627,320
Raw,227,12637,320
Raw,618,12638,320
Raw,544,12641,320
Raw,473,12651,320
Raw,316,12653,320
Raw,610,12665,320
Raw,234,12668,320
Raw,251,12669,320
Raw,521,12683,320
Raw,227,12696,320
Raw,509,12699,320
Raw,295,12710,320
Raw,207,12717,320
Raw,297,12722,320
Raw,455,12723,320
Raw,292,12730,320
Raw,493,12734,320
Raw,300,12738,320
Raw,277,12739,320
Raw,299,12747,320
Raw,317,12750,320
Raw,298,12751,320
Raw,312,12759,320
Raw,318,12780,320
Raw,296,12787,320
Raw,307,12787,320
Raw,278,12790,320
Raw,257,12793,320
Raw,227,12799,320
Raw,318,12809,320
Raw,150,12813,320
Raw,238,12829,320
Raw,303,12844,320
Raw,326,12849,320
Raw,83,12855,320
Raw,326,12880,320
Raw,324,12885,320
Raw,322,12889,320
Raw,310,12900,320
Raw,295,12900,320
Raw,375,12911,320
Raw,301,12915,320
Raw,77,12916,320
Raw,282,12921,320
Raw,167,12922,320
Raw,292,12922,320
Raw,288,12923,320
Raw,303,12925,320
Raw,295,12927,320
Raw,345,12928,320
Raw,138,12930,320
Raw,280,12936,320
Raw,321,12971,320
Raw,254,12973,320
Raw,288,12980,320
Raw,274,12992,320
Raw,284,13004,320
Raw,459,13013,320
Raw,248,13015,320
Raw,72,13018,320
Raw,137,13048,320
Raw,21,13048,320
Raw,274,13055,320
Raw,582,13058,320
Raw,321,13060,320
Raw,81,13060,320
Raw,255,13061,320
Raw,249,13061,320
Raw,251,13074,320
Raw,16,13083,320
Raw,117,13089,320
Raw,304,13091,320
Raw,318,13095,320
Raw,276,13099,320
Raw,357,13100,320
Raw,294,13102,320
Raw,330,13102,320
Raw,548,13105,320
Raw,285,13107,320
Raw,306,13114,320
Raw,266,13115,320
Raw,127,13123,320
Raw,178,13124,320
Raw,294,13125,320
Raw,263,13127,320
Raw,202,13128,320
Raw,600,13129,320
Raw,302,13134,320
Raw,307,13135,320
Raw,299,13140,320
Raw,132,13146,320
Raw,312,13170,320
Raw,93,13177,320
Raw,178,13197,320
Raw,282,13205,320
Raw,317,13206,320
Raw,334,13208,320
Raw,535,13221,320
Raw,310,13224,320
Raw,224,13233,320
Raw,149,13254,320
Raw,602,13259,320
Raw,305,13283,320
Raw,294,13285,320
Raw,229,13293,320
Raw,300,13294,320
Raw,297,13321,320
Raw,275,13323,320
Raw,144,13326,320
Raw,278,13336,320
Raw,292,13346,320
Raw,328,13351,320
Raw,325,13353,320
Raw,191,13365,320
Raw,312,13367,320
Raw,185,13368,320
Raw,265,13369,320
Raw,199,13380,320
Raw,594,13381,320
Raw,265,13382,320
Raw,164,13399,320
Raw,631,13402,320
Raw,147,13417,320
Raw,605,13418,320
Raw,247,13436,320
Raw,303,13443,320
Raw,311,13444,320
Raw,309,13452,320
Raw,303,13463,320
Raw,296,13463,320
Raw,568,13468,320
Raw,301,13471,320
Raw,302,13472,320
Raw,259,13473,320
Raw,197,13474,320
Raw,269,13484,320
Raw,297,13493,320
Raw,391,13496,320
Raw,258,13496,320
Raw,317,13498,320
Raw,212,13507,320
Raw,185,13513,320
Raw,267,13516,320
Raw,57,13516,320
Raw,273,13524,320
Raw,242,13528,320
Raw,276,13533,320
Raw,275,13552,320
Raw,279,13553,320
Raw,288,13556,320
Raw,304,13579,320
Raw,316,13588,320
Raw,294,13589,320
Raw,296,13602,320
Raw,578,13604,320
Raw,92,13611,320
Raw,827,13618,320
Raw,111,13624,320
Raw,153,13627,320
Raw,319,13632,320
Raw,175,13635,320
Raw,299,13636,320
Raw,532,13641,320
Raw,770,13642,320
Raw,613,13655,320
Raw,295,13666,320
Raw,325,13691,320
Raw,280,13700,320
Raw,67,13700,320
Raw,270,13703,320
Raw,284,13704,320
Raw,297,13710,320
Raw,214,13710,320
Raw,321,13711,320
Raw,156,13729,320
Raw,296,13734,320
Raw,602,13748,320
Raw,316,13759,320
Raw,312,13761,320
Raw,434,13770,320
Raw,482,13771,320
Raw,453,13778,320
Raw,304,13779,320
Raw,503,13783,320
Raw,116,13790,320
Raw,266,13790,320
Raw,324,13806,320
Raw,294,13808,320
Raw,224,13820,320
Raw,243,13821,320
Raw,284,13821,320
Raw,309,13822,320
Raw,315,13824,320
Raw,262,13827,320
Raw,129,13834,320
Raw,170,13834,320
Raw,247,13836,320
Raw,230,13837,320
Raw,815,13839,320
Raw,274,13844,320
Raw,295,13852,320
Raw,28,13860,320
Raw,210,13868,320
Raw,310,13869,320
Raw,338,13872,320
Raw,274,13873,320
Raw,109,13873,320
Raw,617,13876,320
Raw,344,13880,320
Raw,64,13886,320
Raw,313,13887,320
Raw,280,13888,320
Raw,283,13897,320
Raw,314,13901,320
Raw,303,13904,320
Raw,321,13911,320
Raw,206,13914,320
Raw,289,13919,320
Raw,164,13933,320
Raw,254,13940,320
Raw,253,13948,320
Raw,173,13952,320
Raw,254,13954,320
Raw,307,13956,320
Raw,399,13964,320
Raw,195,13964,320
Raw,222,13967,320
Raw,515,13969,320
Raw,303,13973,320
Raw,150,13977,320
Raw,604,13999,320
Raw,185,14006,320
Raw,466,14013,320
Raw,240,14027,320
Raw,305,14036,320
Raw,319,14039,320
Raw,312,14048,320
Raw,102,14055,320
Raw,600,14057,320
Raw,473,14058,320
Raw,272,14064,320
Raw,215,14071,320
Raw,296,14073,320
Raw,304,14091,320
Raw,319,14091,320
Raw,290,14096,320
Raw,59,14096,320
Raw,220,14103,320
Raw,346,14106,320
Raw,364,14113,320
Raw,340,14121,320
Raw,180,14121,320
Raw,327,14132,320
Raw,282,14133,320
Raw,297,14134,320
Raw,186,14137,320
Raw,328,14140,320
Raw,509,14151,320
Raw,261,14164,320
Raw,207,14167,320
Raw,291,14177,320
Raw,127,14177,320
Raw,202,14189,320
Raw,211,14190,320
Raw,311,14192,320
Raw,254,14192,320
Raw,286,14197,320
Raw,283,14199,320
Raw,215,14206,320
Raw,287,14212,320
Raw,195,14220,320
Raw,275,14229,320
Raw,304,14237,320
Raw,89,14246,320
Raw,309,14247,320
Raw,292,14248,320
Raw,313,14251,320
Raw,397,14254,320
Raw,302,14269,320
Raw,295,14271,320
Raw,271,14272,320
Raw,310,14281,320
Raw,323,14299,320
Raw,293,14337,320
Raw,271,14338,320
Raw,342,14345,320
Raw,324,14347,320
Raw,258,14351,320
Raw,243,14352,320
Raw,317,14403,320
Raw,134,14404,320
Raw,17,14405,320
Raw,3,14411,320
Raw,303,14412,320
Raw,224,14412,320
Raw,293,14416,320
Raw,211,14419,320
Raw,263,14419,320
Raw,354,14424,320
Raw,325,14431,320
Raw,200,14448,320
Raw,298,14449,320
Raw,405,14451,320
Raw,253,14462,320
Raw,288,14470,320
Raw,342,14478,320
Raw,299,14481,320
Raw,270,14482,320
Raw,495,14491,320
Raw,309,14492,320
Raw,301,14493,320
Raw,250,14503,320
Raw,318,14511,320
Raw,316,14513,320
Raw,758,14517,320
Raw,245,14520,320
Raw,317,14533,320
Raw,268,14539,320
Raw,320,14542,320
Raw,252,14560,320
Raw,308,14571,320
Raw,169,14579,320
Raw,180,14582,320
Raw,301,14587,320
Raw,260,14587,320
Raw,281,14596,320
Raw,338,14602,320
Raw,28,14607,320
Raw,537,14608,320
Raw,175,14615,320
Raw,271,14616,320
Raw,57,14623,320
Raw,344,14628,320
Raw,223,14629,320
Raw,300,14634,320
Raw,187,14634,320
Raw,305,14638,320
Raw,290,14649,320
Raw,219,14659,320
Raw,377,14662,320
Raw,273,14666,320
Raw,615,14692,320
Raw,568,14693,320
Raw,123,14698,320
Raw,313,14703,320
Raw,511,14705,320
Raw,653,14708,320
Raw,285,14713,320
Raw,215,14717,320
Raw,333,14730,320
Raw,310,14738,320
Raw,392,14739,320
Raw,519,14744,320
Raw,327,14752,320
Raw,297,14757,320
Raw,194,14768,320
Raw,273,14768,320
Raw,341,14769,320
Raw,503,14770,320
Raw,118,14775,320
Raw,91,14776,320
Raw,265,14778,320
Raw,142,14779,320
Raw,548,14783,320
Raw,31,14786,320
Raw,519,14787,320
Raw,172,14815,320
Raw,463,14817,320
Raw,293,14825,320
Raw,297,14832,320
Raw,304,14837,320
Raw,301,14845,320
Raw,303,14848,320
Raw,248,14865,320
Raw,286,14869,320
Raw,414,14872,320
Raw,342,14876,320
Raw,207,14888,320
Raw,475,14898,320
Raw,76,14913,320
Raw,242,14916,320
Raw,326,14919,320
Raw,430,14921,320
Raw,170,14921,320
Raw,281,14922,320
Raw,318,14934,320
Raw,332,14938,320
Raw,302,14941,320
Raw,26,14942,320
Raw,327,14945,320
Raw,435,14946,320
Raw,281,14948,320
Raw,69,14949,320
Raw,257,14954,320
Raw,296,14955,320
Raw,318,14956,320
Raw,165,14956,320
Raw,178,14958,320
Raw,322,14964,320
Raw,264,14971,320
Raw,298,14974,320
Raw,180,14998,320
Raw,323,15003,320
Raw,236,15003,320
Raw,287,15006,320
Raw,328,15016,320
Raw,278,15022,320
Raw,260,15031,320
Raw,298,15032,320
Raw,304,15038,320
Raw,562,15043,320
Raw,313,15048,320
Raw,584,15057,320
Raw,110,15061,320
Raw,171,15070,320
Raw,132,15081,320
Raw,583,15085,320
Raw,278,15087,320
Raw,285,15088,320
Raw,291,15091,320
Raw,285,15097,320
Raw,301,15105,320
Raw,257,15105,320
Raw,178,15109,320
Raw,759,15115,320
Raw,437,15117,320
Raw,233,15127,320
Raw,303,15135,320
Raw,534,15136,320
Raw,247,15161,320
Raw,307,15172,320
Raw,326,15176,320
Raw,309,15178,320
Raw,101,15179,320
Raw,332,15181,320
Raw,182,15181,320
Raw,351,15183,320
Raw,320,15189,320
Raw,303,15193,320
Raw,291,15194,320
Raw,286,15196,320
Raw,196,15202,320
Raw,227,15206,320
Raw,303,15211,320
Raw,292,15217,320
Raw,292,15225,320
Raw,753,15234,320
Raw,71,15239,320
Raw,159,15242,320
Raw,338,15249,320
Raw,252,15262,320
Raw,474,15263,320
Raw,325,15266,320
Raw,317,15270,320
Raw,303,15271,320
Raw,308,15277,320
Raw,176,15304,320
Raw,407,15305,320
Raw,112,15318,320
Raw,193,15320,320
Raw,630,15321,320
Raw,255,15324,320
Raw,206,15326,320
Raw,68,15326,320
Raw,300,15347,320
Raw,224,15350,320
Raw,264,15353,320
Raw,311,15362,320
Raw,214,15366,320
Raw,14,15367,320
Raw,572,15372,320
Raw,316,15374,320
Raw,284,15383,320
Raw,319,15395,320
Raw,221,15398,320
Raw,100,15407,320
Raw,303,15408,320
Raw,206,15414,320
Raw,303,15419,320
Raw,501,15421,320
Raw,202,15426,320
Raw,50,15436,320
Raw,282,15441,320
Raw,282,15448,320
Raw,241,15475,320
Raw,257,15476,320
Raw,210,15505,320
Raw,595,15508,320
Raw,194,15512,320
Raw,398,15519,320
Raw,248,15523,320
Raw,233,15533,320
Raw,330,15555,320
Raw,316,15569,320
Raw,337,15571,320
Raw,304,15575,320
Raw,302,15582,320
Raw,221,15590,320
Raw,104,15607,320
Raw,296,15613,320
Raw,187,15617,320
Raw,278,15627,320
Raw,59,15630,320
Raw,296,15632,320
Raw,220,15642,320
Raw,325,15646,320
Raw,218,15651,320
Raw,247,15651,320
Raw,156,15666,320
Raw,127,15666,320
Raw,521,15684,320
Raw,262,15691,320
Raw,285,15694,320
Raw,189,15715,320
Raw,327,15718,320
Raw,242,15718,320
Raw,455,15752,320
Raw,582,15753,320
Raw,278,15760,320
Raw,276,15795,320
Raw,303,15803,320
Raw,276,15812,320
Raw,904,15831,320
Raw,311,15834,320
Raw,260,15835,320
Raw,290,15851,320
Raw,321,15865,320
Raw,251,15874,320
Raw,311,15882,320
Raw,200,15885,320
Raw,280,15899,320
Raw,306,15902,320
Raw,277,15933,320
Raw,294,15938,320
Raw,165,15968,320
Raw,281,15969,320
Raw,228,15976,320
Raw,257,15978,320
Raw,284,15984,320
Raw,162,15987,320
Raw,401,15990,320
Raw,299,15992,320
Raw,9,15993,320
Raw,198,16021,320
Raw,354,16023,320
Raw,304,16057,320
Raw,207,16073,320
Raw,307,16079,320
Raw,280,16117,320
Raw,196,16120,320
Raw,198,16121,320
Raw,275,16127,320
Raw,304,16136,320
Raw,330,16141,320
Raw,285,16151,320
Raw,289,16159,320
Raw,318,16169,320
Raw,216,16183,320
Raw,290,16188,320
Raw,277,16194,320
Raw,238,16203,320
Raw,315,16213,320
Raw,255,16221,320
Raw,268,16223,320
Raw,309,16232,320
Raw,260,16232,320
Raw,251,16247,320
Raw,307,16248,320
Raw,295,16259,320
Raw,195,16265,320
Raw,209,16266,320
Raw,282,16294,320
Raw,310,16299,320
Raw,185,16313,320
Raw,301,16315,320
Raw,188,16317,320
Raw,299,16321,320
Raw,269,16325,320
Raw,265,16342,320
Raw,111,16344,320
Raw,194,16345,320
Raw,281,16347,320
Raw,257,16348,320
Raw,298,16374,320
Raw,230,16383,320
Raw,127,16395,320
Raw,248,16412,320
Raw,303,16417,320
Raw,317,16428,320
Raw,258,16432,320
Raw,316,16435,320
Raw,283,16455,320
Raw,245,16459,320
Raw,289,16462,320
Raw,35,16466,320
Raw,49,16466,320
Raw,292,16470,320
Raw,239,16477,320
Raw,338,16478,320
Raw,280,16481,320
Raw,261,16496,320
Raw,248,16517,320
Raw,315,16527,320
Raw,297,16530,320
Raw,204,16550,320
Raw,286,16554,320
Raw,311,16567,320
Raw,202,16568,320
Raw,297,16579,320
Raw,275,16592,320
Raw,270,16595,320
Raw,274,16605,320
Raw,291,16606,320
Raw,287,16613,320
Raw,237,16616,320
Raw,481,16619,320
Raw,301,16624,320
Raw,321,16630,320
Raw,308,16632,320
Raw,72,16634,320
Raw,192,16640,320
Raw,610,16643,320
Raw,203,16661,320
Raw,278,16662,320
Raw,299,16664,320
Raw,146,16668,320
Raw,36,16674,320
Raw,229,16677,320
Raw,265,16677,320
Raw,299,16683,320
Raw,308,16689,320
Raw,65,16689,320
Raw,174,16701,320
Raw,265,16702,320
Raw,302,16707,320
Raw,332,16726,320
Raw,269,16728,320
Raw,581,16728,320
Raw,299,16732,320
Raw,246,16751,320
Raw,189,16752,320
Raw,325,16754,320
Raw,329,16759,320
Raw,246,16762,320
Raw,180,16764,320
Raw,317,16766,320
Raw,342,16774,320
Raw,275,16783,320
Raw,13,16787,320
Raw,290,16790,320
Raw,273,16796,320
Raw,317,16816,320
Raw,290,16824,320
Raw,528,16840,320
Raw,308,16851,320
Raw,218,16852,320
Raw,161,16865,320
Raw,237,16874,320
Raw,280,16876,320
Raw,136,16876,320
Raw,306,16877,320
Raw,498,16880,320
Raw,180,16885,320
Raw,255,16889,320
Raw,904,16893,320
Raw,290,16896,320
Raw,296,16898,320
Raw,3,16898,320
Raw,291,16907,320
Raw,40,16913,320
Raw,655,16919,320
Raw,289,16932,320
Raw,260,16937,320
Raw,305,16948,320
Raw,308,16950,320
Raw,232,16951,320
Raw,303,16952,320
Raw,315,16953,320
Raw,225,16982,320
Raw,185,17004,320
Raw,205,17022,320
Raw,171,17031,320
Raw,314,17049,320
Raw,261,17054,320
Raw,8,17073,320
Raw,295,17074,320
Raw,300,17077,320
Raw,118,17082,320
Raw,299,17091,320
Raw,341,17096,320
Raw,304,17103,320
Raw,488,17104,320
Raw,184,17111,320
Raw,242,17114,320
Raw,280,17114,320
Raw,120,17116,320
Raw,37,17116,320
Raw,269,17119,320
Raw,301,17121,320
Raw,241,17121,320
Raw,209,17127,320
Raw,64,17128,320
Raw,332,17132,320
Raw,554,17143,320
Raw,329,17149,320
Raw,275,17157,320
Raw,296,17160,320
Raw,312,17165,320
Raw,135,17167,320
Raw,186,17170,320
Raw,106,17170,320
Raw,205,17179,320
Raw,314,17193,320
Raw,318,17199,320
Raw,295,17202,320
Raw,39,17206,320
Raw,299,17213,320
Raw,326,17218,320
Raw,288,17222,320
Raw,201,17223,320
Raw,226,17234,320
Raw,39,17236,320
Raw,285,17237,320
Raw,296,17239,320
Raw,322,17240,320
Raw,267,17241,320
Raw,212,17241,320
Raw,321,17253,320
Raw,195,17257,320
Raw,204,17264,320
Raw,232,17271,320
Raw,289,17275,320
Raw,303,17279,320
Raw,100,17287,320
Raw,260,17300,320
Raw,77,17327,320
Raw,312,17332,320
Raw,168,17340,320
Raw,168,17348,320
Raw,249,17353,320
Raw,287,17355,320
Raw,270,17357,320
Raw,317,17369,320
Raw,142,17370,320
Raw,140,17372,320
Raw,195,17374,320
Raw,27,17380,320
Raw,304,17381,320
Raw,304,17386,320
Raw,258,17390,320
Raw,293,17390,320
Raw,182,17392,320
Raw,275,17396,320
Raw,301,17413,320
Raw,282,17419,320
Raw,317,17428,320
Raw,294,17436,320
Raw,182,17438,320
Raw,22,17440,320
Raw,226,17459,320
Raw,294,17468,320
Raw,295,17474,320
Raw,477,17491,320
Raw,292,17493,320
Raw,613,17515,320
Raw,328,17526,320
Raw,293,17539,320
Raw,52,17552,320
Raw,5,17553,320
Raw,314,17558,320
Raw,189,17586,320
Raw,82,17602,320
Raw,307,17604,320
Raw,287,17612,320
Raw,525,17629,320
Raw,297,17674,320
Raw,326,17678,320
Raw,310,17704,320
Raw,298,17711,320
Raw,597,17746,320
Raw,296,17755,320
Raw,113,17757,320
Raw,308,17762,320
Raw,312,17779,320
Raw,340,17786,320
Raw,443,17792,320
Raw,279,17801,320
Raw,281,17808,320
Raw,276,17812,320
Raw,269,17814,320
Raw,182,17818,320
Raw,113,17819,320
Raw,296,17826,320
Raw,327,17831,320
Raw,515,17848,320
Raw,262,17852,320
Raw,316,17856,320
Raw,293,17860,320
Raw,305,17874,320
Raw,233,17884,320
Raw,281,17889,320
Raw,329,17899,320
Raw,446,17899,320
Raw,294,17900,320
Raw,268,17907,320
Raw,293,17950,320
Raw,68,17953,320
Raw,113,17953,320
Raw,251,17954,320
Raw,267,17971,320
Raw,166,17974,320
Raw,288,17984,320
Raw,571,17996,320
Raw,256,18004,320
Raw,308,18006,320
Raw,282,18010,320
Raw,154,18021,320
Raw,57,18021,320
Raw,50,18022,320
Raw,217,18029,320
Raw,312,18032,320
Raw,222,18037,320
Raw,63,18038,320
Raw,295,18042,320
Raw,309,18043,320
Raw,624,18051,320
Raw,299,18064,320
Raw,414,18073,320
Raw,324,18077,320
Raw,309,18089,320
Raw,282,18105,320
Raw,598,18110,320
Raw,109,18112,320
Raw,292,18122,320
Raw,270,18137,320
Raw,322,18138,320
Raw,333,18143,320
Raw,223,18154,320
Raw,311,18168,320
Raw,187,18175,320
Raw,299,18178,320
Raw,280,18190,320
Raw,210,18193,320
Raw,159,18195,320
Raw,274,18197,320
Raw,582,18208,320
Raw,284,18213,320
Raw,687,18243,320
Raw,298,18249,320
Raw,29,18254,320
Raw,193,18260,320
Raw,318,18261,320
Raw,178,18262,320
Raw,293,18283,320
Raw,140,18285,320
Raw,133,18294,320
Raw,250,18294,320
Raw,260,18301,320
Raw,193,18310,320
Raw,301,18320,320
Raw,22,18327,320
Raw,285,18332,320
Raw,306,18337,320
Raw,194,18338,320
Raw,163,18343,320
Raw,285,18347,320
Raw,302,18350,320
Raw,329,18352,320
Raw,256,18362,320
Raw,632,18377,320
Raw,284,18413,320
Raw,513,18429,320
Raw,279,18430,320
Raw,313,18439,320
Raw,201,18441,320
Raw,192,18454,320
Raw,313,18472,320
Raw,237,18479,320
Raw,300,18495,320
Raw,243,18504,320
Raw,12,18514,320
Raw,297,18517,320
Raw,294,18517,320
Raw,318,18527,320
Raw,431,18544,320
Raw,139,18572,320
Raw,342,18579,320
Raw,628,18585,320
Raw,315,18588,320
Raw,81,18588,320
Raw,287,18594,320
Raw,591,18606,320
Raw,339,18614,320
Raw,172,18627,320
Raw,215,18640,320
Raw,152,18643,320
Raw,201,18683,320
Raw,273,18700,320
Raw,289,18700,320
Raw,187,18707,320
Raw,372,18716,320
Raw,296,18723,320
Raw,209,18738,320
Raw,327,18749,320
Raw,248,18771,320
Raw,241,18775,320
Raw,174,18810,320
Raw,272,18812,320
Raw,314,18839,320
Raw,237,18855,320
Raw,538,18857,320
Raw,84,18857,320
Raw,194,18858,320
Raw,188,18858,320
Raw,324,18861,320
Raw,615,18865,320
Raw,260,18870,320
Raw,192,18881,320
Raw,188,18881,320
Raw,378,18889,320
Raw,291,18894,320
Raw,491,18895,320
Raw,275,18920,320
Raw,615,18922,320
Raw,205,18925,320
Raw,296,18926,320
Raw,141,18927,320
Raw,65,18944,320
Raw,592,18949,320
Raw,68,18952,320
Raw,538,18960,320
Raw,241,18973,320
Raw,283,18975,320
Raw,201,18978,320
Raw,36,18979,320
Raw,313,18982,320
Raw,291,18984,320
Raw,617,18990,320
Raw,149,18990,320
Raw,704,18992,320
Raw,306,18994,320
Raw,195,19005,320
Raw,76,19013,320
Raw,341,19027,320
Raw,209,19028,320
Raw,179,19042,320
Raw,273,19042,320
Raw,308,19043,320
Raw,192,19054,320
Raw,683,19064,320
Raw,590,19070,320
Raw,285,19071,320
Raw,228,19074,320
Raw,841,19077,320
Raw,114,19080,320
Raw,277,19084,320
Raw,541,19092,320
Raw,282,19100,320
Raw,300,19106,320
Raw,327,19108,320
Raw,228,19109,320
Raw,198,19111,320
Raw,111,19118,320
Raw,205,19121,320
Raw,282,19142,320
Raw,333,19157,320
Raw,335,19161,320
Raw,300,19163,320
Raw,321,19168,320
Raw,665,19171,320
Raw,258,19180,320
Raw,259,19182,320
Raw,213,19212,320
Raw,609,19214,320
Raw,301,19218,320
Raw,131,19222,320
Raw,259,19225,320
Raw,308,19232,320
Raw,249,19252,320
Raw,151,19254,320
Raw,289,19256,320
Raw,226,19259,320
Raw,283,19260,320
Raw,143,19262,320
Raw,332,19263,320
Raw,236,19264,320
Raw,57,19277,320
Raw,800,19283,320
Raw,317,19287,320
Raw,274,19290,320
Raw,199,19292,320
Raw,485,19304,320
Raw,299,19304,320
Raw,195,19309,320
Raw,322,19317,320
Raw,101,19317,320
Raw,196,19318,320
Raw,133,19327,320
Raw,63,19337,320
Raw,62,19341,320
Raw,484,19357,320
Raw,224,19357,320
Raw,462,19360,320
Raw,271,19361,320
Raw,233,19362,320
Raw,66,19364,320
Raw,631,19369,320
Raw,171,19388,320
Raw,229,19397,320
Raw,203,19407,320
Raw,174,19408,320
Raw,114,19408,320
Raw,258,19409,320
Raw,589,19418,320
Raw,146,19427,320
Raw,166,19432,320
Raw,277,19432,320
Raw,341,19433,320
Raw,284,19437,320
Raw,197,19443,320
Raw,104,19443,320
Raw,301,19458,320
Raw,314,19458,320
Raw,309,19471,320
Raw,314,19474,320
Raw,321,19491,320
Raw,266,19496,320
Raw,287,19501,320
Raw,148,19523,320
Raw,305,19525,320
Raw,533,19527,320
Raw,304,19537,320
Raw,592,19542,320
Raw,272,19543,320
Raw,315,19552,320
Raw,258,19555,320
Raw,215,19575,320
Raw,241,19575,320
Raw,226,19576,320
Raw,289,19576,320
Raw,336,19590,320
Raw,624,19618,320
Raw,60,19619,320
Raw,305,19620,320
Raw,632,19636,320
Raw,301,19640,320
Raw,353,19641,320
Raw,908,19643,320
Raw,305,19647,320
Raw,272,19650,320
Raw,298,19657,320
Raw,270,19658,320
Raw,224,19660,320
Raw,169,19661,320
Raw,331,19675,320
Raw,317,19680,320
Raw,196,19681,320
Raw,224,19694,320
Raw,246,19694,320
Raw,253,19696,320
Raw,197,19714,320
Raw,313,19716,320
Raw,289,19723,320
Raw,112,19727,320
Raw,246,19733,320
Raw,274,19735,320
Raw,303,19741,320
Raw,183,19742,320
Raw,285,19755,320
Raw,291,19761,320
Raw,205,19763,320
Raw,132,19763,320
Raw,307,19766,320
Raw,587,19767,320
Raw,5,19767,320
Raw,268,19776,320
Raw,43,19779,320
Raw,324,19783,320
Raw,301,19796,320
Raw,329,19800,320
Raw,206,19806,320
Raw,282,19815,320
Raw,577,19830,320
Raw,279,19840,320
Raw,302,19843,320
Raw,240,19853,320
Raw,183,19858,320
Raw,299,19863,320
Raw,620,19876,320
Raw,297,19882,320
Raw,100,19885,320
Raw,167,19888,320
Raw,303,19893,320
Raw,140,19895,320
Raw,316,19907,320
Raw,180,19909,320
Raw,193,19909,320
Raw,267,19911,320
Raw,283,19919,320
Raw,295,19921,320
Raw,286,19930,320
Raw,562,19935,320
Raw,285,19947,320
Raw,294,19953,320
Raw,526,19956,320
Raw,247,19963,320
Raw,605,19971,320
Raw,319,19981,320
Raw,160,19981,320
Raw,319,19991,320
Raw,111,19995,320
Raw,325,20003,320
Raw,548,20005,320
Raw,262,20010,320
Raw,277,20012,320
Raw,306,20021,320
Raw,131,20024,320
Raw,201,20027,320
Raw,152,20031,320
Raw,244,20036,320
Raw,281,20040,320
Raw,190,20046,320
Raw,270,20071,320
Raw,653,20080,320
Raw,4,20084,320
Raw,347,20087,320
Raw,262,20089,320
Raw,166,20092,320
Raw,292,20098,320
Raw,295,20111,320
Raw,305,20119,320
Raw,293,20121,320
Raw,269,20121,320
Raw,157,20130,320
Raw,256,20137,320
Raw,25,20139,320
Raw,155,20140,320
Raw,279,20151,320
Raw,300,20156,320
Raw,291,20162,320
Raw,247,20163,320
Raw,296,20165,320
Raw,91,20167,320
Raw,328,20168,320
Raw,299,20170,320
Raw,296,20183,320
Raw,217,20185,320
Raw,255,20186,320
Raw,269,20189,320
Raw,288,20197,320
Raw,608,20202,320
Raw,190,20202,320
Raw,187,20203,320
Raw,657,20207,320
Raw,312,20209,320
Raw,54,20212,320
Raw,308,20213,320
Raw,294,20213,320
Raw,294,20218,320
Raw,276,20218,320
Raw,102,20221,320
Raw,298,20228,320
Raw,71,20243,320
Raw,277,20243,320
Raw,245,20247,320
Raw,126,20257,320
Raw,282,20288,320
Raw,288,20305,320
Raw,129,20306,320
Raw,313,20310,320
Raw,304,20315,320
Raw,164,20320,320
Raw,244,20334,320
Raw,206,20339,320
Raw,210,20345,320
Raw,258,20348,320
Raw,51,20352,320
Raw,167,20358,320
Raw,573,20364,320
Raw,279,20380,320
Raw,314,20382,320
Raw,184,20386,320
Raw,244,20386,320
Raw,622,20387,320
Raw,253,20394,320
Raw,327,20398,320
Raw,329,20402,320
Raw,289,20409,320
Raw,221,20411,320
Raw,291,20414,320
Raw,300,20415,320
Raw,605,20415,320
Raw,608,20422,320
Raw,508,20427,320
Raw,9,20427,320
Raw,408,20453,320
Raw,275,20455,320
Raw,293,20466,320
Raw,314,20477,320
Raw,264,20478,320
Raw,225,20488,320
Raw,278,20509,320
Raw,345,20515,320
Raw,135,20527,320
Raw,288,20548,320
Raw,302,20554,320
Raw,100,20563,320
Raw,246,20568,320
Raw,294,20580,320
Raw,317,20597,320
Raw,258,20604,320
Raw,197,20627,320
Raw,300,20631,320
Raw,291,20653,320
