Cut?,Counts,eventNumber,runNumber
Raw,216,0,319
Raw,318,2,319
Raw,288,3,319
Raw,198,4,319
Raw,323,5,319
Raw,263,6,319
Raw,335,7,319
Raw,282,8,319
Raw,323,9,319
Raw,342,10,319
Raw,309,11,319
Raw,336,12,319
Raw,307,13,319
Raw,180,14,319
Raw,317,15,319
Raw,312,16,319
Raw,319,17,319
Raw,252,18,319
Raw,299,19,319
Raw,259,21,319
Raw,255,23,319
Raw,312,24,319
Raw,312,25,319
Raw,184,26,319
Raw,332,27,319
Raw,299,28,319
Raw,306,29,319
Raw,112,30,319
Raw,298,31,319
Raw,239,32,319
Raw,328,34,319
Raw,273,35,319
Raw,320,36,319
Raw,191,37,319
Raw,314,38,319
Raw,270,39,319
Raw,299,40,319
Raw,323,41,319
Raw,302,42,319
Raw,195,42,319
Raw,293,43,319
Raw,117,44,319
Raw,311,45,319
Raw,200,46,319
Raw,327,47,319
Raw,329,48,319
Raw,282,49,319
Raw,264,51,319
Raw,307,52,319
Raw,122,53,319
Raw,235,54,319
Raw,303,55,319
Raw,309,56,319
Raw,359,57,319
Raw,129,58,319
Raw,226,60,319
Raw,391,61,319
Raw,317,62,319
Raw,131,63,319
Raw,480,64,319
Raw,638,64,319
Raw,329,66,319
Raw,950,67,319
Raw,285,68,319
Raw,359,69,319
Raw,213,70,319
Raw,141,71,319
Raw,75,72,319
Raw,337,73,319
Raw,222,74,319
Raw,353,75,319
Raw,320,76,319
Raw,211,77,319
Raw,64,77,319
Raw,296,79,319
Raw,532,80,319
Raw,41,80,319
Raw,356,81,319
Raw,90,82,319
Raw,152,83,319
Raw,347,84,319
Raw,307,85,319
Raw,341,86,319
Raw,317,87,319
Raw,169,88,319
Raw,329,89,319
Raw,341,90,319
Raw,315,91,319
Raw,301,92,319
Raw,332,93,319
Raw,320,94,319
Raw,272,95,319
Raw,341,96,319
Raw,244,98,319
Raw,300,99,319
Raw,192,100,319
Raw,309,101,319
Raw,316,102,319
Raw,263,103,319
Raw,327,104,319
Raw,319,105,319
Raw,263,106,319
Raw,315,107,319
Raw,312,108,319
Raw,337,109,319
Raw,57,110,319
Raw,165,111,319
Raw,318,112,319
Raw,226,113,319
Raw,271,114,319
Raw,287,115,319
Raw,339,116,319
Raw,324,117,319
Raw,205,118,319
Raw,179,119,319
Raw,311,120,319
Raw,306,121,319
Raw,322,122,319
Raw,329,123,319
Raw,344,124,319
Raw,365,125,319
Raw,339,126,319
Raw,218,127,319
Raw,323,128,319
Raw,225,129,319
Raw,326,130,319
Raw,336,131,319
Raw,248,132,319
Raw,318,134,319
Raw,304,135,319
Raw,328,136,319
Raw,311,137,319
Raw,203,138,319
Raw,286,139,319
Raw,212,140,319
Raw,323,142,319
Raw,330,143,319
Raw,320,144,319
Raw,335,145,319
Raw,107,147,319
Raw,294,148,319
Raw,160,149,319
Raw,260,150,319
Raw,241,151,319
Raw,323,152,319
Raw,43,153,319
Raw,305,154,319
Raw,249,154,319
Raw,332,155,319
Raw,100,156,319
Raw,301,157,319
Raw,285,159,319
Raw,294,160,319
Raw,316,161,319
Raw,170,162,319
Raw,324,163,319
Raw,219,164,319
Raw,314,165,319
Raw,235,166,319
Raw,342,167,319
Raw,357,168,319
Raw,329,169,319
Raw,290,170,319
Raw,333,171,319
Raw,97,172,319
Raw,322,173,319
Raw,302,174,319
Raw,343,175,319
Raw,229,176,319
Raw,340,177,319
Raw,360,178,319
Raw,346,179,319
Raw,167,180,319
Raw,209,181,319
Raw,12,181,319
Raw,304,182,319
Raw,332,183,319
Raw,291,184,319
Raw,177,185,319
Raw,301,186,319
Raw,212,187,319
Raw,265,188,319
Raw,240,189,319
Raw,168,190,319
Raw,15,190,319
Raw,329,191,319
Raw,270,194,319
Raw,322,195,319
Raw,317,196,319
Raw,276,197,319
Raw,299,198,319
Raw,334,199,319
Raw,284,201,319
Raw,303,202,319
Raw,185,203,319
Raw,337,204,319
Raw,311,205,319
Raw,344,206,319
Raw,332,207,319
Raw,336,208,319
Raw,222,209,319
Raw,205,210,319
Raw,327,211,319
Raw,287,212,319
Raw,286,213,319
Raw,313,214,319
Raw,332,215,319
Raw,218,216,319
Raw,151,217,319
Raw,280,218,319
Raw,205,219,319
Raw,60,220,319
Raw,331,221,319
Raw,311,222,319
Raw,354,223,319
Raw,329,224,319
Raw,199,225,319
Raw,272,226,319
Raw,67,227,319
Raw,310,230,319
Raw,337,231,319
Raw,317,232,319
Raw,294,233,319
Raw,343,234,319
Raw,125,235,319
Raw,311,236,319
Raw,331,237,319
Raw,325,238,319
Raw,309,239,319
Raw,349,240,319
Raw,319,241,319
Raw,285,242,319
Raw,329,243,319
Raw,327,244,319
Raw,321,245,319
Raw,101,246,319
Raw,330,247,319
Raw,180,248,319
Raw,220,249,319
Raw,297,250,319
Raw,330,251,319
Raw,337,252,319
Raw,324,253,319
Raw,355,254,319
Raw,272,255,319
Raw,311,256,319
Raw,69,257,319
Raw,307,258,319
Raw,300,259,319
Raw,323,260,319
Raw,198,261,319
Raw,359,262,319
Raw,260,263,319
Raw,234,264,319
Raw,301,265,319
Raw,336,266,319
Raw,228,267,319
Raw,316,268,319
Raw,333,269,319
Raw,253,270,319
Raw,273,271,319
Raw,358,272,319
Raw,319,273,319
Raw,146,274,319
Raw,307,276,319
Raw,343,277,319
Raw,293,278,319
Raw,6,278,319
Raw,315,279,319
Raw,329,280,319
Raw,281,281,319
Raw,204,282,319
Raw,335,283,319
Raw,160,284,319
Raw,319,285,319
Raw,249,286,319
Raw,285,287,319
Raw,262,288,319
Raw,310,289,319
Raw,297,290,319
Raw,172,291,319
Raw,328,292,319
Raw,324,293,319
Raw,171,294,319
Raw,171,295,319
Raw,331,296,319
Raw,246,297,319
Raw,318,298,319
Raw,102,299,319
Raw,327,300,319
Raw,348,301,319
Raw,145,302,319
Raw,246,303,319
Raw,203,304,319
Raw,106,305,319
Raw,285,306,319
Raw,294,307,319
Raw,319,308,319
Raw,290,309,319
Raw,306,310,319
Raw,304,311,319
Raw,323,312,319
Raw,132,313,319
Raw,321,314,319
Raw,336,315,319
Raw,159,316,319
Raw,314,317,319
Raw,310,318,319
Raw,90,319,319
Raw,281,320,319
Raw,325,321,319
Raw,268,322,319
Raw,248,323,319
Raw,137,324,319
Raw,315,325,319
Raw,307,326,319
Raw,334,327,319
Raw,352,328,319
Raw,307,329,319
Raw,312,330,319
Raw,292,331,319
Raw,294,332,319
Raw,318,333,319
Raw,328,334,319
Raw,198,335,319
Raw,273,336,319
Raw,324,337,319
Raw,300,338,319
Raw,313,339,319
Raw,322,340,319
Raw,339,341,319
Raw,182,342,319
Raw,209,343,319
Raw,127,344,319
Raw,307,345,319
Raw,255,346,319
Raw,351,347,319
Raw,185,348,319
Raw,296,349,319
Raw,199,350,319
Raw,189,351,319
Raw,206,352,319
Raw,273,353,319
Raw,324,354,319
Raw,271,355,319
Raw,147,356,319
Raw,163,357,319
Raw,326,358,319
Raw,176,359,319
Raw,314,360,319
Raw,285,361,319
Raw,344,362,319
Raw,171,363,319
Raw,279,364,319
Raw,69,365,319
Raw,39,367,319
Raw,271,368,319
Raw,141,369,319
Raw,325,370,319
Raw,196,371,319
Raw,334,372,319
Raw,108,373,319
Raw,110,374,319
Raw,316,375,319
Raw,309,376,319
Raw,272,377,319
Raw,361,378,319
Raw,256,379,319
Raw,296,380,319
Raw,149,381,319
Raw,262,382,319
Raw,327,383,319
Raw,308,384,319
Raw,150,385,319
Raw,312,386,319
Raw,70,387,319
Raw,312,388,319
Raw,43,389,319
Raw,308,390,319
Raw,108,391,319
Raw,318,392,319
Raw,659,393,319
Raw,245,394,319
Raw,316,395,319
Raw,646,396,319
Raw,326,397,319
Raw,274,398,319
Raw,311,399,319
Raw,301,400,319
Raw,209,401,319
Raw,349,402,319
Raw,193,404,319
Raw,115,404,319
Raw,347,405,319
Raw,335,406,319
Raw,96,407,319
Raw,322,408,319
Raw,332,409,319
Raw,212,410,319
Raw,298,411,319
Raw,313,412,319
Raw,289,413,319
Raw,341,414,319
Raw,323,415,319
Raw,298,416,319
Raw,87,417,319
Raw,321,419,319
Raw,297,420,319
Raw,351,421,319
Raw,331,422,319
Raw,227,423,319
Raw,257,424,319
Raw,305,425,319
Raw,253,426,319
Raw,198,427,319
Raw,312,428,319
Raw,89,429,319
Raw,329,430,319
Raw,303,431,319
Raw,224,432,319
Raw,280,433,319
Raw,297,434,319
Raw,325,435,319
Raw,34,436,319
Raw,340,436,319
Raw,276,437,319
Raw,320,438,319
Raw,342,439,319
Raw,241,440,319
Raw,331,441,319
Raw,340,442,319
Raw,275,443,319
Raw,210,444,319
Raw,322,445,319
Raw,210,446,319
Raw,276,447,319
Raw,301,448,319
Raw,305,449,319
Raw,343,450,319
Raw,529,451,319
Raw,242,451,319
Raw,294,452,319
Raw,334,453,319
Raw,192,454,319
Raw,359,455,319
Raw,332,456,319
Raw,317,457,319
Raw,270,458,319
Raw,305,459,319
Raw,289,460,319
Raw,318,461,319
Raw,318,462,319
Raw,304,463,319
Raw,175,464,319
Raw,312,465,319
Raw,184,466,319
Raw,302,467,319
Raw,349,468,319
Raw,222,469,319
Raw,277,470,319
Raw,321,471,319
Raw,286,472,319
Raw,349,473,319
Raw,306,475,319
Raw,230,476,319
Raw,3,476,319
Raw,57,477,319
Raw,303,478,319
Raw,317,479,319
Raw,304,480,319
Raw,282,481,319
Raw,328,482,319
Raw,10,483,319
Raw,71,483,319
Raw,147,484,319
Raw,211,485,319
Raw,178,486,319
Raw,314,487,319
Raw,286,488,319
Raw,208,489,319
Raw,296,490,319
Raw,501,491,319
Raw,220,492,319
Raw,206,493,319
Raw,321,494,319
Raw,198,495,319
Raw,288,497,319
Raw,181,498,319
Raw,42,499,319
Raw,123,500,319
Raw,320,501,319
Raw,314,502,319
Raw,342,503,319
Raw,312,504,319
Raw,107,505,319
Raw,204,506,319
Raw,343,507,319
Raw,303,509,319
Raw,211,510,319
Raw,332,512,319
Raw,186,513,319
Raw,334,514,319
Raw,270,515,319
Raw,339,516,319
Raw,304,517,319
Raw,347,518,319
Raw,172,519,319
Raw,146,520,319
Raw,238,521,319
Raw,196,522,319
Raw,275,523,319
Raw,165,524,319
Raw,267,525,319
Raw,324,526,319
Raw,317,527,319
Raw,327,528,319
Raw,312,529,319
Raw,294,530,319
Raw,338,531,319
Raw,328,532,319
Raw,251,533,319
Raw,321,534,319
Raw,328,535,319
Raw,200,536,319
Raw,600,536,319
Raw,301,537,319
Raw,254,538,319
Raw,283,539,319
Raw,257,540,319
Raw,690,541,319
Raw,265,542,319
Raw,298,543,319
Raw,335,544,319
Raw,51,546,319
Raw,117,546,319
Raw,318,547,319
Raw,341,548,319
Raw,302,549,319
Raw,278,550,319
Raw,287,551,319
Raw,177,552,319
Raw,306,553,319
Raw,285,554,319
Raw,302,555,319
Raw,289,556,319
Raw,220,557,319
Raw,206,558,319
Raw,3,558,319
Raw,307,559,319
Raw,58,560,319
Raw,338,561,319
Raw,229,562,319
Raw,210,563,319
Raw,187,564,319
Raw,141,565,319
Raw,348,566,319
Raw,182,567,319
Raw,279,568,319
Raw,327,569,319
Raw,9,569,319
Raw,324,570,319
Raw,333,571,319
Raw,324,572,319
Raw,310,573,319
Raw,350,574,319
Raw,251,575,319
Raw,210,576,319
Raw,73,577,319
Raw,298,578,319
Raw,343,579,319
Raw,344,580,319
Raw,26,580,319
Raw,253,581,319
Raw,334,582,319
Raw,102,583,319
Raw,80,584,319
Raw,4,584,319
Raw,208,585,319
Raw,299,586,319
Raw,307,587,319
Raw,339,588,319
Raw,312,589,319
Raw,301,590,319
Raw,220,594,319
Raw,186,595,319
Raw,103,596,319
Raw,290,597,319
Raw,272,598,319
Raw,282,599,319
Raw,293,600,319
Raw,201,601,319
Raw,309,602,319
Raw,294,603,319
Raw,199,604,319
Raw,280,605,319
Raw,304,606,319
Raw,320,607,319
Raw,329,608,319
Raw,228,609,319
Raw,323,610,319
Raw,336,611,319
Raw,193,612,319
Raw,316,613,319
Raw,110,614,319
Raw,331,615,319
Raw,293,616,319
Raw,139,617,319
Raw,324,618,319
Raw,309,619,319
Raw,167,620,319
Raw,301,621,319
Raw,326,622,319
Raw,293,623,319
Raw,327,624,319
Raw,274,625,319
Raw,287,626,319
Raw,352,627,319
Raw,312,628,319
Raw,255,629,319
Raw,337,630,319
Raw,303,631,319
Raw,198,632,319
Raw,207,633,319
Raw,235,634,319
Raw,209,635,319
Raw,294,636,319
Raw,294,637,319
Raw,357,638,319
Raw,318,639,319
Raw,357,640,319
Raw,147,641,319
Raw,325,642,319
Raw,186,643,319
Raw,169,644,319
Raw,257,645,319
Raw,338,646,319
Raw,330,647,319
Raw,283,649,319
Raw,173,650,319
Raw,118,650,319
Raw,298,651,319
Raw,351,652,319
Raw,298,653,319
Raw,267,654,319
Raw,342,655,319
Raw,324,656,319
Raw,120,657,319
Raw,292,658,319
Raw,171,659,319
Raw,317,660,319
Raw,195,661,319
Raw,264,662,319
Raw,328,663,319
Raw,203,664,319
Raw,221,665,319
Raw,324,666,319
Raw,299,667,319
Raw,342,668,319
Raw,204,669,319
Raw,321,670,319
Raw,164,671,319
Raw,149,672,319
Raw,329,673,319
Raw,15,674,319
Raw,335,675,319
Raw,303,676,319
Raw,332,677,319
Raw,290,678,319
Raw,334,679,319
Raw,343,680,319
Raw,315,681,319
Raw,292,682,319
Raw,310,683,319
Raw,335,684,319
Raw,303,685,319
Raw,291,686,319
Raw,62,687,319
Raw,284,688,319
Raw,300,689,319
Raw,210,690,319
Raw,7,690,319
Raw,47,691,319
Raw,137,692,319
Raw,324,693,319
Raw,165,694,319
Raw,330,695,319
Raw,317,696,319
Raw,331,697,319
Raw,345,698,319
Raw,319,699,319
Raw,257,700,319
Raw,289,701,319
Raw,171,702,319
Raw,303,703,319
Raw,269,704,319
Raw,308,705,319
Raw,218,706,319
Raw,233,707,319
Raw,230,708,319
Raw,314,709,319
Raw,245,710,319
Raw,164,711,319
Raw,339,713,319
Raw,378,715,319
Raw,186,716,319
Raw,295,717,319
Raw,347,718,319
Raw,163,719,319
Raw,331,720,319
Raw,300,721,319
Raw,356,722,319
Raw,314,723,319
Raw,310,725,319
Raw,337,726,319
Raw,218,727,319
Raw,305,728,319
Raw,303,729,319
Raw,149,730,319
Raw,169,731,319
Raw,287,732,319
Raw,42,733,319
Raw,258,734,319
Raw,148,735,319
Raw,304,736,319
Raw,320,737,319
Raw,304,738,319
Raw,267,739,319
Raw,274,740,319
Raw,360,741,319
Raw,285,742,319
Raw,283,743,319
Raw,308,744,319
Raw,344,745,319
Raw,108,746,319
Raw,347,747,319
Raw,303,748,319
Raw,205,749,319
Raw,327,750,319
Raw,335,751,319
Raw,313,752,319
Raw,322,753,319
Raw,311,754,319
Raw,61,755,319
Raw,250,756,319
Raw,342,757,319
Raw,327,758,319
Raw,312,759,319
Raw,330,760,319
Raw,343,761,319
Raw,288,762,319
Raw,251,763,319
Raw,291,764,319
Raw,72,765,319
Raw,300,766,319
Raw,321,767,319
Raw,228,768,319
Raw,190,769,319
Raw,283,771,319
Raw,187,773,319
Raw,219,774,319
Raw,208,775,319
Raw,279,776,319
Raw,101,777,319
Raw,207,778,319
Raw,254,780,319
Raw,302,781,319
Raw,314,782,319
Raw,340,783,319
Raw,84,784,319
Raw,321,785,319
Raw,314,786,319
Raw,194,787,319
Raw,328,788,319
Raw,295,789,319
Raw,319,790,319
Raw,267,792,319
Raw,311,793,319
Raw,299,794,319
Raw,212,795,319
Raw,267,796,319
Raw,314,797,319
Raw,361,798,319
Raw,189,799,319
Raw,86,801,319
Raw,255,803,319
Raw,331,804,319
Raw,302,805,319
Raw,285,806,319
Raw,226,807,319
Raw,316,808,319
Raw,307,809,319
Raw,128,810,319
Raw,335,811,319
Raw,284,812,319
Raw,182,813,319
Raw,309,814,319
Raw,259,815,319
Raw,87,816,319
Raw,327,817,319
Raw,310,818,319
Raw,332,819,319
Raw,327,820,319
Raw,338,821,319
Raw,294,822,319
Raw,3,822,319
Raw,277,823,319
Raw,352,824,319
Raw,246,825,319
Raw,304,826,319
Raw,224,827,319
Raw,74,828,319
Raw,67,829,319
Raw,303,830,319
Raw,326,831,319
Raw,301,832,319
Raw,330,833,319
Raw,282,834,319
Raw,197,835,319
Raw,111,836,319
Raw,304,837,319
Raw,325,838,319
Raw,282,839,319
Raw,185,840,319
Raw,166,841,319
Raw,343,842,319
Raw,276,843,319
Raw,297,844,319
Raw,136,845,319
Raw,322,846,319
Raw,190,847,319
Raw,320,848,319
Raw,340,849,319
Raw,302,850,319
Raw,207,851,319
Raw,338,852,319
Raw,280,853,319
Raw,308,854,319
Raw,298,855,319
Raw,335,856,319
Raw,215,857,319
Raw,303,858,319
Raw,321,859,319
Raw,58,860,319
Raw,317,861,319
Raw,258,862,319
Raw,336,863,319
Raw,290,864,319
Raw,252,865,319
Raw,192,866,319
Raw,303,867,319
Raw,304,868,319
Raw,306,869,319
Raw,335,870,319
Raw,307,871,319
Raw,355,872,319
Raw,308,873,319
Raw,319,874,319
Raw,202,875,319
Raw,334,877,319
Raw,276,878,319
Raw,316,879,319
Raw,214,880,319
Raw,337,881,319
Raw,279,882,319
Raw,258,883,319
Raw,242,884,319
Raw,227,885,319
Raw,127,886,319
Raw,276,887,319
Raw,346,888,319
Raw,139,889,319
Raw,207,890,319
Raw,275,891,319
Raw,214,892,319
Raw,198,893,319
Raw,293,894,319
Raw,341,895,319
Raw,289,896,319
Raw,326,897,319
Raw,219,898,319
Raw,312,899,319
Raw,69,900,319
Raw,290,901,319
Raw,92,902,319
Raw,311,903,319
Raw,312,904,319
Raw,349,905,319
Raw,323,906,319
Raw,328,907,319
Raw,328,908,319
Raw,343,909,319
Raw,333,910,319
Raw,309,911,319
Raw,123,912,319
Raw,351,913,319
Raw,201,914,319
Raw,10,914,319
Raw,262,916,319
Raw,155,917,319
Raw,167,918,319
Raw,323,919,319
Raw,360,920,319
Raw,227,921,319
Raw,315,922,319
Raw,317,923,319
Raw,322,924,319
Raw,206,925,319
Raw,343,926,319
Raw,336,927,319
Raw,218,928,319
Raw,216,929,319
Raw,336,930,319
Raw,334,931,319
Raw,294,932,319
Raw,317,933,319
Raw,320,934,319
Raw,78,935,319
Raw,318,936,319
Raw,303,937,319
Raw,301,938,319
Raw,291,939,319
Raw,312,940,319
Raw,226,941,319
Raw,201,942,319
Raw,294,943,319
Raw,344,944,319
Raw,313,945,319
Raw,357,946,319
Raw,334,947,319
Raw,328,948,319
Raw,290,949,319
Raw,339,950,319
Raw,111,951,319
Raw,264,952,319
Raw,323,953,319
Raw,171,954,319
Raw,304,955,319
Raw,244,956,319
Raw,184,957,319
Raw,228,958,319
Raw,158,959,319
Raw,320,960,319
Raw,181,961,319
Raw,166,962,319
Raw,320,963,319
Raw,3,963,319
Raw,167,964,319
Raw,277,965,319
Raw,251,966,319
Raw,316,967,319
Raw,123,968,319
Raw,190,969,319
Raw,333,970,319
Raw,352,971,319
Raw,132,972,319
Raw,330,973,319
Raw,306,974,319
Raw,248,975,319
Raw,310,976,319
Raw,334,977,319
Raw,302,978,319
Raw,113,979,319
Raw,309,980,319
Raw,334,981,319
Raw,242,982,319
Raw,291,983,319
Raw,143,984,319
Raw,331,985,319
Raw,239,986,319
Raw,182,987,319
Raw,311,988,319
Raw,320,989,319
Raw,334,990,319
Raw,323,991,319
Raw,328,992,319
Raw,186,993,319
Raw,321,994,319
Raw,282,995,319
Raw,221,996,319
Raw,319,997,319
Raw,736,999,319
Raw,307,1000,319
Raw,277,1001,319
Raw,204,1002,319
Raw,91,1002,319
Raw,306,1003,319
Raw,235,1004,319
Raw,148,1005,319
Raw,261,1006,319
Raw,341,1007,319
Raw,169,1008,319
Raw,602,1009,319
Raw,208,1010,319
Raw,337,1011,319
Raw,318,1012,319
Raw,301,1014,319
Raw,268,1015,319
Raw,223,1016,319
Raw,354,1017,319
Raw,330,1018,319
Raw,160,1019,319
Raw,53,1020,319
Raw,268,1021,319
Raw,225,1022,319
Raw,326,1023,319
Raw,228,1024,319
Raw,498,1024,319
Raw,109,1024,319
Raw,285,1025,319
Raw,199,1026,319
Raw,311,1027,319
Raw,188,1028,319
Raw,311,1029,319
Raw,313,1030,319
Raw,221,1031,319
Raw,167,1032,319
Raw,299,1033,319
Raw,319,1034,319
Raw,227,1035,319
Raw,70,1036,319
Raw,264,1037,319
Raw,322,1038,319
Raw,324,1039,319
Raw,328,1040,319
Raw,194,1041,319
Raw,193,1042,319
Raw,215,1043,319
Raw,240,1044,319
Raw,271,1045,319
Raw,190,1046,319
Raw,294,1047,319
Raw,314,1048,319
Raw,322,1049,319
Raw,297,1050,319
Raw,8,1050,319
Raw,226,1051,319
Raw,260,1054,319
Raw,202,1055,319
Raw,311,1057,319
Raw,335,1058,319
Raw,265,1061,319
Raw,329,1062,319
Raw,324,1063,319
Raw,220,1064,319
Raw,71,1065,319
Raw,225,1066,319
Raw,296,1067,319
Raw,300,1068,319
Raw,347,1069,319
Raw,230,1070,319
Raw,195,1071,319
Raw,341,1072,319
Raw,69,1073,319
Raw,261,1074,319
Raw,331,1075,319
Raw,316,1076,319
Raw,344,1077,319
Raw,261,1079,319
Raw,320,1081,319
Raw,319,1082,319
Raw,350,1083,319
Raw,255,1084,319
Raw,330,1085,319
Raw,303,1086,319
Raw,330,1087,319
Raw,526,1087,319
Raw,258,1088,319
Raw,102,1089,319
Raw,231,1090,319
Raw,324,1091,319
Raw,295,1092,319
Raw,263,1093,319
Raw,308,1094,319
Raw,26,1094,319
Raw,223,1095,319
Raw,234,1096,319
Raw,193,1097,319
Raw,338,1098,319
Raw,45,1099,319
Raw,273,1100,319
Raw,264,1101,319
Raw,352,1102,319
Raw,285,1103,319
Raw,139,1104,319
Raw,216,1105,319
Raw,305,1106,319
Raw,267,1107,319
Raw,322,1108,319
Raw,323,1109,319
Raw,327,1111,319
Raw,325,1112,319
Raw,218,1113,319
Raw,159,1114,319
Raw,193,1115,319
Raw,277,1117,319
Raw,342,1118,319
Raw,339,1119,319
Raw,328,1121,319
Raw,334,1122,319
Raw,277,1123,319
Raw,315,1124,319
Raw,318,1126,319
Raw,301,1127,319
Raw,306,1128,319
Raw,307,1129,319
Raw,276,1130,319
Raw,279,1131,319
Raw,282,1132,319
Raw,232,1133,319
Raw,300,1134,319
Raw,74,1135,319
Raw,340,1136,319
Raw,332,1137,319
Raw,69,1138,319
Raw,199,1139,319
Raw,201,1140,319
Raw,182,1141,319
Raw,156,1142,319
Raw,235,1143,319
Raw,291,1144,319
Raw,262,1145,319
Raw,199,1146,319
Raw,328,1147,319
Raw,336,1148,319
Raw,304,1149,319
Raw,335,1150,319
Raw,225,1151,319
Raw,322,1152,319
Raw,258,1153,319
Raw,307,1154,319
Raw,346,1155,319
Raw,325,1156,319
Raw,287,1157,319
Raw,266,1158,319
Raw,617,1159,319
Raw,509,1159,319
Raw,195,1160,319
Raw,332,1161,319
Raw,284,1162,319
Raw,284,1163,319
Raw,320,1165,319
Raw,297,1166,319
Raw,295,1167,319
Raw,316,1168,319
Raw,164,1169,319
Raw,8,1169,319
Raw,245,1170,319
Raw,314,1171,319
Raw,319,1172,319
Raw,470,1173,319
Raw,304,1174,319
Raw,283,1175,319
Raw,295,1177,319
Raw,109,1178,319
Raw,277,1179,319
Raw,342,1180,319
Raw,176,1181,319
Raw,272,1182,319
Raw,307,1183,319
Raw,408,1183,319
Raw,267,1183,319
Raw,304,1184,319
Raw,242,1185,319
Raw,284,1186,319
Raw,267,1188,319
Raw,58,1189,319
Raw,278,1190,319
Raw,234,1191,319
Raw,230,1192,319
Raw,328,1193,319
Raw,217,1194,319
Raw,258,1195,319
Raw,297,1196,319
Raw,345,1197,319
Raw,336,1198,319
Raw,288,1199,319
Raw,280,1200,319
Raw,305,1201,319
Raw,293,1202,319
Raw,324,1203,319
Raw,327,1204,319
Raw,272,1205,319
Raw,100,1206,319
Raw,189,1207,319
Raw,298,1208,319
Raw,300,1209,319
Raw,293,1210,319
Raw,284,1211,319
Raw,328,1213,319
Raw,329,1214,319
Raw,346,1215,319
Raw,54,1216,319
Raw,348,1217,319
Raw,278,1218,319
Raw,303,1219,319
Raw,296,1220,319
Raw,251,1221,319
Raw,161,1222,319
Raw,304,1223,319
Raw,300,1224,319
Raw,234,1225,319
Raw,351,1227,319
Raw,268,1228,319
Raw,135,1229,319
Raw,328,1230,319
Raw,44,1231,319
Raw,231,1232,319
Raw,307,1233,319
Raw,356,1234,319
Raw,342,1235,319
Raw,293,1236,319
Raw,345,1237,319
Raw,320,1238,319
Raw,312,1239,319
Raw,282,1240,319
Raw,306,1241,319
Raw,42,1242,319
Raw,263,1243,319
Raw,297,1244,319
Raw,296,1245,319
Raw,297,1246,319
Raw,262,1247,319
Raw,344,1248,319
Raw,250,1249,319
Raw,215,1250,319
Raw,317,1251,319
Raw,170,1252,319
Raw,207,1253,319
Raw,335,1254,319
Raw,305,1255,319
Raw,325,1256,319
Raw,311,1257,319
Raw,263,1259,319
Raw,199,1260,319
Raw,339,1261,319
Raw,355,1262,319
Raw,318,1263,319
Raw,313,1264,319
Raw,322,1265,319
Raw,287,1266,319
Raw,314,1267,319
Raw,101,1268,319
Raw,310,1269,319
Raw,315,1270,319
Raw,200,1271,319
Raw,311,1272,319
Raw,252,1273,319
Raw,311,1274,319
Raw,314,1275,319
Raw,200,1276,319
Raw,207,1277,319
Raw,274,1278,319
Raw,316,1279,319
Raw,314,1280,319
Raw,286,1281,319
Raw,310,1282,319
Raw,285,1284,319
Raw,327,1285,319
Raw,242,1286,319
Raw,75,1287,319
Raw,313,1288,319
Raw,294,1289,319
Raw,31,1290,319
Raw,317,1291,319
Raw,111,1292,319
Raw,254,1293,319
Raw,314,1294,319
Raw,296,1295,319
Raw,308,1296,319
Raw,310,1297,319
Raw,149,1298,319
Raw,328,1299,319
Raw,310,1300,319
Raw,211,1301,319
Raw,277,1302,319
Raw,246,1303,319
Raw,322,1304,319
Raw,331,1305,319
Raw,311,1306,319
Raw,288,1307,319
Raw,348,1308,319
Raw,329,1309,319
Raw,158,1310,319
Raw,316,1311,319
Raw,298,1312,319
Raw,295,1313,319
Raw,212,1314,319
Raw,313,1315,319
Raw,273,1316,319
Raw,296,1317,319
Raw,309,1318,319
Raw,327,1319,319
Raw,297,1320,319
Raw,144,1321,319
Raw,287,1322,319
Raw,302,1323,319
Raw,334,1324,319
Raw,257,1325,319
Raw,316,1326,319
Raw,282,1327,319
Raw,312,1328,319
Raw,325,1329,319
Raw,323,1330,319
Raw,95,1331,319
Raw,290,1332,319
Raw,185,1333,319
Raw,303,1334,319
Raw,149,1335,319
Raw,279,1336,319
Raw,328,1337,319
Raw,329,1338,319
Raw,217,1339,319
Raw,321,1341,319
Raw,332,1342,319
Raw,194,1343,319
Raw,328,1344,319
Raw,165,1345,319
Raw,322,1347,319
Raw,262,1348,319
Raw,234,1349,319
Raw,126,1350,319
Raw,324,1351,319
Raw,120,1352,319
Raw,60,1352,319
Raw,388,1353,319
Raw,141,1354,319
Raw,302,1355,319
Raw,331,1356,319
Raw,322,1357,319
Raw,308,1358,319
Raw,339,1359,319
Raw,315,1361,319
Raw,333,1362,319
Raw,301,1363,319
Raw,338,1364,319
Raw,307,1365,319
Raw,192,1366,319
Raw,249,1367,319
Raw,307,1368,319
Raw,339,1369,319
Raw,252,1370,319
Raw,184,1371,319
Raw,340,1372,319
Raw,289,1373,319
Raw,126,1374,319
Raw,298,1375,319
Raw,306,1376,319
Raw,168,1377,319
Raw,213,1378,319
Raw,346,1379,319
Raw,263,1380,319
Raw,232,1381,319
Raw,67,1383,319
Raw,264,1384,319
Raw,315,1385,319
Raw,143,1385,319
Raw,324,1386,319
Raw,266,1387,319
Raw,74,1388,319
Raw,369,1389,319
Raw,169,1390,319
Raw,150,1391,319
Raw,327,1392,319
Raw,325,1393,319
Raw,319,1395,319
Raw,280,1396,319
Raw,187,1397,319
Raw,254,1398,319
Raw,325,1399,319
Raw,274,1400,319
Raw,226,1401,319
Raw,251,1402,319
Raw,292,1403,319
Raw,293,1404,319
Raw,279,1405,319
Raw,279,1406,319
Raw,240,1407,319
Raw,190,1409,319
Raw,332,1410,319
Raw,306,1411,319
Raw,184,1412,319
Raw,341,1413,319
Raw,105,1414,319
Raw,268,1415,319
Raw,321,1416,319
Raw,308,1417,319
Raw,339,1418,319
Raw,96,1419,319
Raw,107,1420,319
Raw,320,1421,319
Raw,128,1422,319
Raw,289,1423,319
Raw,173,1424,319
Raw,299,1425,319
Raw,202,1426,319
Raw,109,1427,319
Raw,298,1428,319
Raw,221,1429,319
Raw,302,1430,319
Raw,332,1431,319
Raw,331,1432,319
Raw,250,1433,319
Raw,216,1434,319
Raw,216,1435,319
Raw,165,1437,319
Raw,303,1438,319
Raw,306,1439,319
Raw,315,1441,319
Raw,315,1442,319
Raw,205,1443,319
Raw,332,1444,319
Raw,310,1445,319
Raw,134,1446,319
Raw,309,1447,319
Raw,315,1448,319
Raw,345,1449,319
Raw,181,1450,319
Raw,336,1451,319
Raw,283,1452,319
Raw,262,1453,319
Raw,207,1454,319
Raw,218,1455,319
Raw,345,1456,319
Raw,301,1457,319
Raw,348,1458,319
Raw,38,1459,319
Raw,262,1460,319
Raw,152,1461,319
Raw,212,1462,319
Raw,187,1463,319
Raw,258,1464,319
Raw,298,1465,319
Raw,326,1467,319
Raw,319,1468,319
Raw,313,1469,319
Raw,198,1471,319
Raw,306,1472,319
Raw,208,1473,319
Raw,279,1474,319
Raw,288,1475,319
Raw,316,1476,319
Raw,326,1477,319
Raw,294,1478,319
Raw,294,1479,319
Raw,316,1480,319
Raw,308,1481,319
Raw,342,1482,319
Raw,248,1483,319
Raw,333,1484,319
Raw,249,1485,319
Raw,227,1486,319
Raw,293,1487,319
Raw,315,1488,319
Raw,319,1489,319
Raw,252,1490,319
Raw,296,1491,319
Raw,227,1492,319
Raw,293,1493,319
Raw,331,1494,319
Raw,189,1495,319
Raw,326,1496,319
Raw,122,1497,319
Raw,292,1498,319
Raw,309,1499,319
Raw,325,1500,319
Raw,200,1501,319
Raw,233,1502,319
Raw,291,1503,319
Raw,322,1504,319
Raw,259,1505,319
Raw,192,1506,319
Raw,279,1507,319
Raw,89,1508,319
Raw,292,1509,319
Raw,348,1511,319
Raw,208,1512,319
Raw,331,1513,319
Raw,322,1514,319
Raw,323,1515,319
Raw,283,1517,319
Raw,322,1518,319
Raw,354,1519,319
Raw,335,1520,319
Raw,138,1521,319
Raw,315,1522,319
Raw,331,1523,319
Raw,341,1524,319
Raw,323,1525,319
Raw,232,1526,319
Raw,279,1527,319
Raw,352,1528,319
Raw,296,1529,319
Raw,42,1530,319
Raw,317,1531,319
Raw,332,1532,319
Raw,289,1533,319
Raw,258,1534,319
Raw,347,1535,319
Raw,279,1536,319
Raw,320,1537,319
Raw,307,1538,319
Raw,332,1539,319
Raw,248,1540,319
Raw,269,1541,319
Raw,323,1542,319
Raw,312,1543,319
Raw,292,1544,319
Raw,195,1545,319
Raw,342,1546,319
Raw,324,1547,319
Raw,307,1548,319
Raw,131,1549,319
Raw,135,1550,319
Raw,188,1551,319
Raw,293,1552,319
Raw,136,1553,319
Raw,221,1554,319
Raw,266,1555,319
Raw,334,1556,319
Raw,261,1557,319
Raw,233,1558,319
Raw,319,1559,319
Raw,174,1560,319
Raw,30,1560,319
Raw,177,1561,319
Raw,536,1562,319
Raw,464,1562,319
Raw,303,1562,319
Raw,322,1563,319
Raw,224,1564,319
Raw,103,1565,319
Raw,349,1566,319
Raw,268,1567,319
Raw,203,1568,319
Raw,265,1569,319
Raw,339,1570,319
Raw,333,1571,319
Raw,144,1572,319
Raw,298,1573,319
Raw,269,1574,319
Raw,332,1575,319
Raw,282,1576,319
Raw,340,1577,319
Raw,339,1578,319
Raw,225,1579,319
Raw,334,1580,319
Raw,247,1581,319
Raw,340,1582,319
Raw,275,1583,319
Raw,291,1584,319
Raw,238,1585,319
Raw,136,1586,319
Raw,322,1587,319
Raw,330,1588,319
Raw,143,1589,319
Raw,268,1590,319
Raw,303,1591,319
Raw,295,1592,319
Raw,304,1593,319
Raw,317,1594,319
Raw,88,1595,319
Raw,307,1596,319
Raw,312,1597,319
Raw,350,1598,319
Raw,286,1599,319
Raw,960,1600,319
Raw,252,1601,319
Raw,314,1602,319
Raw,282,1603,319
Raw,46,1604,319
Raw,296,1606,319
Raw,323,1607,319
Raw,86,1608,319
Raw,305,1609,319
Raw,344,1610,319
Raw,330,1611,319
Raw,295,1612,319
Raw,222,1613,319
Raw,319,1614,319
Raw,256,1615,319
Raw,298,1616,319
Raw,182,1617,319
Raw,226,1618,319
Raw,285,1619,319
Raw,323,1620,319
Raw,329,1621,319
Raw,304,1622,319
Raw,314,1623,319
Raw,296,1625,319
Raw,309,1626,319
Raw,310,1627,319
Raw,338,1628,319
Raw,222,1629,319
Raw,320,1630,319
Raw,280,1631,319
Raw,756,1632,319
Raw,343,1633,319
Raw,324,1634,319
Raw,312,1635,319
Raw,302,1636,319
Raw,249,1637,319
Raw,334,1638,319
Raw,290,1639,319
Raw,166,1640,319
Raw,320,1641,319
Raw,304,1642,319
Raw,289,1643,319
Raw,763,1645,319
Raw,146,1645,319
Raw,339,1646,319
Raw,235,1647,319
Raw,226,1648,319
Raw,261,1649,319
Raw,196,1650,319
Raw,218,1651,319
Raw,335,1652,319
Raw,310,1653,319
Raw,250,1654,319
Raw,180,1655,319
Raw,309,1656,319
Raw,180,1657,319
Raw,252,1658,319
Raw,273,1659,319
Raw,290,1660,319
Raw,286,1661,319
Raw,318,1662,319
Raw,334,1664,319
Raw,307,1665,319
Raw,158,1667,319
Raw,161,1669,319
Raw,309,1670,319
Raw,323,1671,319
Raw,313,1672,319
Raw,294,1673,319
Raw,321,1674,319
Raw,342,1675,319
Raw,343,1676,319
Raw,349,1677,319
Raw,311,1678,319
Raw,122,1679,319
Raw,266,1680,319
Raw,3,1680,319
Raw,83,1681,319
Raw,304,1682,319
Raw,202,1683,319
Raw,289,1684,319
Raw,317,1685,319
Raw,324,1686,319
Raw,299,1687,319
Raw,199,1688,319
Raw,222,1689,319
Raw,215,1690,319
Raw,332,1691,319
Raw,305,1692,319
Raw,318,1693,319
Raw,317,1694,319
Raw,329,1695,319
Raw,264,1696,319
Raw,156,1697,319
Raw,239,1698,319
Raw,170,1699,319
Raw,294,1700,319
Raw,195,1701,319
Raw,286,1702,319
Raw,260,1704,319
Raw,311,1705,319
Raw,188,1706,319
Raw,232,1707,319
Raw,200,1708,319
Raw,75,1709,319
Raw,293,1710,319
Raw,341,1711,319
Raw,339,1712,319
Raw,239,1714,319
Raw,342,1715,319
Raw,257,1716,319
Raw,121,1717,319
Raw,276,1718,319
Raw,188,1719,319
Raw,250,1720,319
Raw,342,1721,319
Raw,350,1722,319
Raw,328,1723,319
Raw,304,1724,319
Raw,254,1725,319
Raw,170,1726,319
Raw,348,1727,319
Raw,268,1728,319
Raw,300,1729,319
Raw,206,1730,319
Raw,325,1731,319
Raw,215,1732,319
Raw,93,1733,319
Raw,343,1734,319
Raw,87,1735,319
Raw,324,1736,319
Raw,320,1737,319
Raw,236,1738,319
Raw,226,1739,319
Raw,595,1739,319
Raw,264,1740,319
Raw,316,1741,319
Raw,289,1742,319
Raw,187,1743,319
Raw,319,1744,319
Raw,320,1744,319
Raw,282,1745,319
Raw,255,1746,319
Raw,347,1747,319
Raw,195,1748,319
Raw,375,1749,319
Raw,285,1750,319
Raw,328,1752,319
Raw,162,1753,319
Raw,299,1754,319
Raw,290,1755,319
Raw,274,1756,319
Raw,222,1757,319
Raw,151,1758,319
Raw,266,1759,319
Raw,334,1760,319
Raw,180,1761,319
Raw,281,1762,319
Raw,44,1763,319
Raw,331,1764,319
Raw,287,1765,319
Raw,291,1766,319
Raw,214,1767,319
Raw,320,1768,319
Raw,155,1769,319
Raw,239,1771,319
Raw,306,1772,319
Raw,327,1773,319
Raw,172,1774,319
Raw,181,1775,319
Raw,150,1776,319
Raw,330,1777,319
Raw,333,1778,319
Raw,218,1779,319
Raw,111,1780,319
Raw,254,1781,319
Raw,295,1782,319
Raw,327,1783,319
Raw,313,1784,319
Raw,295,1785,319
Raw,55,1787,319
Raw,199,1788,319
Raw,205,1789,319
Raw,283,1790,319
Raw,325,1791,319
Raw,133,1792,319
Raw,328,1793,319
Raw,321,1794,319
Raw,46,1795,319
Raw,361,1796,319
Raw,247,1797,319
Raw,298,1798,319
Raw,293,1799,319
Raw,313,1800,319
Raw,204,1801,319
Raw,291,1802,319
Raw,287,1804,319
Raw,314,1805,319
Raw,309,1806,319
Raw,294,1809,319
Raw,269,1810,319
Raw,309,1811,319
Raw,295,1812,319
Raw,318,1814,319
Raw,291,1815,319
Raw,166,1816,319
Raw,290,1817,319
Raw,274,1818,319
Raw,179,1819,319
Raw,227,1820,319
Raw,341,1821,319
Raw,315,1822,319
Raw,216,1823,319
Raw,334,1824,319
Raw,140,1825,319
Raw,317,1826,319
Raw,253,1827,319
Raw,287,1828,319
Raw,329,1829,319
Raw,189,1830,319
Raw,260,1831,319
Raw,340,1832,319
Raw,136,1833,319
Raw,211,1834,319
Raw,114,1835,319
Raw,321,1836,319
Raw,253,1837,319
Raw,345,1838,319
Raw,316,1839,319
Raw,330,1840,319
Raw,272,1841,319
Raw,309,1842,319
Raw,301,1843,319
Raw,211,1844,319
Raw,195,1845,319
Raw,322,1846,319
Raw,332,1847,319
Raw,276,1848,319
Raw,326,1849,319
Raw,266,1850,319
Raw,338,1851,319
Raw,287,1852,319
Raw,223,1853,319
Raw,93,1854,319
Raw,318,1855,319
Raw,276,1856,319
Raw,154,1857,319
Raw,183,1858,319
Raw,299,1859,319
Raw,287,1860,319
Raw,342,1861,319
Raw,322,1862,319
Raw,330,1863,319
Raw,237,1864,319
Raw,277,1865,319
Raw,302,1866,319
Raw,295,1867,319
Raw,224,1868,319
Raw,229,1869,319
Raw,149,1870,319
Raw,314,1871,319
Raw,299,1872,319
Raw,284,1873,319
Raw,323,1874,319
Raw,311,1875,319
Raw,335,1876,319
Raw,263,1877,319
Raw,328,1878,319
Raw,105,1879,319
Raw,272,1880,319
Raw,105,1881,319
Raw,319,1882,319
Raw,39,1883,319
Raw,308,1884,319
Raw,281,1885,319
Raw,277,1886,319
Raw,147,1887,319
Raw,267,1888,319
Raw,152,1889,319
Raw,250,1890,319
Raw,12,1891,319
Raw,316,1892,319
Raw,320,1893,319
Raw,337,1894,319
Raw,231,1895,319
Raw,312,1896,319
Raw,350,1897,319
Raw,261,1898,319
Raw,232,1899,319
Raw,329,1900,319
Raw,300,1901,319
Raw,262,1902,319
Raw,344,1903,319
Raw,265,1904,319
Raw,84,1905,319
Raw,294,1906,319
Raw,297,1907,319
Raw,226,1908,319
Raw,301,1909,319
Raw,130,1912,319
Raw,319,1913,319
Raw,298,1915,319
Raw,315,1916,319
Raw,350,1917,319
Raw,323,1918,319
Raw,340,1920,319
Raw,333,1921,319
Raw,330,1922,319
Raw,312,1923,319
Raw,342,1925,319
Raw,62,1926,319
Raw,201,1927,319
Raw,197,1929,319
Raw,347,1930,319
Raw,293,1931,319
Raw,325,1935,319
Raw,257,1937,319
Raw,239,1940,319
Raw,568,1941,319
Raw,318,1943,319
Raw,940,1944,319
Raw,345,1946,319
Raw,310,1947,319
Raw,145,1949,319
Raw,30,1950,319
Raw,234,1951,319
Raw,327,1952,319
Raw,335,1953,319
Raw,278,1956,319
Raw,341,1957,319
Raw,321,1958,319
Raw,329,1959,319
Raw,271,1960,319
Raw,320,1961,319
Raw,36,1962,319
Raw,326,1963,319
Raw,236,1964,319
Raw,283,1966,319
Raw,290,1967,319
Raw,155,1968,319
Raw,326,1969,319
Raw,269,1970,319
Raw,204,1972,319
Raw,268,1973,319
Raw,184,1974,319
Raw,338,1975,319
Raw,333,1976,319
Raw,209,1977,319
Raw,325,1978,319
Raw,285,1979,319
Raw,177,1980,319
Raw,306,1982,319
Raw,290,1983,319
Raw,311,1984,319
Raw,324,1985,319
Raw,209,1986,319
Raw,319,1988,319
Raw,267,1989,319
Raw,311,1990,319
Raw,303,1991,319
Raw,186,1992,319
Raw,300,1993,319
Raw,341,1995,319
Raw,312,1997,319
Raw,330,1998,319
Raw,257,1999,319
Raw,249,2000,319
Raw,317,2002,319
Raw,298,2003,319
Raw,352,2004,319
Raw,150,2005,319
Raw,45,2006,319
Raw,270,2007,319
Raw,172,2008,319
Raw,174,2009,319
Raw,154,2010,319
Raw,229,2011,319
Raw,177,2012,319
Raw,89,2012,319
Raw,261,2013,319
Raw,192,2014,319
Raw,253,2015,319
Raw,59,2016,319
Raw,261,2018,319
Raw,10,2018,319
Raw,303,2019,319
Raw,86,2020,319
Raw,207,2021,319
Raw,327,2023,319
Raw,324,2024,319
Raw,57,2027,319
Raw,211,2028,319
Raw,314,2029,319
Raw,235,2030,319
Raw,309,2031,319
Raw,261,2032,319
Raw,320,2033,319
Raw,328,2034,319
Raw,300,2036,319
Raw,286,2037,319
Raw,282,2038,319
Raw,329,2039,319
Raw,317,2041,319
Raw,198,2042,319
Raw,336,2043,319
Raw,71,2044,319
Raw,107,2045,319
Raw,241,2046,319
Raw,65,2047,319
Raw,319,2048,319
Raw,545,2048,319
Raw,254,2049,319
Raw,316,2050,319
Raw,300,2051,319
Raw,336,2052,319
Raw,295,2053,319
Raw,272,2054,319
Raw,303,2056,319
Raw,181,2057,319
Raw,353,2058,319
Raw,306,2059,319
Raw,346,2061,319
Raw,332,2062,319
Raw,265,2063,319
Raw,328,2064,319
Raw,335,2067,319
Raw,335,2068,319
Raw,591,2069,319
Raw,336,2070,319
Raw,276,2071,319
Raw,316,2072,319
Raw,53,2073,319
Raw,253,2075,319
Raw,148,2076,319
Raw,288,2077,319
Raw,152,2078,319
Raw,188,2079,319
Raw,305,2080,319
Raw,251,2082,319
Raw,179,2083,319
Raw,283,2085,319
Raw,336,2086,319
Raw,230,2087,319
Raw,280,2088,319
Raw,135,2089,319
Raw,243,2090,319
Raw,319,2092,319
Raw,325,2093,319
Raw,297,2094,319
Raw,202,2095,319
Raw,266,2096,319
Raw,256,2097,319
Raw,310,2099,319
Raw,312,2100,319
Raw,293,2101,319
Raw,312,2102,319
Raw,235,2103,319
Raw,325,2104,319
Raw,232,2105,319
Raw,65,2107,319
Raw,264,2108,319
Raw,80,2109,319
Raw,305,2110,319
Raw,314,2111,319
Raw,210,2112,319
Raw,306,2114,319
Raw,330,2115,319
Raw,143,2116,319
Raw,203,2117,319
Raw,309,2119,319
Raw,252,2120,319
Raw,309,2121,319
Raw,275,2122,319
Raw,338,2123,319
Raw,286,2124,319
Raw,280,2125,319
Raw,207,2126,319
Raw,319,2127,319
Raw,230,2128,319
Raw,330,2129,319
Raw,349,2131,319
Raw,192,2132,319
Raw,309,2133,319
Raw,274,2134,319
Raw,335,2135,319
Raw,154,2136,319
Raw,281,2137,319
Raw,287,2138,319
Raw,252,2139,319
Raw,345,2140,319
Raw,299,2141,319
Raw,291,2143,319
Raw,351,2144,319
Raw,255,2145,319
Raw,170,2146,319
Raw,56,2146,319
Raw,317,2147,319
Raw,329,2148,319
Raw,291,2149,319
Raw,363,2150,319
Raw,233,2151,319
Raw,57,2152,319
Raw,305,2155,319
Raw,329,2156,319
Raw,322,2158,319
Raw,293,2159,319
Raw,313,2160,319
Raw,363,2161,319
Raw,296,2162,319
Raw,337,2163,319
Raw,270,2164,319
Raw,285,2165,319
Raw,222,2166,319
Raw,279,2167,319
Raw,258,2168,319
Raw,316,2169,319
Raw,121,2170,319
Raw,92,2171,319
Raw,273,2173,319
Raw,314,2175,319
Raw,290,2176,319
Raw,280,2177,319
Raw,364,2178,319
Raw,317,2179,319
Raw,304,2180,319
Raw,316,2181,319
Raw,280,2182,319
Raw,291,2183,319
Raw,302,2184,319
Raw,327,2185,319
Raw,338,2186,319
Raw,224,2187,319
Raw,118,2187,319
Raw,323,2188,319
Raw,322,2189,319
Raw,337,2190,319
Raw,319,2191,319
Raw,298,2192,319
Raw,193,2194,319
Raw,116,2196,319
Raw,277,2197,319
Raw,259,2198,319
Raw,311,2199,319
Raw,246,2200,319
Raw,203,2201,319
Raw,206,2202,319
Raw,213,2203,319
Raw,284,2204,319
Raw,243,2205,319
Raw,292,2206,319
Raw,148,2207,319
Raw,306,2208,319
Raw,236,2209,319
Raw,296,2210,319
Raw,332,2211,319
Raw,59,2212,319
Raw,261,2213,319
Raw,321,2214,319
Raw,185,2215,319
Raw,222,2216,319
Raw,295,2217,319
Raw,333,2218,319
Raw,360,2219,319
Raw,339,2220,319
Raw,70,2221,319
Raw,329,2222,319
Raw,222,2223,319
Raw,290,2224,319
Raw,244,2225,319
Raw,220,2226,319
Raw,334,2227,319
Raw,305,2228,319
Raw,266,2229,319
Raw,214,2230,319
Raw,271,2231,319
Raw,46,2232,319
Raw,127,2233,319
Raw,271,2234,319
Raw,340,2235,319
Raw,310,2236,319
Raw,62,2237,319
Raw,313,2238,319
Raw,282,2239,319
Raw,329,2240,319
Raw,120,2240,319
Raw,294,2241,319
Raw,299,2242,319
Raw,117,2243,319
Raw,304,2244,319
Raw,296,2245,319
Raw,109,2246,319
Raw,270,2247,319
Raw,229,2248,319
Raw,203,2249,319
Raw,319,2250,319
Raw,335,2251,319
Raw,336,2252,319
Raw,335,2253,319
Raw,234,2254,319
Raw,322,2255,319
Raw,278,2256,319
Raw,282,2257,319
Raw,350,2258,319
Raw,599,2259,319
Raw,205,2260,319
Raw,290,2261,319
Raw,309,2262,319
Raw,308,2263,319
Raw,238,2264,319
Raw,169,2265,319
Raw,294,2266,319
Raw,342,2267,319
Raw,319,2268,319
Raw,330,2269,319
Raw,299,2270,319
Raw,215,2271,319
Raw,209,2272,319
Raw,314,2273,319
Raw,293,2274,319
Raw,148,2275,319
Raw,148,2276,319
Raw,285,2277,319
Raw,292,2278,319
Raw,219,2279,319
Raw,329,2280,319
Raw,309,2281,319
Raw,314,2282,319
Raw,263,2283,319
Raw,306,2284,319
Raw,336,2285,319
Raw,340,2288,319
Raw,291,2289,319
Raw,633,2290,319
Raw,314,2291,319
Raw,105,2292,319
Raw,88,2293,319
Raw,254,2294,319
Raw,284,2295,319
Raw,315,2296,319
Raw,69,2297,319
Raw,175,2298,319
Raw,300,2299,319
Raw,264,2301,319
Raw,303,2302,319
Raw,195,2303,319
Raw,198,2304,319
Raw,298,2305,319
Raw,311,2306,319
Raw,323,2307,319
Raw,318,2308,319
Raw,596,2309,319
Raw,212,2309,319
Raw,216,2310,319
Raw,211,2311,319
Raw,318,2314,319
Raw,288,2315,319
Raw,256,2316,319
Raw,282,2317,319
Raw,149,2318,319
Raw,309,2319,319
Raw,316,2320,319
Raw,251,2321,319
Raw,301,2322,319
Raw,30,2322,319
Raw,331,2323,319
Raw,310,2324,319
Raw,235,2325,319
Raw,175,2326,319
Raw,329,2327,319
Raw,336,2329,319
Raw,189,2330,319
Raw,233,2331,319
Raw,321,2332,319
Raw,323,2333,319
Raw,237,2334,319
Raw,292,2335,319
Raw,322,2336,319
Raw,268,2337,319
Raw,328,2338,319
Raw,313,2339,319
Raw,960,2340,319
Raw,339,2341,319
Raw,130,2342,319
Raw,234,2343,319
Raw,226,2344,319
Raw,326,2346,319
Raw,283,2348,319
Raw,229,2349,319
Raw,293,2350,319
Raw,605,2351,319
Raw,191,2352,319
Raw,339,2353,319
Raw,293,2354,319
Raw,376,2355,319
Raw,312,2356,319
Raw,242,2357,319
Raw,288,2358,319
Raw,325,2359,319
Raw,243,2360,319
Raw,333,2361,319
Raw,308,2362,319
Raw,309,2363,319
Raw,203,2365,319
Raw,298,2366,319
Raw,246,2367,319
Raw,296,2368,319
Raw,345,2369,319
Raw,76,2370,319
Raw,303,2371,319
Raw,7,2371,319
Raw,216,2372,319
Raw,323,2373,319
Raw,329,2374,319
Raw,232,2375,319
Raw,309,2376,319
Raw,137,2377,319
Raw,207,2378,319
Raw,335,2379,319
Raw,315,2380,319
Raw,212,2381,319
Raw,337,2382,319
Raw,304,2383,319
Raw,333,2384,319
Raw,329,2385,319
Raw,308,2386,319
Raw,293,2387,319
Raw,318,2389,319
Raw,67,2390,319
Raw,334,2391,319
Raw,232,2392,319
Raw,287,2393,319
Raw,336,2394,319
Raw,312,2395,319
Raw,49,2396,319
Raw,281,2397,319
Raw,218,2398,319
Raw,297,2400,319
Raw,316,2401,319
Raw,240,2402,319
Raw,230,2403,319
Raw,311,2404,319
Raw,265,2405,319
Raw,608,2406,319
Raw,207,2407,319
Raw,290,2408,319
Raw,234,2409,319
Raw,305,2410,319
Raw,293,2411,319
Raw,329,2412,319
Raw,275,2413,319
Raw,186,2415,319
Raw,279,2416,319
Raw,252,2417,319
Raw,319,2418,319
Raw,75,2419,319
Raw,319,2420,319
Raw,299,2421,319
Raw,230,2422,319
Raw,264,2423,319
Raw,203,2424,319
Raw,262,2425,319
Raw,305,2426,319
Raw,305,2427,319
Raw,304,2428,319
Raw,6,2428,319
Raw,117,2429,319
Raw,197,2430,319
Raw,351,2431,319
Raw,298,2432,319
Raw,167,2433,319
Raw,225,2434,319
Raw,252,2435,319
Raw,154,2437,319
Raw,254,2438,319
Raw,309,2439,319
Raw,268,2440,319
Raw,308,2441,319
Raw,262,2443,319
Raw,226,2444,319
Raw,335,2446,319
Raw,179,2447,319
Raw,308,2448,319
Raw,309,2449,319
Raw,307,2450,319
Raw,274,2451,319
Raw,94,2452,319
Raw,360,2453,319
Raw,331,2454,319
Raw,180,2455,319
Raw,317,2456,319
Raw,128,2457,319
Raw,76,2458,319
Raw,245,2459,319
Raw,330,2460,319
Raw,155,2461,319
Raw,332,2462,319
Raw,251,2463,319
Raw,254,2464,319
Raw,70,2465,319
Raw,367,2466,319
Raw,331,2467,319
Raw,212,2468,319
Raw,306,2469,319
Raw,298,2470,319
Raw,358,2471,319
Raw,179,2472,319
Raw,166,2473,319
Raw,318,2474,319
Raw,196,2475,319
Raw,325,2476,319
Raw,352,2477,319
Raw,144,2478,319
Raw,14,2478,319
Raw,308,2479,319
Raw,197,2480,319
Raw,330,2481,319
Raw,279,2482,319
Raw,286,2483,319
Raw,330,2484,319
Raw,266,2485,319
Raw,50,2486,319
Raw,327,2487,319
Raw,74,2488,319
Raw,355,2489,319
Raw,259,2490,319
Raw,271,2490,319
Raw,271,2491,319
Raw,333,2492,319
Raw,269,2493,319
Raw,338,2494,319
Raw,305,2495,319
Raw,322,2496,319
Raw,215,2497,319
Raw,342,2498,319
Raw,291,2499,319
Raw,301,2500,319
Raw,30,2500,319
Raw,313,2501,319
Raw,315,2502,319
Raw,328,2503,319
Raw,346,2504,319
Raw,645,2505,319
Raw,323,2506,319
Raw,302,2507,319
Raw,322,2508,319
Raw,291,2509,319
Raw,319,2510,319
Raw,274,2511,319
Raw,200,2512,319
Raw,325,2513,319
Raw,209,2514,319
Raw,268,2515,319
Raw,25,2516,319
Raw,303,2517,319
Raw,306,2518,319
Raw,361,2520,319
Raw,305,2521,319
Raw,65,2522,319
Raw,300,2523,319
Raw,332,2524,319
Raw,102,2525,319
Raw,276,2526,319
Raw,224,2527,319
Raw,320,2528,319
Raw,178,2529,319
Raw,322,2530,319
Raw,199,2531,319
Raw,341,2532,319
Raw,3,2532,319
Raw,350,2533,319
Raw,260,2534,319
Raw,330,2535,319
Raw,240,2537,319
Raw,309,2538,319
Raw,312,2539,319
Raw,122,2541,319
Raw,319,2542,319
Raw,212,2543,319
Raw,174,2544,319
Raw,216,2545,319
Raw,280,2547,319
Raw,233,2548,319
Raw,257,2549,319
Raw,309,2550,319
Raw,179,2551,319
Raw,324,2552,319
Raw,327,2553,319
Raw,271,2554,319
Raw,308,2555,319
Raw,311,2556,319
Raw,164,2557,319
Raw,302,2558,319
Raw,316,2559,319
Raw,313,2560,319
Raw,286,2561,319
Raw,313,2563,319
Raw,267,2564,319
Raw,205,2565,319
Raw,313,2566,319
Raw,216,2567,319
Raw,332,2569,319
Raw,231,2571,319
Raw,223,2572,319
Raw,355,2574,319
Raw,165,2575,319
Raw,327,2576,319
Raw,306,2577,319
Raw,307,2578,319
Raw,302,2579,319
Raw,303,2580,319
Raw,101,2581,319
Raw,507,2582,319
Raw,280,2583,319
Raw,308,2584,319
Raw,213,2585,319
Raw,289,2586,319
Raw,341,2587,319
Raw,193,2588,319
Raw,269,2589,319
Raw,364,2590,319
Raw,232,2592,319
Raw,369,2593,319
Raw,147,2594,319
Raw,345,2595,319
Raw,264,2596,319
Raw,309,2597,319
Raw,354,2598,319
Raw,281,2599,319
Raw,164,2600,319
Raw,238,2601,319
Raw,321,2602,319
Raw,326,2603,319
Raw,309,2604,319
Raw,326,2604,319
Raw,284,2605,319
Raw,339,2606,319
Raw,276,2607,319
Raw,331,2608,319
Raw,253,2610,319
Raw,301,2611,319
Raw,295,2612,319
Raw,174,2613,319
Raw,276,2614,319
Raw,248,2615,319
Raw,310,2616,319
Raw,290,2617,319
Raw,337,2618,319
Raw,316,2620,319
Raw,295,2621,319
Raw,352,2622,319
Raw,316,2623,319
Raw,252,2624,319
Raw,203,2625,319
Raw,826,2627,319
Raw,333,2627,319
Raw,187,2628,319
Raw,304,2629,319
Raw,134,2630,319
Raw,298,2631,319
Raw,243,2632,319
Raw,346,2633,319
Raw,332,2634,319
Raw,816,2635,319
Raw,330,2636,319
Raw,131,2637,319
Raw,202,2638,319
Raw,94,2639,319
Raw,291,2640,319
Raw,305,2641,319
Raw,130,2642,319
Raw,332,2643,319
Raw,311,2644,319
Raw,340,2645,319
Raw,318,2646,319
Raw,333,2647,319
Raw,323,2648,319
Raw,291,2649,319
Raw,336,2650,319
Raw,283,2651,319
Raw,224,2652,319
Raw,293,2653,319
Raw,49,2654,319
Raw,292,2655,319
Raw,188,2656,319
Raw,249,2657,319
Raw,345,2658,319
Raw,292,2659,319
Raw,313,2660,319
Raw,325,2661,319
Raw,354,2662,319
Raw,160,2664,319
Raw,306,2666,319
Raw,258,2667,319
Raw,346,2668,319
Raw,273,2669,319
Raw,304,2671,319
Raw,280,2672,319
Raw,299,2673,319
Raw,317,2676,319
Raw,301,2677,319
Raw,312,2678,319
Raw,346,2679,319
Raw,499,2680,319
Raw,116,2681,319
Raw,316,2683,319
Raw,270,2684,319
Raw,294,2685,319
Raw,301,2686,319
Raw,285,2687,319
Raw,31,2687,319
Raw,281,2689,319
Raw,303,2690,319
Raw,326,2691,319
Raw,318,2692,319
Raw,105,2693,319
Raw,18,2694,319
Raw,330,2695,319
Raw,48,2696,319
Raw,300,2697,319
Raw,5,2699,319
Raw,309,2700,319
Raw,327,2701,319
Raw,250,2702,319
Raw,339,2703,319
Raw,300,2704,319
Raw,318,2705,319
Raw,307,2706,319
Raw,320,2708,319
Raw,195,2710,319
Raw,366,2711,319
Raw,307,2712,319
Raw,308,2713,319
Raw,288,2714,319
Raw,336,2715,319
Raw,318,2716,319
Raw,316,2717,319
Raw,221,2718,319
Raw,210,2719,319
Raw,165,2720,319
Raw,298,2721,319
Raw,215,2723,319
Raw,319,2725,319
Raw,208,2726,319
Raw,348,2728,319
Raw,276,2729,319
Raw,304,2730,319
Raw,167,2731,319
Raw,351,2732,319
Raw,304,2735,319
Raw,271,2736,319
Raw,286,2737,319
Raw,135,2738,319
Raw,310,2739,319
Raw,304,2742,319
Raw,29,2744,319
Raw,95,2744,319
Raw,197,2745,319
Raw,126,2746,319
Raw,313,2747,319
Raw,291,2748,319
Raw,302,2750,319
Raw,306,2751,319
Raw,321,2752,319
Raw,302,2753,319
Raw,295,2754,319
Raw,303,2755,319
Raw,326,2756,319
Raw,312,2757,319
Raw,204,2758,319
Raw,213,2759,319
Raw,531,2761,319
Raw,295,2762,319
Raw,201,2763,319
Raw,323,2764,319
Raw,258,2765,319
Raw,305,2766,319
Raw,549,2767,319
Raw,180,2767,319
Raw,292,2768,319
Raw,255,2769,319
Raw,71,2770,319
Raw,300,2771,319
Raw,375,2773,319
Raw,201,2774,319
Raw,86,2775,319
Raw,275,2776,319
Raw,577,2777,319
Raw,176,2777,319
Raw,185,2778,319
Raw,303,2779,319
Raw,295,2782,319
Raw,329,2783,319
Raw,310,2784,319
Raw,332,2785,319
Raw,266,2786,319
Raw,203,2787,319
Raw,271,2788,319
Raw,183,2789,319
Raw,108,2790,319
Raw,333,2792,319
Raw,312,2793,319
Raw,340,2794,319
Raw,298,2795,319
Raw,344,2796,319
Raw,300,2797,319
Raw,245,2798,319
Raw,296,2799,319
Raw,306,2800,319
Raw,318,2801,319
Raw,304,2802,319
Raw,234,2803,319
Raw,336,2804,319
Raw,328,2806,319
Raw,222,2807,319
Raw,690,2808,319
Raw,247,2809,319
Raw,353,2810,319
Raw,323,2811,319
Raw,203,2813,319
Raw,175,2815,319
Raw,194,2816,319
Raw,285,2817,319
Raw,319,2820,319
Raw,331,2821,319
Raw,267,2822,319
Raw,272,2824,319
Raw,340,2827,319
Raw,177,2828,319
Raw,237,2829,319
Raw,135,2830,319
Raw,333,2831,319
Raw,330,2832,319
Raw,328,2833,319
Raw,130,2834,319
Raw,326,2835,319
Raw,313,2836,319
Raw,321,2837,319
Raw,260,2838,319
Raw,43,2839,319
Raw,301,2840,319
Raw,321,2842,319
Raw,197,2843,319
Raw,294,2844,319
Raw,339,2845,319
Raw,317,2847,319
Raw,607,2850,319
Raw,319,2851,319
Raw,290,2853,319
Raw,307,2854,319
Raw,336,2855,319
Raw,332,2856,319
Raw,210,2857,319
Raw,293,2858,319
Raw,188,2860,319
Raw,287,2861,319
Raw,241,2865,319
Raw,293,2866,319
Raw,318,2867,319
Raw,327,2868,319
Raw,339,2869,319
Raw,248,2872,319
Raw,60,2873,319
Raw,293,2874,319
Raw,172,2875,319
Raw,292,2876,319
Raw,138,2877,319
Raw,315,2878,319
Raw,192,2880,319
Raw,238,2881,319
Raw,97,2882,319
Raw,287,2883,319
Raw,282,2884,319
Raw,319,2886,319
Raw,149,2887,319
Raw,243,2888,319
Raw,344,2889,319
Raw,279,2890,319
Raw,318,2891,319
Raw,290,2892,319
Raw,323,2893,319
Raw,267,2894,319
Raw,258,2895,319
Raw,162,2897,319
Raw,332,2898,319
Raw,74,2899,319
Raw,318,2900,319
Raw,213,2901,319
Raw,208,2902,319
Raw,341,2903,319
Raw,340,2904,319
Raw,99,2907,319
Raw,304,2908,319
Raw,238,2909,319
Raw,348,2910,319
Raw,227,2911,319
Raw,293,2912,319
Raw,227,2913,319
Raw,304,2914,319
Raw,330,2915,319
Raw,325,2916,319
Raw,314,2917,319
Raw,347,2918,319
Raw,177,2919,319
Raw,303,2920,319
Raw,289,2921,319
Raw,311,2922,319
Raw,311,2923,319
Raw,322,2924,319
Raw,218,2925,319
Raw,323,2926,319
Raw,259,2928,319
Raw,278,2929,319
Raw,240,2930,319
Raw,271,2933,319
Raw,263,2934,319
Raw,320,2937,319
Raw,576,2938,319
Raw,204,2939,319
Raw,306,2941,319
Raw,289,2944,319
Raw,334,2945,319
Raw,322,2946,319
Raw,326,2947,319
Raw,254,2948,319
Raw,309,2949,319
Raw,284,2950,319
Raw,6,2950,319
Raw,91,2951,319
Raw,242,2952,319
Raw,121,2953,319
Raw,259,2954,319
Raw,310,2955,319
Raw,516,2956,319
Raw,280,2957,319
Raw,331,2958,319
Raw,325,2959,319
Raw,327,2960,319
Raw,289,2961,319
Raw,199,2964,319
Raw,306,2965,319
Raw,223,2966,319
Raw,212,2967,319
Raw,613,2968,319
Raw,212,2969,319
Raw,74,2970,319
Raw,120,2971,319
Raw,313,2972,319
Raw,318,2973,319
Raw,207,2974,319
Raw,278,2974,319
Raw,98,2975,319
Raw,300,2976,319
Raw,314,2978,319
Raw,289,2979,319
Raw,295,2980,319
Raw,290,2981,319
Raw,292,2982,319
Raw,292,2983,319
Raw,301,2985,319
Raw,264,2986,319
Raw,335,2988,319
Raw,660,2989,319
Raw,304,2990,319
Raw,291,2992,319
Raw,232,2993,319
Raw,7,2993,319
Raw,121,2995,319
Raw,269,2997,319
Raw,333,2998,319
Raw,215,3000,319
Raw,250,3001,319
Raw,207,3003,319
Raw,312,3004,319
Raw,309,3005,319
Raw,180,3006,319
Raw,314,3007,319
Raw,326,3008,319
Raw,75,3010,319
Raw,329,3011,319
Raw,273,3012,319
Raw,97,3013,319
Raw,333,3014,319
Raw,321,3015,319
Raw,332,3016,319
Raw,265,3017,319
Raw,333,3019,319
Raw,298,3020,319
Raw,339,3021,319
Raw,313,3022,319
Raw,308,3024,319
Raw,224,3025,319
Raw,319,3026,319
Raw,322,3027,319
Raw,279,3028,319
Raw,140,3029,319
Raw,158,3030,319
Raw,238,3031,319
Raw,290,3032,319
Raw,304,3033,319
Raw,256,3034,319
Raw,223,3035,319
Raw,335,3037,319
Raw,326,3038,319
Raw,76,3039,319
Raw,277,3040,319
Raw,310,3041,319
Raw,350,3042,319
Raw,327,3043,319
Raw,267,3045,319
Raw,28,3045,319
Raw,131,3046,319
Raw,316,3047,319
Raw,312,3048,319
Raw,202,3049,319
Raw,107,3050,319
Raw,105,3052,319
Raw,358,3053,319
Raw,245,3054,319
Raw,336,3055,319
Raw,302,3056,319
Raw,269,3058,319
Raw,211,3060,319
Raw,333,3061,319
Raw,316,3062,319
Raw,322,3063,319
Raw,206,3065,319
Raw,311,3066,319
Raw,313,3068,319
Raw,122,3069,319
Raw,318,3070,319
Raw,275,3071,319
Raw,195,3072,319
Raw,282,3073,319
Raw,77,3074,319
Raw,258,3075,319
Raw,296,3076,319
Raw,272,3077,319
Raw,294,3079,319
Raw,266,3080,319
Raw,233,3081,319
Raw,306,3082,319
Raw,322,3083,319
Raw,312,3084,319
Raw,297,3085,319
Raw,257,3086,319
Raw,323,3087,319
Raw,316,3088,319
Raw,302,3089,319
Raw,331,3090,319
Raw,264,3091,319
Raw,288,3093,319
Raw,253,3094,319
Raw,125,3095,319
Raw,166,3096,319
Raw,244,3097,319
Raw,250,3098,319
Raw,287,3099,319
Raw,260,3100,319
Raw,280,3101,319
Raw,100,3102,319
Raw,307,3105,319
Raw,208,3106,319
Raw,313,3107,319
Raw,230,3108,319
Raw,320,3109,319
Raw,184,3110,319
Raw,328,3111,319
Raw,290,3112,319
Raw,228,3113,319
Raw,183,3114,319
Raw,305,3115,319
Raw,671,3116,319
Raw,334,3117,319
Raw,233,3118,319
Raw,11,3118,319
Raw,317,3119,319
Raw,315,3120,319
Raw,31,3121,319
Raw,302,3122,319
Raw,283,3123,319
Raw,345,3124,319
Raw,279,3125,319
Raw,247,3127,319
Raw,114,3132,319
Raw,312,3133,319
Raw,113,3134,319
Raw,327,3136,319
Raw,322,3138,319
Raw,235,3139,319
Raw,207,3141,319
Raw,26,3142,319
Raw,63,3143,319
Raw,328,3145,319
Raw,199,3146,319
Raw,87,3146,319
Raw,168,3147,319
Raw,310,3148,319
Raw,254,3149,319
Raw,70,3150,319
Raw,169,3151,319
Raw,330,3152,319
Raw,277,3153,319
Raw,130,3154,319
Raw,101,3154,319
Raw,716,3155,319
Raw,308,3156,319
Raw,280,3157,319
Raw,310,3158,319
Raw,312,3159,319
Raw,244,3160,319
Raw,311,3161,319
Raw,323,3163,319
Raw,200,3164,319
Raw,330,3165,319
Raw,312,3166,319
Raw,236,3167,319
Raw,294,3168,319
Raw,318,3169,319
Raw,195,3170,319
Raw,120,3171,319
Raw,322,3172,319
Raw,132,3173,319
Raw,300,3174,319
Raw,205,3175,319
Raw,81,3176,319
Raw,313,3177,319
Raw,323,3178,319
Raw,299,3179,319
Raw,144,3181,319
Raw,269,3182,319
Raw,323,3183,319
Raw,283,3185,319
Raw,133,3186,319
Raw,16,3187,319
Raw,243,3190,319
Raw,77,3191,319
Raw,82,3192,319
Raw,261,3193,319
Raw,295,3194,319
Raw,263,3195,319
Raw,158,3196,319
Raw,267,3197,319
Raw,227,3198,319
Raw,76,3199,319
Raw,323,3200,319
Raw,10,3201,319
Raw,282,3202,319
Raw,629,3202,319
Raw,330,3203,319
Raw,338,3204,319
Raw,315,3205,319
Raw,135,3206,319
Raw,118,3207,319
Raw,196,3208,319
Raw,319,3209,319
Raw,124,3210,319
Raw,320,3211,319
Raw,173,3212,319
Raw,321,3213,319
Raw,343,3214,319
Raw,336,3215,319
Raw,302,3217,319
Raw,331,3217,319
Raw,191,3218,319
Raw,295,3219,319
Raw,317,3220,319
Raw,311,3221,319
Raw,314,3222,319
Raw,287,3223,319
Raw,292,3224,319
Raw,265,3225,319
Raw,131,3226,319
Raw,314,3227,319
Raw,258,3228,319
Raw,327,3229,319
Raw,305,3230,319
Raw,296,3231,319
Raw,323,3232,319
Raw,181,3233,319
Raw,289,3234,319
Raw,198,3235,319
Raw,316,3237,319
Raw,123,3238,319
Raw,299,3239,319
Raw,168,3240,319
Raw,330,3242,319
Raw,286,3243,319
Raw,188,3244,319
Raw,9,3244,319
Raw,192,3245,319
Raw,322,3246,319
Raw,298,3247,319
Raw,345,3249,319
Raw,328,3252,319
Raw,365,3255,319
Raw,312,3257,319
Raw,284,3258,319
Raw,181,3259,319
Raw,320,3260,319
Raw,343,3261,319
Raw,44,3264,319
Raw,57,3266,319
Raw,294,3267,319
Raw,206,3269,319
Raw,277,3270,319
Raw,311,3272,319
Raw,326,3274,319
Raw,305,3275,319
Raw,337,3276,319
Raw,285,3277,319
Raw,330,3279,319
Raw,338,3280,319
Raw,133,3281,319
Raw,336,3282,319
Raw,221,3285,319
Raw,112,3286,319
Raw,89,3287,319
Raw,288,3288,319
Raw,316,3289,319
Raw,205,3291,319
Raw,329,3292,319
Raw,133,3293,319
Raw,294,3294,319
Raw,324,3295,319
Raw,323,3296,319
Raw,317,3297,319
Raw,311,3298,319
Raw,123,3299,319
Raw,335,3300,319
Raw,332,3301,319
Raw,343,3302,319
Raw,301,3303,319
Raw,278,3304,319
Raw,342,3305,319
Raw,332,3306,319
Raw,304,3307,319
Raw,343,3308,319
Raw,263,3309,319
Raw,310,3310,319
Raw,308,3312,319
Raw,323,3313,319
Raw,218,3315,319
Raw,357,3316,319
Raw,32,3317,319
Raw,326,3318,319
Raw,210,3319,319
Raw,239,3320,319
Raw,137,3321,319
Raw,340,3322,319
Raw,106,3323,319
Raw,147,3323,319
Raw,124,3324,319
Raw,310,3325,319
Raw,281,3326,319
Raw,308,3327,319
Raw,199,3328,319
Raw,347,3329,319
Raw,332,3331,319
Raw,340,3332,319
Raw,284,3333,319
Raw,269,3334,319
Raw,212,3336,319
Raw,335,3340,319
Raw,191,3341,319
Raw,267,3342,319
Raw,296,3343,319
Raw,266,3344,319
Raw,293,3347,319
Raw,326,3348,319
Raw,240,3349,319
Raw,179,3350,319
Raw,328,3351,319
Raw,350,3353,319
Raw,343,3354,319
Raw,323,3355,319
Raw,286,3356,319
Raw,110,3357,319
Raw,337,3358,319
Raw,311,3359,319
Raw,327,3360,319
Raw,224,3361,319
Raw,291,3362,319
Raw,186,3363,319
Raw,334,3364,319
Raw,152,3365,319
Raw,305,3366,319
Raw,258,3367,319
Raw,308,3368,319
Raw,224,3369,319
Raw,287,3371,319
Raw,329,3372,319
Raw,339,3373,319
Raw,334,3376,319
Raw,322,3377,319
Raw,184,3378,319
Raw,315,3379,319
Raw,279,3380,319
Raw,255,3381,319
Raw,195,3382,319
Raw,298,3383,319
Raw,294,3384,319
Raw,344,3386,319
Raw,314,3387,319
Raw,333,3388,319
Raw,127,3389,319
Raw,281,3390,319
Raw,330,3391,319
Raw,294,3392,319
Raw,340,3393,319
Raw,250,3394,319
Raw,200,3395,319
Raw,284,3396,319
Raw,344,3397,319
Raw,354,3401,319
Raw,304,3402,319
Raw,295,3403,319
Raw,124,3404,319
Raw,288,3405,319
Raw,186,3406,319
Raw,285,3407,319
Raw,154,3408,319
Raw,311,3409,319
Raw,209,3410,319
Raw,317,3411,319
Raw,328,3412,319
Raw,170,3414,319
Raw,339,3415,319
Raw,204,3416,319
Raw,235,3417,319
Raw,301,3419,319
Raw,183,3420,319
Raw,278,3421,319
Raw,302,3422,319
Raw,335,3423,319
Raw,325,3424,319
Raw,263,3425,319
Raw,137,3427,319
Raw,325,3429,319
Raw,166,3434,319
Raw,84,3437,319
Raw,282,3446,319
Raw,318,3448,319
Raw,199,3449,319
Raw,302,3450,319
Raw,325,3451,319
Raw,325,3452,319
Raw,340,3453,319
Raw,309,3454,319
Raw,272,3455,319
Raw,326,3458,319
Raw,319,3459,319
Raw,319,3461,319
Raw,317,3462,319
Raw,303,3463,319
Raw,45,3464,319
Raw,342,3465,319
Raw,289,3466,319
Raw,218,3467,319
Raw,213,3468,319
Raw,201,3469,319
Raw,340,3471,319
Raw,279,3472,319
Raw,323,3473,319
Raw,19,3474,319
Raw,316,3475,319
Raw,352,3476,319
Raw,290,3477,319
Raw,309,3478,319
Raw,75,3479,319
Raw,248,3480,319
Raw,142,3481,319
Raw,184,3482,319
Raw,298,3484,319
Raw,311,3485,319
Raw,328,3486,319
Raw,283,3488,319
Raw,277,3489,319
Raw,334,3490,319
Raw,312,3491,319
Raw,316,3491,319
Raw,241,3492,319
Raw,191,3495,319
Raw,48,3496,319
Raw,337,3497,319
Raw,315,3498,319
Raw,350,3499,319
Raw,225,3500,319
Raw,140,3502,319
Raw,327,3503,319
Raw,257,3504,319
Raw,296,3505,319
Raw,286,3506,319
Raw,287,3507,319
Raw,199,3508,319
Raw,147,3509,319
Raw,308,3510,319
Raw,290,3511,319
Raw,304,3512,319
Raw,53,3513,319
Raw,335,3514,319
Raw,337,3515,319
Raw,315,3516,319
Raw,332,3517,319
Raw,333,3518,319
Raw,310,3519,319
Raw,349,3520,319
Raw,226,3521,319
Raw,318,3522,319
Raw,165,3524,319
Raw,306,3525,319
Raw,273,3526,319
Raw,344,3528,319
Raw,332,3530,319
Raw,302,3531,319
Raw,227,3532,319
Raw,317,3533,319
Raw,349,3534,319
Raw,221,3535,319
Raw,242,3536,319
Raw,334,3537,319
Raw,330,3538,319
Raw,186,3539,319
Raw,326,3540,319
Raw,244,3541,319
Raw,290,3542,319
Raw,210,3544,319
Raw,282,3545,319
Raw,251,3546,319
Raw,322,3547,319
Raw,291,3548,319
Raw,287,3549,319
Raw,277,3550,319
Raw,304,3551,319
Raw,288,3553,319
Raw,339,3554,319
Raw,333,3555,319
Raw,336,3556,319
Raw,300,3557,319
Raw,289,3558,319
Raw,212,3559,319
Raw,194,3560,319
Raw,207,3561,319
Raw,317,3562,319
Raw,521,3563,319
Raw,260,3564,319
Raw,277,3565,319
Raw,255,3566,319
Raw,196,3567,319
Raw,307,3568,319
Raw,279,3571,319
Raw,309,3572,319
Raw,243,3573,319
Raw,209,3574,319
Raw,171,3575,319
Raw,273,3576,319
Raw,160,3577,319
Raw,325,3578,319
Raw,293,3579,319
Raw,329,3581,319
Raw,321,3582,319
Raw,322,3583,319
Raw,188,3585,319
Raw,129,3586,319
Raw,314,3588,319
Raw,199,3589,319
Raw,290,3590,319
Raw,250,3592,319
Raw,344,3593,319
Raw,339,3595,319
Raw,327,3596,319
Raw,280,3597,319
Raw,267,3598,319
Raw,233,3599,319
Raw,313,3600,319
Raw,208,3601,319
Raw,327,3602,319
Raw,335,3603,319
Raw,332,3604,319
Raw,270,3605,319
Raw,283,3606,319
Raw,282,3607,319
Raw,300,3608,319
Raw,286,3609,319
Raw,273,3612,319
Raw,312,3613,319
Raw,307,3614,319
Raw,71,3615,319
Raw,340,3616,319
Raw,312,3617,319
Raw,217,3618,319
Raw,278,3619,319
Raw,319,3620,319
Raw,223,3621,319
Raw,317,3622,319
Raw,44,3624,319
Raw,249,3625,319
Raw,268,3626,319
Raw,372,3627,319
Raw,295,3628,319
Raw,342,3630,319
Raw,284,3631,319
Raw,242,3634,319
Raw,256,3635,319
Raw,324,3638,319
Raw,244,3640,319
Raw,186,3641,319
Raw,51,3642,319
Raw,319,3643,319
Raw,331,3644,319
Raw,95,3645,319
Raw,207,3646,319
Raw,289,3647,319
Raw,185,3648,319
Raw,344,3649,319
Raw,289,3650,319
Raw,156,3651,319
Raw,605,3653,319
Raw,338,3654,319
Raw,284,3655,319
Raw,165,3656,319
Raw,307,3657,319
Raw,313,3658,319
Raw,192,3659,319
Raw,281,3660,319
Raw,298,3662,319
Raw,157,3663,319
Raw,305,3664,319
Raw,265,3665,319
Raw,260,3667,319
Raw,306,3668,319
Raw,629,3671,319
Raw,80,3671,319
Raw,289,3672,319
Raw,590,3674,319
Raw,193,3675,319
Raw,92,3676,319
Raw,305,3677,319
Raw,203,3678,319
Raw,190,3679,319
Raw,257,3680,319
Raw,281,3681,319
Raw,299,3682,319
Raw,196,3683,319
Raw,215,3684,319
Raw,326,3685,319
Raw,331,3686,319
Raw,552,3687,319
Raw,327,3688,319
Raw,139,3689,319
Raw,337,3690,319
Raw,247,3691,319
Raw,295,3692,319
Raw,197,3692,319
Raw,220,3693,319
Raw,308,3695,319
Raw,130,3696,319
Raw,325,3697,319
Raw,286,3698,319
Raw,316,3699,319
Raw,300,3700,319
Raw,320,3701,319
Raw,245,3702,319
Raw,92,3705,319
Raw,231,3706,319
Raw,302,3707,319
Raw,337,3708,319
Raw,97,3709,319
Raw,306,3710,319
Raw,147,3711,319
Raw,322,3712,319
Raw,301,3713,319
Raw,300,3714,319
Raw,317,3715,319
Raw,341,3716,319
Raw,309,3717,319
Raw,349,3718,319
Raw,270,3719,319
Raw,227,3720,319
Raw,322,3721,319
Raw,352,3722,319
Raw,121,3723,319
Raw,324,3724,319
Raw,291,3725,319
Raw,311,3726,319
Raw,256,3727,319
Raw,69,3728,319
Raw,332,3729,319
Raw,335,3730,319
Raw,307,3731,319
Raw,309,3733,319
Raw,322,3734,319
Raw,324,3735,319
Raw,331,3736,319
Raw,929,3737,319
Raw,299,3738,319
Raw,314,3739,319
Raw,146,3740,319
Raw,316,3741,319
Raw,309,3742,319
Raw,178,3742,319
Raw,339,3745,319
Raw,327,3746,319
Raw,223,3747,319
Raw,320,3749,319
Raw,233,3750,319
Raw,206,3751,319
Raw,265,3754,319
Raw,331,3756,319
Raw,244,3756,319
Raw,205,3757,319
Raw,71,3758,319
Raw,103,3759,319
Raw,126,3760,319
Raw,122,3761,319
Raw,297,3762,319
Raw,94,3763,319
Raw,311,3764,319
Raw,341,3765,319
Raw,252,3766,319
Raw,291,3767,319
Raw,131,3768,319
Raw,226,3769,319
Raw,325,3770,319
Raw,318,3771,319
Raw,271,3772,319
Raw,310,3773,319
Raw,325,3774,319
Raw,218,3775,319
Raw,325,3776,319
Raw,213,3777,319
Raw,264,3778,319
Raw,338,3779,319
Raw,188,3780,319
Raw,114,3780,319
Raw,283,3781,319
Raw,204,3782,319
Raw,189,3783,319
Raw,314,3784,319
Raw,352,3786,319
Raw,309,3787,319
Raw,217,3788,319
Raw,311,3789,319
Raw,320,3791,319
Raw,319,3792,319
Raw,627,3793,319
Raw,230,3795,319
Raw,168,3797,319
Raw,335,3798,319
Raw,319,3799,319
Raw,284,3800,319
Raw,278,3801,319
Raw,339,3802,319
Raw,337,3803,319
Raw,210,3805,319
Raw,368,3806,319
Raw,339,3807,319
Raw,322,3808,319
Raw,314,3809,319
Raw,326,3811,319
Raw,336,3812,319
Raw,211,3813,319
Raw,300,3814,319
Raw,321,3815,319
Raw,31,3815,319
Raw,304,3816,319
Raw,200,3817,319
Raw,325,3819,319
Raw,348,3820,319
Raw,324,3821,319
Raw,271,3822,319
Raw,192,3823,319
Raw,139,3824,319
Raw,339,3828,319
Raw,295,3829,319
Raw,318,3830,319
Raw,324,3832,319
Raw,263,3833,319
Raw,304,3834,319
Raw,231,3836,319
Raw,315,3837,319
Raw,5,3837,319
Raw,186,3839,319
Raw,281,3840,319
Raw,215,3842,319
Raw,333,3843,319
Raw,300,3844,319
Raw,290,3844,319
Raw,293,3845,319
Raw,333,3846,319
Raw,89,3847,319
Raw,304,3848,319
Raw,327,3849,319
Raw,286,3850,319
Raw,285,3852,319
Raw,316,3855,319
Raw,337,3857,319
Raw,243,3862,319
Raw,306,3863,319
Raw,316,3864,319
Raw,187,3866,319
Raw,330,3867,319
Raw,193,3868,319
Raw,27,3868,319
Raw,206,3870,319
Raw,308,3871,319
Raw,343,3876,319
Raw,317,3877,319
Raw,348,3878,319
Raw,194,3879,319
Raw,299,3880,319
Raw,204,3881,319
Raw,334,3882,319
Raw,191,3883,319
Raw,327,3884,319
Raw,99,3885,319
Raw,132,3886,319
Raw,307,3888,319
Raw,214,3889,319
Raw,315,3890,319
Raw,311,3891,319
Raw,76,3892,319
Raw,312,3894,319
Raw,322,3895,319
Raw,300,3896,319
Raw,338,3897,319
Raw,307,3898,319
Raw,93,3899,319
Raw,335,3901,319
Raw,279,3902,319
Raw,279,3903,319
Raw,341,3904,319
Raw,277,3905,319
Raw,270,3906,319
Raw,287,3907,319
Raw,326,3908,319
Raw,74,3909,319
Raw,182,3910,319
Raw,226,3911,319
Raw,320,3913,319
