Cut?,Counts,eventNumber,runNumber
Raw,1.03152387e+06,2,320
Raw,2.85221917e+05,10,320
Raw,6.68448971e+05,11,320
Raw,2.5281775e+05,23,320
Raw,9.8209347e+05,25,320
Raw,1.01653411e+06,26,320
Raw,9.72314862e+05,30,320
Raw,1.93975664e+06,39,320
Raw,6.24674949e+05,45,320
Raw,89999.569,45,320
Raw,1.37079612e+06,48,320
Raw,8.66745516e+05,55,320
Raw,2.00591615e+06,58,320
Raw,1.03159095e+06,62,320
Raw,1.07682404e+06,63,320
Raw,4.28610301e+05,64,320
Raw,6.88863973e+05,66,320
Raw,2.2874608e+06,67,320
Raw,1.77356313e+06,75,320
Raw,8.81691156e+05,76,320
Raw,8502.0272,89,320
Raw,1.03278624e+06,94,320
Raw,9.32877588e+05,100,320
Raw,7.7151796e+05,101,320
Raw,2.80595647e+05,105,320
Raw,1.87976303e+06,108,320
Raw,9.85993674e+05,111,320
Raw,8.02559025e+05,113,320
Raw,1.92686859e+06,116,320
Raw,22039.723,120,320
Raw,6.6334842e+05,121,320
Raw,9.31798964e+05,135,320
Raw,9.15936941e+05,135,320
Raw,8.83784617e+05,138,320
Raw,4.37416769e+05,140,320
Raw,7.40896199e+05,141,320
Raw,7.96777237e+05,142,320
Raw,9.70109327e+05,148,320
Raw,1.03962361e+06,157,320
Raw,8.95131175e+05,161,320
Raw,9.1528136e+05,164,320
Raw,1.07164903e+06,164,320
Raw,1.0453364e+06,168,320
Raw,1.01134884e+06,173,320
Raw,6.33599006e+05,176,320
Raw,9.43377451e+05,177,320
Raw,1.00981047e+06,183,320
Raw,9.92513568e+05,183,320
Raw,6.06358209e+05,187,320
Raw,1.67718152e+06,191,320
Raw,5.55250235e+05,196,320
Raw,5.95862838e+05,206,320
Raw,1.43563224e+06,210,320
Raw,9.77842977e+05,220,320
Raw,9.98167382e+05,221,320
Raw,1.60836625e+06,222,320
Raw,1.09920383e+06,223,320
Raw,1.10689983e+06,224,320
Raw,9.61139222e+05,233,320
Raw,9.90369224e+05,239,320
Raw,6.01753589e+05,251,320
Raw,5.5181365e+05,259,320
Raw,1.00444153e+06,270,320
Raw,1.04568609e+06,274,320
Raw,1.77910886e+06,279,320
Raw,8.51245667e+05,284,320
Raw,9.16541259e+05,285,320
Raw,9.9971969e+05,286,320
Raw,1.08177644e+05,289,320
Raw,1.14319358e+06,290,320
Raw,1.00449557e+06,291,320
Raw,9.23086501e+05,298,320
Raw,9.61595786e+05,300,320
Raw,7.74974873e+05,310,320
Raw,1.70021904e+06,317,320
Raw,1.75351414e+06,325,320
Raw,1.54297556e+06,327,320
Raw,1.7871093e+05,336,320
Raw,8.48337019e+05,339,320
Raw,5.50658764e+05,341,320
Raw,1.4905131e+05,342,320
Raw,9.41098218e+05,351,320
Raw,1.11721367e+06,351,320
Raw,8.18795294e+05,352,320
Raw,1.72575441e+06,361,320
Raw,6.00337017e+05,361,320
Raw,9.3135198e+05,362,320
Raw,4.66449981e+05,363,320
Raw,3.96016296e+05,376,320
Raw,2.02886057e+05,387,320
Raw,2.20242093e+06,392,320
Raw,9.0505511e+05,396,320
Raw,1.0310284e+06,399,320
Raw,8.72305134e+05,409,320
Raw,1.99942174e+06,422,320
Raw,1.08660125e+06,434,320
Raw,4.97457268e+05,436,320
Raw,1.07093697e+06,439,320
Raw,6.8401482e+05,442,320
Raw,6.53636306e+05,443,320
Raw,1.00679336e+06,446,320
Raw,7.8477418e+05,446,320
Raw,7.30747508e+05,447,320
Raw,1.09785764e+06,469,320
Raw,8.98407656e+05,471,320
Raw,8.75376461e+05,472,320
Raw,9.7124126e+05,478,320
Raw,9.6427587e+05,482,320
Raw,9.81502058e+05,484,320
Raw,3.59297084e+05,484,320
Raw,1.51550343e+06,485,320
Raw,1.03075436e+06,487,320
Raw,1.10960065e+06,490,320
Raw,9.21659038e+05,503,320
Raw,1.59126622e+06,504,320
Raw,1.4773131e+06,507,320
Raw,8.10522713e+05,509,320
Raw,8.6549784e+05,515,320
Raw,9.97486938e+05,518,320
Raw,1.11552144e+06,520,320
Raw,6.11354017e+05,524,320
Raw,9.26510265e+05,526,320
Raw,4.5438907e+05,535,320
Raw,7.68728555e+05,537,320
Raw,9.08308007e+05,538,320
Raw,20087.589,543,320
Raw,1.04566617e+06,558,320
Raw,3.22328479e+05,563,320
Raw,1.8845268e+06,566,320
Raw,1.36388797e+06,568,320
Raw,1.63944884e+06,569,320
Raw,1.76479184e+06,579,320
Raw,8.88352148e+05,581,320
Raw,1.69133263e+06,585,320
Raw,1.91099558e+06,587,320
Raw,7.59871985e+05,588,320
Raw,9.07828087e+05,593,320
Raw,5.27057566e+05,596,320
Raw,9.93679276e+05,597,320
Raw,7.31425264e+05,598,320
Raw,5.62061546e+05,600,320
Raw,9.09643076e+05,601,320
Raw,1.08168518e+06,602,320
Raw,1.0398426e+06,646,320
Raw,1.14741932e+06,650,320
Raw,8.55948062e+05,653,320
Raw,5.12140842e+05,659,320
Raw,9.55139578e+05,664,320
Raw,6.10185314e+05,669,320
Raw,2.37472209e+06,671,320
Raw,8.35992579e+05,676,320
Raw,9.46129715e+05,683,320
Raw,8.42629657e+05,683,320
Raw,3.26388585e+05,688,320
Raw,1.02841024e+06,698,320
Raw,6.30750623e+05,698,320
Raw,8.12849079e+05,705,320
Raw,1.05481175e+06,710,320
Raw,1.15427511e+06,712,320
Raw,8.84732025e+05,713,320
Raw,9.29042821e+05,715,320
Raw,9.5571585e+05,718,320
Raw,8.47963786e+05,720,320
Raw,1.54220165e+06,734,320
Raw,1.75456898e+06,741,320
Raw,9.41474978e+05,758,320
Raw,1.54415241e+06,769,320
Raw,8.53452016e+05,775,320
Raw,5.92826785e+05,785,320
Raw,1.11962817e+06,790,320
Raw,1.01445462e+05,791,320
Raw,5.89345097e+05,792,320
Raw,9.43570624e+05,803,320
Raw,1.97414872e+06,809,320
Raw,1.01822616e+06,812,320
Raw,8.98162953e+05,813,320
Raw,7.31299376e+05,813,320
Raw,1.58623635e+06,815,320
Raw,8.21988636e+05,822,320
Raw,8.54475975e+05,829,320
Raw,8.23070698e+05,849,320
Raw,8.92940015e+05,850,320
Raw,1.01250904e+06,851,320
Raw,1.06613797e+06,854,320
Raw,6.95421789e+05,854,320
Raw,9.90510466e+05,864,320
Raw,9.45723436e+05,866,320
Raw,1.46995765e+06,869,320
Raw,1.02606438e+06,875,320
Raw,1.05459871e+06,876,320
Raw,1.96404339e+06,881,320
Raw,4.11559922e+05,885,320
Raw,9.70635768e+05,885,320
Raw,9.79742471e+05,889,320
Raw,1.10790429e+06,891,320
Raw,2.07323729e+05,892,320
Raw,3.77463058e+05,897,320
Raw,9.68854272e+05,912,320
Raw,4.36391442e+05,915,320
Raw,8.9960796e+05,915,320
Raw,3.27032927e+05,924,320
Raw,9.78857207e+05,931,320
Raw,1.41974955e+05,932,320
Raw,1.96635982e+06,939,320
Raw,8.61260609e+05,945,320
Raw,1.51451341e+06,948,320
Raw,7.59007669e+05,962,320
Raw,1.89173573e+06,963,320
Raw,1.11779565e+06,968,320
Raw,2.65118416e+06,973,320
Raw,1.09245349e+06,981,320
Raw,9.25467071e+05,984,320
Raw,9.66151975e+05,985,320
Raw,5.82340163e+05,986,320
Raw,1.0210994e+06,993,320
Raw,3.08545179e+05,994,320
Raw,8.26411897e+05,1006,320
Raw,1.50128367e+06,1009,320
Raw,1.14160269e+06,1015,320
Raw,8.83255938e+05,1017,320
Raw,8.62736431e+05,1025,320
Raw,9.81358026e+05,1029,320
Raw,2.07312753e+06,1033,320
Raw,1.19863056e+06,1043,320
Raw,7.53907804e+05,1055,320
Raw,1.87764336e+06,1062,320
Raw,9.83015113e+05,1063,320
Raw,8.52544558e+05,1071,320
Raw,4.58412191e+05,1094,320
Raw,1.01394252e+06,1129,320
Raw,5.52610097e+05,1129,320
Raw,1.00518148e+06,1131,320
Raw,1.06149952e+06,1133,320
Raw,1.5514716e+06,1166,320
Raw,9.50236806e+05,1167,320
Raw,1.06255124e+06,1173,320
Raw,6.24664774e+05,1173,320
Raw,8.64811686e+05,1181,320
Raw,5.65223827e+05,1182,320
Raw,6.48087805e+05,1183,320
Raw,1.37152574e+06,1190,320
Raw,1.14029426e+06,1198,320
Raw,1.02100991e+06,1203,320
Raw,9.71676094e+05,1208,320
Raw,8.58342225e+05,1218,320
Raw,1.22846945e+06,1225,320
Raw,2.61669901e+05,1226,320
Raw,1.01288122e+06,1227,320
Raw,9.77172634e+05,1233,320
Raw,8.6612262e+05,1236,320
Raw,72896.498,1245,320
Raw,9.05748933e+05,1247,320
Raw,1.19740434e+06,1251,320
Raw,9.52430721e+05,1252,320
Raw,9.97948801e+05,1261,320
Raw,1.00325016e+06,1262,320
Raw,9.89518728e+05,1286,320
Raw,1.10803045e+06,1287,320
Raw,1.99776407e+06,1294,320
Raw,9.01910057e+05,1297,320
Raw,1.51347824e+06,1298,320
Raw,2.07759588e+06,1300,320
Raw,8.97282223e+05,1301,320
Raw,1.01902348e+06,1309,320
Raw,8.30225939e+05,1312,320
Raw,8.70214292e+05,1314,320
Raw,1.00587217e+06,1315,320
Raw,4.16357989e+05,1316,320
Raw,1.99332476e+06,1324,320
Raw,2.21762226e+06,1325,320
Raw,1.08107334e+06,1341,320
Raw,3.9696034e+05,1346,320
Raw,8.81437396e+05,1346,320
Raw,9.67803066e+05,1348,320
Raw,1.13931786e+06,1348,320
Raw,1.44580776e+06,1355,320
Raw,1.42874275e+06,1359,320
Raw,8.49793031e+05,1371,320
Raw,3.82553961e+05,1373,320
Raw,8.59117958e+05,1375,320
Raw,1.10109089e+06,1380,320
Raw,1.01891561e+06,1386,320
Raw,1.0424459e+06,1387,320
Raw,6.32477263e+05,1390,320
Raw,9.75325439e+05,1424,320
Raw,5.74870663e+05,1431,320
Raw,9.29137465e+05,1435,320
Raw,1.88015714e+06,1436,320
Raw,9.43904701e+05,1438,320
Raw,1.07976195e+06,1448,320
Raw,1.02632809e+06,1457,320
Raw,1.02593169e+06,1457,320
Raw,4.38401675e+05,1464,320
Raw,4.00826309e+05,1467,320
Raw,1.00418196e+06,1470,320
Raw,1.1464287e+06,1474,320
Raw,1.01627306e+06,1477,320
Raw,9.04338272e+05,1481,320
Raw,1.79058207e+06,1493,320
Raw,8.95610616e+05,1494,320
Raw,1.00286505e+06,1498,320
Raw,1.13076059e+06,1500,320
Raw,8.6728615e+05,1505,320
Raw,6.98818896e+05,1514,320
Raw,2.1136795e+05,1517,320
Raw,1.22937154e+06,1524,320
Raw,8.48313714e+05,1529,320
Raw,9.66498612e+05,1530,320
Raw,1.02252132e+06,1531,320
Raw,5.97601019e+05,1551,320
Raw,9.68317765e+05,1553,320
Raw,1.16769477e+06,1553,320
Raw,1.14781243e+06,1555,320
Raw,8.60795947e+05,1556,320
Raw,1.10796055e+06,1559,320
Raw,9.11627545e+05,1561,320
Raw,4.85766227e+05,1564,320
Raw,1.68410044e+06,1566,320
Raw,9.7822855e+05,1572,320
Raw,1.98301092e+06,1573,320
Raw,1.82271182e+06,1577,320
Raw,1.05565431e+06,1577,320
Raw,1.00959206e+06,1579,320
Raw,1.90975082e+06,1579,320
Raw,4.16985876e+05,1582,320
Raw,9.24198079e+05,1583,320
Raw,1.19930612e+06,1589,320
Raw,3.12399746e+05,1589,320
Raw,1.00918095e+06,1590,320
Raw,1.04011907e+06,1593,320
Raw,6.67579411e+05,1596,320
Raw,1.97972205e+06,1602,320
Raw,9.98258088e+05,1605,320
Raw,1.14433441e+06,1610,320
Raw,2.53376532e+05,1619,320
Raw,1.67521268e+06,1623,320
Raw,9.75251411e+05,1626,320
Raw,9.20883257e+05,1629,320
Raw,8.7148443e+05,1637,320
Raw,1.73568599e+06,1639,320
Raw,7.59887351e+05,1640,320
Raw,9.12240993e+05,1650,320
Raw,1.93521186e+06,1651,320
Raw,9.08899899e+05,1655,320
Raw,5.39545789e+05,1659,320
Raw,1.84985354e+06,1664,320
Raw,1.88243203e+05,1664,320
Raw,1.0777935e+06,1670,320
Raw,6.95136867e+05,1671,320
Raw,9.25802943e+05,1673,320
Raw,5.18421879e+05,1674,320
Raw,1.98546189e+06,1675,320
Raw,9.44869026e+05,1683,320
Raw,1.03458984e+06,1683,320
Raw,9.59096324e+05,1686,320
Raw,7.73747515e+05,1689,320
Raw,5.88935434e+05,1691,320
Raw,1.00724651e+06,1698,320
Raw,5.22344695e+05,1707,320
Raw,1.15568805e+06,1707,320
Raw,62619.1,1714,320
Raw,72033.579,1717,320
Raw,9.16935178e+05,1727,320
Raw,6.09373912e+05,1731,320
Raw,4.06100859e+05,1732,320
Raw,1.87038195e+06,1733,320
Raw,1.02125886e+06,1742,320
Raw,8.64422421e+05,1745,320
Raw,9.98001907e+05,1748,320
Raw,5.35751113e+05,1749,320
Raw,2.04500775e+06,1750,320
Raw,6.74085033e+05,1752,320
Raw,8.89501967e+05,1758,320
Raw,8.54239003e+05,1767,320
Raw,8.94868806e+05,1772,320
Raw,8.2767647e+05,1780,320
Raw,7.51650775e+05,1786,320
Raw,9.4480511e+05,1813,320
Raw,3.76112667e+05,1816,320
Raw,9.06530497e+05,1818,320
Raw,1.00381534e+06,1818,320
Raw,5.84505353e+05,1825,320
Raw,9.94002513e+05,1826,320
Raw,8.96192479e+05,1831,320
Raw,9.34810143e+05,1842,320
Raw,5.93515514e+05,1843,320
Raw,7.94054425e+05,1856,320
Raw,6.64992545e+05,1867,320
Raw,6.19234472e+05,1887,320
Raw,1.05362967e+06,1890,320
Raw,9.26935992e+05,1891,320
Raw,1.12251591e+06,1892,320
Raw,1.06813148e+06,1903,320
Raw,2.09422408e+05,1903,320
Raw,1.81510465e+06,1909,320
Raw,1.27410738e+06,1910,320
Raw,1.14252345e+06,1910,320
Raw,7.12160182e+05,1911,320
Raw,2.42136895e+05,1922,320
Raw,1.11250099e+06,1926,320
Raw,5.45143894e+05,1928,320
Raw,1.05150336e+06,1933,320
Raw,1.06691953e+06,1935,320
Raw,8.39099226e+05,1937,320
Raw,5.99152534e+05,1938,320
Raw,1.7280533e+05,1938,320
Raw,8.87908024e+05,1941,320
Raw,1.44408142e+06,1942,320
Raw,8.32997101e+05,1949,320
Raw,1.73004171e+06,1949,320
Raw,9.52024167e+05,1954,320
Raw,1.11786606e+06,1956,320
Raw,6.26008624e+05,1961,320
Raw,5.95648292e+05,1968,320
Raw,1.6184648e+06,1970,320
Raw,9.83738655e+05,1980,320
Raw,6.82700874e+05,1987,320
Raw,3.5242884e+05,1990,320
Raw,7.72959974e+05,2014,320
Raw,1.52828065e+06,2015,320
Raw,9.32930652e+05,2018,320
Raw,5.38138377e+05,2021,320
Raw,34563.689,2021,320
Raw,6.82699295e+05,2025,320
Raw,9.36780503e+05,2031,320
Raw,1.05373345e+06,2031,320
Raw,1.32650137e+06,2040,320
Raw,1.12498844e+06,2043,320
Raw,9.58460167e+05,2054,320
Raw,9.88495069e+05,2055,320
Raw,1.80383054e+06,2064,320
Raw,4.33936864e+05,2068,320
Raw,9.18117522e+05,2076,320
Raw,1.05548972e+06,2076,320
Raw,3.72975076e+05,2079,320
Raw,1.12076699e+06,2086,320
Raw,4.89995832e+05,2091,320
Raw,1.915e+06,2094,320
Raw,9.25238586e+05,2100,320
Raw,9.62393867e+05,2101,320
Raw,1.93705391e+06,2103,320
Raw,29963.387,2103,320
Raw,1.33234134e+05,2110,320
Raw,9.29182582e+05,2112,320
Raw,1.03429001e+06,2113,320
Raw,8.88784975e+05,2113,320
Raw,9.21993306e+05,2114,320
Raw,6.65374608e+05,2115,320
Raw,1.02443802e+06,2119,320
Raw,9.58880914e+05,2120,320
Raw,1.50332134e+06,2121,320
Raw,1.14553589e+06,2122,320
Raw,2.2613594e+06,2125,320
Raw,2.09048112e+06,2128,320
Raw,5.89940953e+05,2132,320
Raw,9.33779933e+05,2136,320
Raw,1.57002726e+05,2142,320
Raw,7.87762689e+05,2146,320
Raw,1.02898626e+06,2155,320
Raw,1.03940925e+06,2157,320
Raw,2.66709939e+05,2159,320
Raw,5.19085847e+05,2168,320
Raw,1.12401846e+06,2172,320
Raw,8.45439432e+05,2177,320
Raw,3.54641833e+05,2177,320
Raw,1.06628875e+06,2178,320
Raw,8.68259191e+05,2179,320
Raw,4.90315609e+05,2190,320
Raw,8.93462893e+05,2193,320
Raw,1.08815925e+06,2204,320
Raw,1.17052317e+06,2212,320
Raw,9.54262927e+05,2223,320
Raw,1.2496286e+06,2226,320
Raw,9.56544496e+05,2227,320
Raw,1.93605598e+06,2229,320
Raw,8.66516535e+05,2230,320
Raw,3.43485663e+05,2230,320
Raw,9.22869252e+05,2236,320
Raw,7.82761518e+05,2238,320
Raw,1.22682645e+06,2239,320
Raw,78969.553,2246,320
Raw,1.38466282e+06,2247,320
Raw,7.58430727e+05,2259,320
Raw,1.68381757e+06,2263,320
Raw,8.45327775e+05,2267,320
Raw,9.24267985e+05,2270,320
Raw,9.31300293e+05,2270,320
Raw,1.13958503e+06,2284,320
Raw,9.31272676e+05,2286,320
Raw,1.00894071e+06,2288,320
Raw,3.51903352e+05,2288,320
Raw,1.09953633e+06,2292,320
Raw,9.75516719e+05,2299,320
Raw,1.09891735e+06,2313,320
Raw,8.69958464e+05,2315,320
Raw,9.28409386e+05,2317,320
Raw,1.17931198e+06,2324,320
Raw,9.45630943e+05,2326,320
Raw,5.51954016e+05,2327,320
Raw,9.61525e+05,2333,320
Raw,9.47360655e+05,2356,320
Raw,3.47248532e+05,2356,320
Raw,1.05390294e+06,2363,320
Raw,1.2523351e+06,2364,320
Raw,2.81077222e+05,2366,320
Raw,5.80073908e+05,2369,320
Raw,1.01330337e+06,2370,320
Raw,9.44656765e+05,2371,320
Raw,9.8026904e+05,2377,320
Raw,2.93693995e+05,2382,320
Raw,9.01748656e+05,2387,320
Raw,1.0892044e+06,2391,320
Raw,1.73822237e+06,2394,320
Raw,9.04985891e+05,2397,320
Raw,1.81227882e+06,2401,320
Raw,9.66798007e+05,2403,320
Raw,9.71975237e+05,2417,320
Raw,1.04775218e+06,2419,320
Raw,5.41787389e+05,2419,320
Raw,3.41685815e+05,2422,320
Raw,1.61500802e+06,2432,320
Raw,5.82253163e+05,2436,320
Raw,8.15321966e+05,2437,320
Raw,1.87529544e+06,2440,320
Raw,2.85278231e+05,2444,320
Raw,9.3218379e+05,2445,320
Raw,1.8463029e+06,2446,320
Raw,1.02490777e+06,2453,320
Raw,9.18339652e+05,2456,320
Raw,1.03345875e+06,2456,320
Raw,2.39074435e+05,2461,320
Raw,2.09696093e+06,2478,320
Raw,9.57122998e+05,2478,320
Raw,8.3111899e+05,2479,320
Raw,9.31973148e+05,2481,320
Raw,2.05407152e+05,2481,320
Raw,1.07749952e+06,2489,320
Raw,6.34772135e+05,2496,320
Raw,1.13848814e+06,2497,320
Raw,8.18301675e+05,2500,320
Raw,7.00406125e+05,2503,320
Raw,9.1368082e+05,2504,320
Raw,1.12025681e+06,2515,320
Raw,1.02490064e+06,2517,320
Raw,7.45417289e+05,2519,320
Raw,7.35869412e+05,2523,320
Raw,9.73725181e+05,2524,320
Raw,1.38479098e+06,2527,320
Raw,3.22582328e+05,2528,320
Raw,7.23657651e+05,2528,320
Raw,3.62281291e+05,2531,320
Raw,7.43268693e+05,2533,320
Raw,9.36518149e+05,2537,320
Raw,4.4169034e+05,2537,320
Raw,9.94185824e+05,2540,320
Raw,2.63816483e+05,2545,320
Raw,9.20948053e+05,2546,320
Raw,2.16068696e+06,2552,320
Raw,9.02660175e+05,2560,320
Raw,1.08309051e+06,2568,320
Raw,2.01788493e+06,2589,320
Raw,1.52743202e+06,2590,320
Raw,5.60409272e+05,2602,320
Raw,8.94739573e+05,2608,320
Raw,1.10598424e+06,2610,320
Raw,9.89481246e+05,2617,320
Raw,8.7398135e+05,2633,320
Raw,7.05834899e+05,2633,320
Raw,9.66490457e+05,2635,320
Raw,1.96418514e+06,2649,320
Raw,8.12140177e+05,2652,320
Raw,8.81928549e+05,2655,320
Raw,6.3476417e+05,2656,320
Raw,1.07343493e+06,2671,320
Raw,1.09409692e+06,2671,320
Raw,7.36336486e+05,2672,320
Raw,1.83000564e+06,2673,320
Raw,9.78818542e+05,2682,320
Raw,9.08253616e+05,2687,320
Raw,1.08135675e+06,2689,320
Raw,1.07724827e+06,2689,320
Raw,3.09114317e+05,2690,320
Raw,9.05083556e+05,2691,320
Raw,1.23983895e+06,2691,320
Raw,5.7866645e+05,2697,320
Raw,1.92075707e+06,2708,320
Raw,8.1094651e+05,2711,320
Raw,1.03205778e+06,2723,320
Raw,8.53566253e+05,2725,320
Raw,6.94235006e+05,2726,320
Raw,2.0687553e+06,2747,320
Raw,1.07413463e+06,2748,320
Raw,6.89207248e+05,2749,320
Raw,1.56089029e+06,2751,320
Raw,5.464747e+05,2756,320
Raw,1.72648479e+06,2758,320
Raw,3.13645875e+05,2761,320
Raw,8.95736102e+05,2761,320
Raw,3.86592395e+05,2766,320
Raw,1.01096315e+06,2767,320
Raw,5.90224035e+05,2767,320
Raw,1.03913541e+06,2773,320
Raw,8.94699578e+05,2776,320
Raw,9.97731386e+05,2779,320
Raw,1.4788307e+06,2783,320
Raw,1.03842102e+06,2783,320
Raw,5.34344331e+05,2785,320
Raw,1.95710257e+06,2787,320
Raw,1.05308357e+06,2793,320
Raw,1.88889674e+06,2807,320
Raw,7.52398838e+05,2812,320
Raw,1.58934631e+06,2813,320
Raw,5.21827693e+05,2813,320
Raw,5.10751135e+05,2815,320
Raw,1.05850253e+06,2818,320
Raw,9.53594338e+05,2819,320
Raw,2.29212077e+06,2829,320
Raw,8.19331582e+05,2837,320
Raw,5.62442517e+05,2848,320
Raw,8.86653651e+05,2850,320
Raw,4.43280977e+05,2855,320
Raw,2.00266291e+06,2858,320
Raw,8.63173457e+05,2860,320
Raw,9.53169644e+05,2866,320
Raw,26169.141,2867,320
Raw,7.91875119e+05,2871,320
Raw,1.08670151e+06,2882,320
Raw,9.04683127e+05,2883,320
Raw,9.34265483e+05,2886,320
Raw,1.04825406e+06,2909,320
Raw,9.23732979e+05,2910,320
Raw,1.54437079e+06,2911,320
Raw,1.07414461e+06,2916,320
Raw,1.9057189e+06,2918,320
Raw,1.08821185e+06,2925,320
Raw,7.38807e+05,2926,320
Raw,1.06882768e+06,2933,320
Raw,2.09310045e+06,2936,320
Raw,8.68292884e+05,2943,320
Raw,1.03021976e+06,2943,320
Raw,4.98789625e+05,2945,320
Raw,1.63481989e+06,2946,320
Raw,2.10781079e+06,2947,320
Raw,1.48116605e+06,2953,320
Raw,1.03792171e+06,2955,320
Raw,1.12832166e+06,2963,320
Raw,1.02988639e+06,2964,320
Raw,1.66079921e+06,2969,320
Raw,9.47718308e+05,2970,320
Raw,2.3563977e+05,2970,320
Raw,9.97804605e+05,2975,320
Raw,8.85309153e+05,2976,320
Raw,7.11599061e+05,2977,320
Raw,8.41576086e+05,2986,320
Raw,1.85309355e+06,2987,320
Raw,17015.669,2988,320
Raw,2.39109718e+06,2989,320
Raw,7.93936763e+05,2991,320
Raw,6.12241762e+05,2994,320
Raw,1.4140837e+06,3012,320
Raw,1.08034482e+06,3013,320
Raw,9.79664062e+05,3017,320
Raw,2.26204619e+05,3017,320
Raw,8.20123506e+05,3024,320
Raw,8.08175639e+05,3028,320
Raw,1.00888164e+06,3033,320
Raw,1.20140076e+06,3034,320
Raw,8.62557987e+05,3035,320
Raw,4.34637854e+05,3036,320
Raw,7.85767428e+05,3052,320
Raw,1.18470882e+06,3086,320
Raw,9.49723987e+05,3087,320
Raw,9.76841644e+05,3089,320
Raw,9.93350224e+05,3096,320
Raw,8.84602108e+05,3096,320
Raw,1.21449828e+06,3097,320
Raw,2.1834241e+06,3111,320
Raw,8.01007824e+05,3111,320
Raw,1.51270055e+06,3112,320
Raw,1.28330122e+06,3113,320
Raw,9.38949661e+05,3118,320
Raw,9.78625367e+05,3129,320
Raw,9.73168245e+05,3132,320
Raw,8.54615277e+05,3136,320
Raw,1.13020471e+06,3138,320
Raw,1.21534917e+06,3143,320
Raw,2.19625278e+06,3149,320
Raw,1.07636626e+06,3166,320
Raw,1.54736277e+06,3167,320
Raw,9.79360957e+05,3171,320
Raw,1.03288494e+06,3178,320
Raw,1.10186198e+06,3190,320
Raw,2.18357381e+06,3195,320
Raw,9.33550035e+05,3196,320
Raw,2.21385071e+06,3202,320
Raw,9.35914653e+05,3212,320
Raw,1.22063593e+06,3213,320
Raw,1.20847011e+06,3222,320
Raw,7.20230995e+05,3222,320
Raw,9.74768436e+05,3223,320
Raw,1.14777603e+06,3225,320
Raw,4.7241293e+05,3227,320
Raw,1.73341918e+06,3231,320
Raw,2.19577074e+06,3248,320
Raw,1.12646331e+06,3249,320
Raw,9.79547838e+05,3250,320
Raw,1.02706466e+06,3252,320
Raw,6.97393193e+05,3253,320
Raw,9.11253873e+05,3254,320
Raw,9.86905206e+05,3266,320
Raw,7.11338835e+05,3266,320
Raw,5.87254186e+05,3270,320
Raw,6.20456389e+05,3273,320
Raw,1.13065834e+06,3276,320
Raw,8.72397305e+05,3293,320
Raw,4.4613636e+05,3297,320
Raw,9.62332324e+05,3298,320
Raw,1.28408022e+06,3305,320
Raw,1.05615705e+06,3307,320
Raw,3.61770593e+05,3309,320
Raw,9.19239277e+05,3311,320
Raw,1.03873737e+06,3311,320
Raw,7.32981956e+05,3314,320
Raw,34420.593,3317,320
Raw,9.0298777e+05,3329,320
Raw,9.37125178e+05,3329,320
Raw,9.37321532e+05,3335,320
Raw,9.48240798e+05,3335,320
Raw,6.47772304e+05,3342,320
Raw,9.21366379e+05,3351,320
Raw,9.09843271e+05,3352,320
Raw,4.29879672e+05,3355,320
Raw,3.37926405e+05,3355,320
Raw,9.45997121e+05,3359,320
Raw,9.40525891e+05,3364,320
Raw,9.76128493e+05,3366,320
Raw,9.00205723e+05,3373,320
Raw,1.06986645e+06,3385,320
Raw,69641.355,3385,320
Raw,1.16066484e+06,3395,320
Raw,8.53021394e+05,3406,320
Raw,1.01095337e+06,3409,320
Raw,8.99344259e+05,3415,320
Raw,9.88521761e+05,3420,320
Raw,1.02956892e+06,3427,320
Raw,5.06835293e+05,3432,320
Raw,9.95222982e+05,3436,320
Raw,8.81253095e+05,3441,320
Raw,20490.583,3452,320
Raw,9.27392058e+05,3458,320
Raw,1.05806692e+06,3460,320
Raw,3.50025871e+05,3460,320
Raw,2.95787203e+05,3463,320
Raw,5.40759607e+05,3466,320
Raw,1.13150623e+06,3471,320
Raw,1.03914766e+06,3475,320
Raw,6.19387887e+05,3478,320
Raw,1.08689089e+06,3478,320
Raw,7.72455174e+05,3478,320
Raw,1.01729673e+06,3481,320
Raw,7.12717088e+05,3481,320
Raw,1.75279558e+06,3487,320
Raw,4.09573061e+05,3496,320
Raw,9.79008864e+05,3502,320
Raw,7.79479386e+05,3512,320
Raw,8.98538021e+05,3515,320
Raw,2.01571744e+06,3523,320
Raw,1.00302937e+06,3525,320
Raw,2.99700455e+05,3529,320
Raw,8.65153404e+05,3530,320
Raw,1.59928988e+06,3531,320
Raw,9.28153475e+05,3538,320
Raw,2.58266533e+05,3547,320
Raw,6.02111894e+05,3556,320
Raw,1.23094589e+06,3581,320
Raw,1.93144823e+06,3584,320
Raw,8.78979041e+05,3591,320
Raw,1.01691351e+06,3594,320
Raw,2.94558528e+05,3595,320
Raw,2.34141197e+05,3601,320
Raw,75152.768,3609,320
Raw,9.43197652e+05,3617,320
Raw,9.68401403e+05,3627,320
Raw,1.07244459e+06,3628,320
Raw,2.48883759e+05,3661,320
Raw,9.50469021e+05,3664,320
Raw,1.02763568e+06,3676,320
Raw,1.01451105e+06,3677,320
Raw,1.04861342e+06,3681,320
Raw,1.0376272e+06,3688,320
Raw,7.64551153e+05,3689,320
Raw,1.46768876e+06,3695,320
Raw,7.91378037e+05,3697,320
Raw,9.01158591e+05,3698,320
Raw,9.41495649e+05,3704,320
Raw,6.80447211e+05,3714,320
Raw,9.94359315e+05,3714,320
Raw,7.72848423e+05,3719,320
Raw,7.74436407e+05,3737,320
Raw,1.70638718e+06,3738,320
Raw,8.555651e+05,3740,320
Raw,9.99156318e+05,3741,320
Raw,4.2462257e+05,3742,320
Raw,6.66479199e+05,3743,320
Raw,1.01860126e+06,3750,320
Raw,1.05854709e+06,3772,320
Raw,2.03156101e+06,3777,320
Raw,6.01747587e+05,3781,320
Raw,6.89986676e+05,3794,320
Raw,1.94079817e+06,3801,320
Raw,9.71344936e+05,3804,320
Raw,9.61636745e+05,3807,320
Raw,3.40516454e+05,3807,320
Raw,9.83815755e+05,3821,320
Raw,6.46669642e+05,3821,320
Raw,1.90672466e+06,3836,320
Raw,2.48579715e+05,3850,320
Raw,2.06272758e+06,3854,320
Raw,1.87413415e+06,3867,320
Raw,9.41081574e+05,3871,320
Raw,9.72465817e+05,3882,320
Raw,2.37601431e+05,3882,320
Raw,4.62283693e+05,3891,320
Raw,1.01003944e+06,3902,320
Raw,1.01484398e+06,3906,320
Raw,1.41489586e+06,3913,320
Raw,1.0102507e+06,3916,320
Raw,7.1502792e+05,3927,320
Raw,8.04402747e+05,3931,320
Raw,28597.026,3932,320
Raw,9.80113777e+05,3934,320
Raw,5.34451746e+05,3945,320
Raw,74557.817,3945,320
Raw,9.96851032e+05,3946,320
Raw,5.93771058e+05,3950,320
Raw,2.10329646e+05,3951,320
Raw,1.07401721e+06,3952,320
Raw,9.76324454e+05,3954,320
Raw,1.01577578e+06,3955,320
Raw,9.05496989e+05,3961,320
Raw,1.09275678e+06,3977,320
Raw,1.1463069e+05,3987,320
Raw,1.94286868e+06,4003,320
Raw,9.32460079e+05,4014,320
Raw,3.29282876e+05,4014,320
Raw,1.70231129e+06,4016,320
Raw,9.89966984e+05,4022,320
Raw,1.83747682e+06,4025,320
Raw,9.16175409e+05,4029,320
Raw,1.07984609e+06,4045,320
Raw,8.65487961e+05,4049,320
Raw,7.05093954e+05,4050,320
Raw,8.38312192e+05,4054,320
Raw,9.90602161e+05,4060,320
Raw,9.72026607e+05,4063,320
Raw,9.46470963e+05,4065,320
Raw,1.20535039e+06,4066,320
Raw,4.98720791e+05,4073,320
Raw,3.52201542e+05,4073,320
Raw,79300.509,4082,320
Raw,7.86872365e+05,4094,320
Raw,1.07171845e+06,4097,320
Raw,1.04343828e+06,4103,320
Raw,9.88970799e+05,4105,320
Raw,1.18630384e+05,4119,320
Raw,1.02676646e+06,4140,320
Raw,6.77979912e+05,4146,320
Raw,9.45349486e+05,4148,320
Raw,7.96703845e+05,4158,320
Raw,9.97933357e+05,4159,320
Raw,5.77664443e+05,4160,320
Raw,6.64961013e+05,4162,320
Raw,6.35048012e+05,4165,320
Raw,1.01737155e+06,4209,320
Raw,1.06161402e+06,4211,320
Raw,6.85442563e+05,4224,320
Raw,9.64634386e+05,4248,320
Raw,8.8231513e+05,4261,320
Raw,1.03443824e+06,4284,320
Raw,1.07027105e+06,4285,320
Raw,1.19254977e+06,4288,320
Raw,9.35411227e+05,4293,320
Raw,1.24393328e+06,4295,320
Raw,6.85281861e+05,4304,320
Raw,9.84839247e+05,4307,320
Raw,5.5581264e+05,4307,320
Raw,8.40430605e+05,4317,320
Raw,9.28335104e+05,4324,320
Raw,9.61611997e+05,4324,320
Raw,1.52555973e+05,4328,320
Raw,4.89147436e+05,4334,320
Raw,2.05099183e+05,4336,320
Raw,1.09738061e+06,4347,320
Raw,5.51050815e+05,4348,320
Raw,1.01789209e+06,4349,320
Raw,8.48752266e+05,4351,320
Raw,8.93945099e+05,4352,320
Raw,1.03348623e+06,4356,320
Raw,8.21187799e+05,4356,320
Raw,1.51087165e+06,4361,320
Raw,9.25463456e+05,4362,320
Raw,6.96733957e+05,4367,320
Raw,1.16181674e+06,4367,320
Raw,8.33136251e+05,4377,320
Raw,1.79182244e+06,4388,320
Raw,8.42064798e+05,4412,320
Raw,1.2690876e+06,4432,320
Raw,9.33911463e+05,4442,320
Raw,8.97546522e+05,4444,320
Raw,9.55593011e+05,4444,320
Raw,1.17990318e+06,4452,320
Raw,1.00850486e+06,4452,320
Raw,1.45880243e+06,4453,320
Raw,9.75069883e+05,4459,320
Raw,9.27652293e+05,4460,320
Raw,4.28316394e+05,4464,320
Raw,2.35054844e+05,4467,320
Raw,8.24710967e+05,4479,320
Raw,1.15294647e+06,4494,320
Raw,1.24282901e+06,4496,320
Raw,92771.881,4502,320
Raw,1.585738e+05,4510,320
Raw,8.01637977e+05,4514,320
Raw,8.06346093e+05,4516,320
Raw,7.66902133e+05,4530,320
Raw,6.90365501e+05,4533,320
Raw,9.9894494e+05,4540,320
Raw,1.15016873e+06,4553,320
Raw,9.76963817e+05,4564,320
Raw,1.66163139e+06,4569,320
Raw,1.20398071e+06,4583,320
Raw,7.65499108e+05,4593,320
Raw,1.04794707e+06,4595,320
Raw,1.07999401e+06,4602,320
Raw,1.4140358e+05,4605,320
Raw,1.02164115e+06,4611,320
Raw,1.19182396e+06,4613,320
Raw,1.9530249e+05,4616,320
Raw,6.51969946e+05,4618,320
Raw,9.77029646e+05,4621,320
Raw,1.83083299e+06,4623,320
Raw,8.77134987e+05,4626,320
Raw,5.79006066e+05,4637,320
Raw,1.00557984e+06,4642,320
Raw,6.00274498e+05,4653,320
Raw,6.96288605e+05,4656,320
Raw,1.02277114e+06,4715,320
Raw,6.44805983e+05,4718,320
Raw,8.49884215e+05,4719,320
Raw,5.35844805e+05,4730,320
Raw,1.04022973e+06,4732,320
Raw,1.12020546e+06,4736,320
Raw,1.93172108e+06,4738,320
Raw,1.01106643e+06,4763,320
Raw,1.11852172e+06,4768,320
Raw,1.23569684e+06,4769,320
Raw,8.56604481e+05,4773,320
Raw,5.76819572e+05,4779,320
Raw,2.20112055e+05,4795,320
Raw,1.05435507e+06,4806,320
Raw,9.46353067e+05,4808,320
Raw,5.64139061e+05,4813,320
Raw,1.0324773e+06,4822,320
Raw,9.1817542e+05,4826,320
Raw,8.24283116e+05,4829,320
Raw,2.7888081e+05,4829,320
Raw,8.43346423e+05,4843,320
Raw,1.1199486e+06,4846,320
Raw,1.01626885e+06,4848,320
Raw,7.52560344e+05,4855,320
Raw,9.61736071e+05,4856,320
Raw,5.09752672e+05,4862,320
Raw,9.19642635e+05,4867,320
Raw,4.55209936e+05,4867,320
Raw,1.0313036e+06,4869,320
Raw,9.53015929e+05,4872,320
Raw,8.32246569e+05,4872,320
Raw,1.5534781e+06,4883,320
Raw,1.0750352e+06,4891,320
Raw,9.27993826e+05,4906,320
Raw,9.98873182e+05,4915,320
Raw,9.59490805e+05,4919,320
Raw,9.82042369e+05,4922,320
Raw,6.67624103e+05,4924,320
Raw,9.28991407e+05,4926,320
Raw,8.26081403e+05,4933,320
Raw,9.79897361e+05,4936,320
Raw,5.43179296e+05,4938,320
Raw,1.06472391e+06,4941,320
Raw,9.73105542e+05,4944,320
Raw,9.12284108e+05,4949,320
Raw,9.85304397e+05,4952,320
Raw,1.53402076e+06,4958,320
Raw,8.39622148e+05,4964,320
Raw,1.1826566e+06,4971,320
Raw,1.00874002e+06,4974,320
Raw,1.58556405e+06,4984,320
Raw,9.80322353e+05,4986,320
Raw,1.33839784e+06,4987,320
Raw,7.76036545e+05,4991,320
Raw,1.04969561e+06,4992,320
Raw,2.89305966e+05,4999,320
Raw,1.10879078e+06,5000,320
Raw,6.65023231e+05,5004,320
Raw,9.45509114e+05,5015,320
Raw,2.05662237e+06,5041,320
Raw,9.2311609e+05,5043,320
Raw,1.07030232e+06,5044,320
Raw,9.94807358e+05,5048,320
Raw,7.15541893e+05,5069,320
Raw,7.20183978e+05,5069,320
Raw,3.89168584e+05,5069,320
Raw,5.41334537e+05,5078,320
Raw,1.07040924e+06,5082,320
Raw,1.56738288e+06,5088,320
Raw,2.60247253e+05,5088,320
Raw,1.06230445e+06,5097,320
Raw,2.47475335e+05,5101,320
Raw,9.80068898e+05,5102,320
Raw,9.29317786e+05,5106,320
Raw,1.36375975e+06,5123,320
Raw,1.18257712e+06,5140,320
Raw,6.85473659e+05,5145,320
Raw,7.59473106e+05,5145,320
Raw,1.22497266e+06,5158,320
Raw,1.2012744e+06,5160,320
Raw,1.10142737e+06,5161,320
Raw,1.5947161e+05,5172,320
Raw,9.08027566e+05,5177,320
Raw,5.59656748e+05,5179,320
Raw,9.02685694e+05,5199,320
Raw,6.75029625e+05,5200,320
Raw,8.75815111e+05,5203,320
Raw,1.70308909e+06,5213,320
Raw,1.98230823e+06,5217,320
Raw,26749.083,5219,320
Raw,9.02238888e+05,5224,320
Raw,1.100985e+06,5225,320
Raw,1.09876538e+06,5233,320
Raw,8.69363016e+05,5239,320
Raw,5.21792581e+05,5240,320
Raw,6.49428763e+05,5251,320
Raw,9.7030674e+05,5252,320
Raw,1.65264152e+05,5261,320
Raw,2.60357546e+05,5282,320
Raw,9.36087567e+05,5288,320
Raw,1.08420521e+06,5293,320
Raw,1.05759185e+06,5297,320
Raw,9.72623573e+05,5300,320
Raw,8.12825579e+05,5301,320
Raw,1.99000116e+06,5307,320
Raw,1.06755285e+06,5317,320
Raw,1.02100918e+06,5318,320
Raw,9.00498456e+05,5335,320
Raw,2.09089396e+05,5335,320
Raw,2.16287675e+06,5353,320
Raw,2.15742678e+06,5362,320
Raw,9.60377488e+05,5363,320
Raw,1.10297864e+06,5366,320
Raw,6.34299432e+05,5383,320
Raw,1.02916776e+06,5387,320
Raw,1.08182694e+06,5391,320
Raw,1.79120075e+06,5397,320
Raw,1.02881017e+06,5403,320
Raw,6.41833904e+05,5406,320
Raw,9.27758229e+05,5407,320
Raw,2.85722564e+05,5416,320
Raw,9.00730121e+05,5417,320
Raw,8.04641345e+05,5418,320
Raw,2.4371501e+06,5423,320
Raw,1.99775427e+06,5429,320
Raw,1.04918595e+06,5431,320
Raw,6.75928782e+05,5444,320
Raw,8.72880292e+05,5448,320
Raw,8.11986398e+05,5455,320
Raw,1.04007775e+06,5458,320
Raw,1.09589292e+06,5459,320
Raw,1.55175215e+06,5464,320
Raw,1.88081647e+06,5472,320
Raw,1.03367423e+06,5487,320
Raw,6.2005209e+05,5491,320
Raw,9.85363535e+05,5501,320
Raw,9.84032463e+05,5507,320
Raw,8.66430977e+05,5513,320
Raw,1.07448021e+06,5517,320
Raw,1.02309902e+06,5518,320
Raw,1.04249844e+06,5522,320
Raw,1.00204865e+06,5532,320
Raw,1.02220292e+06,5546,320
Raw,1.11215429e+06,5558,320
Raw,3.33750037e+05,5563,320
Raw,6.26284445e+05,5581,320
Raw,1.07216052e+06,5592,320
Raw,9.76761758e+05,5601,320
Raw,9.35526072e+05,5610,320
Raw,1.67991142e+06,5630,320
Raw,9.80808211e+05,5634,320
Raw,9.76119777e+05,5637,320
Raw,1.99492244e+06,5644,320
Raw,8.73020557e+05,5649,320
Raw,1.8664172e+06,5660,320
Raw,9.81316021e+05,5684,320
Raw,6.63674851e+05,5686,320
Raw,29764.095,5686,320
Raw,1.1199516e+06,5688,320
Raw,1.0739512e+06,5739,320
Raw,1.92897131e+06,5750,320
Raw,8.27630592e+05,5755,320
Raw,9.87109762e+05,5756,320
Raw,9.44708208e+05,5758,320
Raw,5.69008558e+05,5760,320
Raw,1.07174465e+06,5768,320
Raw,9.81488205e+05,5782,320
Raw,6.67682887e+05,5784,320
Raw,9.81124858e+05,5787,320
Raw,9.56262014e+05,5791,320
Raw,1.03167942e+06,5807,320
Raw,1.05876135e+06,5817,320
Raw,9.85767982e+05,5840,320
Raw,9.03425104e+05,5846,320
Raw,1.9737502e+06,5850,320
Raw,7.88562415e+05,5858,320
Raw,6.22515999e+05,5877,320
Raw,9.37636733e+05,5882,320
Raw,6.17395485e+05,5884,320
Raw,1.07745282e+06,5897,320
Raw,97909.163,5902,320
Raw,1.01946447e+06,5904,320
Raw,4.93193053e+05,5947,320
Raw,1.06258906e+06,5965,320
Raw,5.05484214e+05,6009,320
Raw,1.30031379e+06,6009,320
Raw,2.00913231e+06,6012,320
Raw,9.62669408e+05,6019,320
Raw,1.7907429e+06,6031,320
Raw,6.61267166e+05,6034,320
Raw,7.89468453e+05,6039,320
Raw,8.48703956e+05,6064,320
Raw,7.86561582e+05,6065,320
Raw,7.45856906e+05,6067,320
Raw,9.13172932e+05,6110,320
Raw,54731.605,6122,320
Raw,6.42982133e+05,6126,320
Raw,1.00899162e+06,6142,320
Raw,9.9057375e+05,6147,320
Raw,9.02633738e+05,6150,320
Raw,1.05261536e+06,6151,320
Raw,8.13645758e+05,6155,320
Raw,8.24779536e+05,6156,320
Raw,1.09870809e+05,6171,320
Raw,1.08441509e+06,6182,320
Raw,1.06647253e+06,6186,320
Raw,1.16026558e+06,6201,320
Raw,9.55382073e+05,6214,320
Raw,6.33484742e+05,6217,320
Raw,1.02507698e+06,6223,320
Raw,5.03160451e+05,6237,320
Raw,9.59539469e+05,6256,320
Raw,6.63656609e+05,6264,320
Raw,3.4675492e+05,6265,320
Raw,9.65663334e+05,6273,320
Raw,6.94890461e+05,6274,320
Raw,4.57782302e+05,6288,320
Raw,1.00989234e+06,6289,320
Raw,1.0761766e+06,6289,320
Raw,1.02518617e+06,6292,320
Raw,3.79965169e+05,6302,320
Raw,8.74602313e+05,6303,320
Raw,1.07496711e+06,6308,320
Raw,9.98018267e+05,6310,320
Raw,2.00748151e+06,6331,320
Raw,4.20401048e+05,6335,320
Raw,9.43838238e+05,6337,320
Raw,5.04551361e+05,6342,320
Raw,1.07461769e+06,6346,320
Raw,9.67018671e+05,6355,320
Raw,1.28586051e+06,6357,320
Raw,2.14012662e+06,6358,320
Raw,1.0855904e+06,6363,320
Raw,7.04783229e+05,6367,320
Raw,9.54987961e+05,6368,320
Raw,9.91808497e+05,6374,320
Raw,2.92072799e+05,6380,320
Raw,6.52599618e+05,6381,320
Raw,1.115024e+06,6382,320
Raw,9.3036774e+05,6392,320
Raw,3.11058553e+05,6400,320
Raw,1.05650747e+06,6430,320
Raw,9.24668556e+05,6432,320
Raw,9.58373854e+05,6433,320
Raw,8.53582817e+05,6440,320
Raw,1.48667344e+06,6442,320
Raw,9.73762207e+05,6453,320
Raw,3.12827697e+05,6468,320
Raw,1.9113548e+05,6484,320
Raw,4.79400318e+05,6503,320
Raw,8.56785499e+05,6514,320
Raw,1.0836059e+06,6522,320
Raw,9.00272675e+05,6526,320
Raw,5.71068568e+05,6535,320
Raw,9.82479001e+05,6536,320
Raw,8.74794604e+05,6539,320
Raw,1.03138251e+06,6540,320
Raw,8.82873801e+05,6549,320
Raw,1.03549754e+05,6578,320
Raw,1.05962848e+06,6592,320
Raw,9.65080579e+05,6597,320
Raw,2.70431782e+05,6620,320
Raw,1.62177083e+06,6628,320
Raw,1.05432546e+06,6631,320
Raw,1.03361465e+06,6632,320
Raw,8.83330461e+05,6634,320
Raw,8.17857503e+05,6636,320
Raw,3.2512912e+05,6641,320
Raw,9.86993483e+05,6648,320
Raw,2.10440014e+05,6655,320
Raw,1.69998111e+06,6662,320
Raw,9.5424874e+05,6668,320
Raw,9.82075361e+05,6671,320
Raw,6.11365648e+05,6677,320
Raw,1.01062623e+06,6681,320
Raw,1.10139802e+06,6681,320
Raw,1.7243692e+06,6683,320
Raw,1.09237793e+06,6684,320
Raw,8.15198507e+05,6689,320
Raw,9.50737538e+05,6690,320
Raw,9.60495103e+05,6714,320
Raw,1.01624889e+06,6718,320
Raw,1.06985064e+06,6723,320
Raw,1.01030795e+06,6739,320
Raw,1.76840671e+06,6760,320
Raw,1.01065286e+06,6762,320
Raw,6.73568873e+05,6766,320
Raw,1.90391351e+06,6767,320
Raw,1.05503652e+06,6770,320
Raw,1.04757255e+06,6777,320
Raw,1.32182548e+05,6780,320
Raw,8.63293827e+05,6781,320
Raw,8.44812223e+05,6783,320
Raw,6.04925494e+05,6783,320
Raw,1.00705985e+06,6789,320
Raw,1.00695241e+06,6791,320
Raw,1.02549027e+06,6794,320
Raw,1.05355787e+06,6809,320
Raw,6.38595991e+05,6824,320
Raw,7.20698937e+05,6827,320
Raw,1.11684439e+06,6831,320
Raw,1.12138759e+06,6837,320
Raw,9.9702285e+05,6841,320
Raw,6.65926433e+05,6841,320
Raw,3.25304229e+05,6844,320
Raw,6.79155193e+05,6849,320
Raw,1.00338127e+06,6860,320
Raw,9.7753262e+05,6862,320
Raw,9.12248972e+05,6864,320
Raw,8.92078556e+05,6864,320
Raw,8.93351309e+05,6867,320
Raw,8.99096166e+05,6872,320
Raw,9.62898253e+05,6876,320
Raw,9.10339508e+05,6878,320
Raw,1.19806076e+06,6878,320
Raw,1.03943629e+06,6883,320
Raw,5.38775793e+05,6896,320
Raw,9.11571655e+05,6902,320
Raw,1.10281873e+06,6903,320
Raw,1.96414231e+06,6904,320
Raw,9.09759495e+05,6913,320
Raw,6.09363024e+05,6918,320
Raw,6.45238716e+05,6920,320
Raw,1.00960102e+06,6921,320
Raw,1.15527238e+06,6928,320
Raw,4.02470663e+05,6928,320
Raw,8.88539044e+05,6930,320
Raw,1.99094353e+06,6934,320
Raw,8.44464706e+05,6938,320
Raw,8.65371822e+05,6955,320
Raw,5.82788744e+05,6957,320
Raw,1.00763919e+06,6965,320
Raw,3.29301679e+05,6965,320
Raw,6.62376031e+05,6970,320
Raw,2.05788419e+06,6974,320
Raw,1.04017521e+06,6975,320
Raw,7.37336466e+05,6978,320
Raw,9.95608872e+05,6979,320
Raw,1.50636048e+06,6983,320
Raw,1.08058207e+06,6993,320
Raw,1.52517744e+06,6998,320
Raw,7.41882331e+05,7005,320
Raw,2.08811336e+06,7013,320
Raw,9.14644469e+05,7015,320
Raw,1.15567883e+06,7032,320
Raw,9.39566561e+05,7041,320
Raw,1.95322543e+06,7046,320
Raw,5.99564216e+05,7047,320
Raw,6.00093737e+05,7048,320
Raw,9.52146499e+05,7059,320
Raw,2.16207966e+06,7061,320
Raw,2.21895574e+06,7072,320
Raw,9.38235918e+05,7074,320
Raw,7.13265676e+05,7079,320
Raw,5.74052876e+05,7079,320
Raw,40920.747,7081,320
Raw,2.20672679e+06,7084,320
Raw,5.26821958e+05,7095,320
Raw,1.02957491e+06,7095,320
Raw,8.01570113e+05,7096,320
Raw,4.40131113e+05,7107,320
Raw,8.65385999e+05,7114,320
Raw,9.15280257e+05,7119,320
Raw,1.22491745e+06,7123,320
Raw,1.13143143e+06,7127,320
Raw,9.79143859e+05,7136,320
Raw,9.89753929e+05,7137,320
Raw,1.06887235e+06,7146,320
Raw,8.53830798e+05,7146,320
Raw,1.11209377e+06,7161,320
Raw,1.3538508e+06,7165,320
Raw,3.2705675e+05,7166,320
Raw,1.48332532e+06,7177,320
Raw,1.03065379e+06,7190,320
Raw,1.22773086e+06,7195,320
Raw,1.70581851e+06,7197,320
Raw,8.93087399e+05,7198,320
Raw,7.78698616e+05,7201,320
Raw,9.34054481e+05,7214,320
Raw,9.3393324e+05,7218,320
Raw,9.673312e+05,7219,320
Raw,1.22689125e+06,7221,320
Raw,9.75902628e+05,7223,320
Raw,8.37382298e+05,7233,320
Raw,9.95286808e+05,7237,320
Raw,4.04990876e+05,7238,320
Raw,1.54126559e+06,7242,320
Raw,1.52759428e+06,7247,320
Raw,5.12936532e+05,7255,320
Raw,1.04865048e+06,7258,320
Raw,1.05441951e+06,7268,320
Raw,1.4271573e+06,7272,320
Raw,8.61704823e+05,7285,320
Raw,1.99937002e+06,7287,320
Raw,8.86046517e+05,7291,320
Raw,2.02035741e+05,7295,320
Raw,8.93127101e+05,7303,320
Raw,6.44903447e+05,7305,320
Raw,9.56581898e+05,7307,320
Raw,6.64988102e+05,7313,320
Raw,7.16000365e+05,7318,320
Raw,8.14042056e+05,7323,320
Raw,4.63889538e+05,7333,320
Raw,2.89098763e+05,7333,320
Raw,1.09226692e+06,7334,320
Raw,1.05973495e+06,7336,320
Raw,1.95012491e+06,7342,320
Raw,1.08092442e+06,7347,320
Raw,6.87763305e+05,7348,320
Raw,9.51110515e+05,7350,320
Raw,1.08399715e+06,7355,320
Raw,8.92128374e+05,7357,320
Raw,1.93654919e+06,7367,320
Raw,9.6101464e+05,7368,320
Raw,8.3874913e+05,7370,320
Raw,1.90196021e+06,7376,320
Raw,1.99532276e+06,7386,320
Raw,9.03626779e+05,7388,320
Raw,6.65365733e+05,7388,320
Raw,9.14676045e+05,7390,320
Raw,6.93278202e+05,7393,320
Raw,9.71678019e+05,7401,320
Raw,5.48835294e+05,7401,320
Raw,5.96360925e+05,7405,320
Raw,9.01076261e+05,7416,320
Raw,1.05287402e+06,7420,320
Raw,8.63618567e+05,7440,320
Raw,1.55490825e+06,7445,320
Raw,8.35240868e+05,7452,320
Raw,1.37462486e+06,7453,320
Raw,8.55092496e+05,7454,320
Raw,1.42740728e+06,7458,320
Raw,8.79231189e+05,7459,320
Raw,8.48718662e+05,7460,320
Raw,9.72721152e+05,7464,320
Raw,1.52845911e+06,7469,320
Raw,1.8185637e+06,7470,320
Raw,9.78997218e+05,7472,320
Raw,9.17148331e+05,7473,320
Raw,1.11844641e+06,7486,320
Raw,20691.682,7486,320
Raw,8.33518623e+05,7487,320
Raw,6.96114615e+05,7492,320
Raw,2.10427812e+06,7496,320
Raw,7.87534421e+05,7497,320
Raw,8.18309403e+05,7497,320
Raw,69373.977,7502,320
Raw,1.00462955e+06,7514,320
Raw,1.01036851e+06,7515,320
Raw,1.91325093e+06,7521,320
Raw,8.20023378e+05,7535,320
Raw,5.08428536e+05,7546,320
Raw,8.80410247e+05,7548,320
Raw,1.01382052e+06,7552,320
Raw,8.89241368e+05,7555,320
Raw,2.72504775e+05,7559,320
Raw,7.04170089e+05,7560,320
Raw,9.9932021e+05,7560,320
Raw,9.06594135e+05,7569,320
Raw,9.47096725e+05,7570,320
Raw,8.68548018e+05,7579,320
Raw,3.86075462e+05,7583,320
Raw,4.16054604e+05,7592,320
Raw,1.93872459e+06,7598,320
Raw,5.75473084e+05,7607,320
Raw,8.37091343e+05,7612,320
Raw,8.78205614e+05,7616,320
Raw,9.15372907e+05,7617,320
Raw,2.50216986e+06,7619,320
Raw,8.78687525e+05,7620,320
Raw,6.68605888e+05,7621,320
Raw,6.51591963e+05,7624,320
Raw,1.19328672e+05,7645,320
Raw,6.97841771e+05,7649,320
Raw,1.0362972e+06,7655,320
Raw,1.10297033e+06,7659,320
Raw,3.45912804e+05,7660,320
Raw,1.91808209e+06,7668,320
Raw,9.23022916e+05,7678,320
Raw,6.14836585e+05,7683,320
Raw,6.33457256e+05,7684,320
Raw,5.28669023e+05,7692,320
Raw,4.91603817e+05,7701,320
Raw,9.32205314e+05,7703,320
Raw,1.1430426e+06,7727,320
Raw,9.94923209e+05,7739,320
Raw,9.86095685e+05,7761,320
Raw,1.15171845e+06,7765,320
Raw,8.77849882e+05,7768,320
Raw,1.02244225e+06,7770,320
Raw,8.336739e+05,7771,320
Raw,6.37912901e+05,7772,320
Raw,9.23465703e+05,7778,320
Raw,1.15431459e+06,7779,320
Raw,8.89128106e+05,7785,320
Raw,8.98504016e+05,7800,320
Raw,1.03101191e+06,7801,320
Raw,61761.45,7813,320
Raw,8.73195583e+05,7816,320
Raw,4.30016261e+05,7817,320
Raw,3.15620051e+05,7824,320
Raw,2.64811436e+06,7828,320
Raw,1.02448564e+06,7835,320
Raw,1.20575152e+06,7839,320
Raw,9.81243035e+05,7841,320
Raw,9.24050222e+05,7843,320
Raw,7.08913715e+05,7843,320
Raw,8.92027467e+05,7845,320
Raw,1.86071114e+06,7846,320
Raw,1.18684207e+06,7849,320
Raw,8.44381163e+05,7857,320
Raw,5.33323676e+05,7861,320
Raw,9.578984e+05,7862,320
Raw,7.82132154e+05,7863,320
Raw,9.85517083e+05,7865,320
Raw,8.13144663e+05,7872,320
Raw,9.54936329e+05,7886,320
Raw,8.84804087e+05,7888,320
Raw,4.99709912e+05,7888,320
Raw,3.80485573e+05,7888,320
Raw,7.55564026e+05,7893,320
Raw,4.49669919e+05,7898,320
Raw,7553.3891,7898,320
Raw,1.06094448e+06,7907,320
Raw,2.47245348e+06,7914,320
Raw,1.14994887e+06,7919,320
Raw,9.71878556e+05,7921,320
Raw,1.00261295e+06,7945,320
Raw,2.7109105e+06,7952,320
Raw,1.08583667e+06,7957,320
Raw,8.44717765e+05,7963,320
Raw,8.67461861e+05,7964,320
Raw,1.69878547e+06,7967,320
Raw,5.85529543e+05,7972,320
Raw,6711.4829,7972,320
Raw,9.92797228e+05,7974,320
Raw,2.46095391e+06,7977,320
Raw,1.18685495e+06,7984,320
Raw,1.30468404e+06,7984,320
Raw,1.01361666e+06,7998,320
Raw,8.22822971e+05,8001,320
Raw,9.20678865e+05,8013,320
Raw,8.50125372e+05,8015,320
Raw,6.03137783e+05,8020,320
Raw,1.81447094e+06,8027,320
Raw,8.46593539e+05,8031,320
Raw,8.98990595e+05,8032,320
Raw,8.67839967e+05,8054,320
Raw,1.91840282e+06,8061,320
Raw,1.65348094e+06,8087,320
Raw,1.03162004e+06,8089,320
Raw,76525.953,8092,320
Raw,5.40679971e+05,8110,320
Raw,1.80004554e+06,8125,320
Raw,7.96335397e+05,8129,320
Raw,8.30369813e+05,8136,320
Raw,9.70390169e+05,8142,320
Raw,4.93497602e+05,8155,320
Raw,1.71477716e+06,8158,320
Raw,8.7876122e+05,8158,320
Raw,1.0310434e+06,8166,320
Raw,1.01104449e+06,8183,320
Raw,5.73461119e+05,8183,320
Raw,4.08693174e+05,8189,320
Raw,9.96361296e+05,8195,320
Raw,1.58398278e+06,8212,320
Raw,9.27570964e+05,8214,320
Raw,8.84219679e+05,8214,320
Raw,9.56314757e+05,8220,320
Raw,8.94567624e+05,8228,320
Raw,8.40400789e+05,8231,320
Raw,1.03939931e+05,8236,320
Raw,4.89730978e+05,8239,320
Raw,8.30287829e+05,8248,320
Raw,9.91498389e+05,8248,320
Raw,53889.759,8269,320
Raw,1.54294778e+06,8270,320
Raw,1.55887347e+06,8274,320
Raw,1.0774294e+06,8281,320
Raw,4.87760971e+05,8284,320
Raw,9.46161114e+05,8288,320
Raw,1.4519438e+06,8294,320
Raw,7.39806565e+05,8301,320
Raw,1.06102439e+06,8310,320
Raw,5.90752857e+05,8316,320
Raw,7.2126412e+05,8323,320
Raw,1.00818969e+06,8327,320
Raw,8.47383199e+05,8329,320
Raw,8.30895802e+05,8344,320
Raw,1.02804011e+06,8361,320
Raw,9.93016404e+05,8362,320
Raw,1.72482919e+06,8362,320
Raw,8.14250346e+05,8365,320
Raw,2.49105416e+06,8377,320
Raw,1.61419273e+06,8391,320
Raw,1.04545724e+06,8399,320
Raw,1.80674213e+06,8404,320
Raw,8.55246165e+05,8407,320
Raw,8.51888577e+05,8412,320
Raw,8.24711185e+05,8414,320
Raw,8.92691801e+05,8421,320
Raw,1.13715073e+06,8423,320
Raw,3.89362356e+05,8427,320
Raw,8.68320497e+05,8441,320
Raw,1.0239873e+06,8443,320
Raw,9.80293298e+05,8450,320
Raw,6.50753886e+05,8460,320
Raw,8.38704544e+05,8474,320
Raw,7.34159342e+05,8474,320
Raw,2.38289222e+06,8476,320
Raw,1.57980878e+06,8477,320
Raw,1.95193471e+06,8480,320
Raw,8.16739761e+05,8481,320
Raw,9.17258666e+05,8493,320
Raw,8.19480538e+05,8494,320
Raw,2.18853279e+05,8499,320
Raw,9.66809212e+05,8515,320
Raw,8.6881683e+05,8522,320
Raw,1.17758933e+06,8530,320
Raw,3.86597745e+05,8536,320
Raw,1.11534555e+06,8542,320
Raw,1.22262733e+06,8544,320
Raw,2.43532171e+05,8558,320
Raw,8.73769113e+05,8559,320
Raw,7.09694606e+05,8561,320
Raw,8.28020363e+05,8562,320
Raw,1.74499447e+06,8565,320
Raw,9.56534414e+05,8579,320
Raw,8.93660235e+05,8580,320
Raw,9.38313965e+05,8586,320
Raw,8.75279213e+05,8592,320
Raw,8.61504004e+05,8600,320
Raw,9.80363754e+05,8617,320
Raw,6.29163384e+05,8637,320
Raw,1.51752702e+06,8643,320
Raw,6.3722304e+05,8643,320
Raw,9.00579674e+05,8647,320
Raw,9.74054271e+05,8651,320
Raw,3.82846136e+05,8663,320
Raw,9.58248465e+05,8665,320
Raw,7.81447212e+05,8666,320
Raw,5.11291697e+05,8673,320
Raw,3.44709345e+05,8673,320
Raw,2.99405727e+05,8675,320
Raw,1.8033616e+06,8694,320
Raw,1.02670918e+06,8696,320
Raw,1.34229115e+06,8710,320
Raw,9.09891888e+05,8714,320
Raw,6.86581367e+05,8715,320
Raw,9.85167959e+05,8725,320
Raw,8.2984011e+05,8731,320
Raw,9.10993384e+05,8733,320
Raw,8.1767953e+05,8738,320
Raw,9.35607902e+05,8742,320
Raw,8.08179552e+05,8760,320
Raw,8.98547842e+05,8764,320
Raw,8.25501268e+05,8765,320
Raw,1.07182484e+06,8766,320
Raw,9.43635345e+05,8768,320
Raw,7.57301971e+05,8793,320
Raw,3.71558295e+05,8805,320
Raw,7.84074954e+05,8818,320
Raw,1.22914932e+06,8825,320
Raw,7.48850032e+05,8825,320
Raw,1.00534775e+06,8833,320
Raw,8.51571535e+05,8837,320
Raw,4.85589747e+05,8838,320
Raw,7.54123329e+05,8845,320
Raw,6.37505159e+05,8845,320
Raw,4.90827324e+05,8848,320
Raw,1.69898285e+05,8857,320
Raw,9.15524121e+05,8864,320
Raw,7.85010436e+05,8864,320
Raw,1.96330893e+05,8864,320
Raw,5.89130389e+05,8867,320
Raw,8.77601517e+05,8876,320
Raw,6.90244048e+05,8877,320
Raw,1.03145068e+06,8883,320
Raw,8.05592963e+05,8889,320
Raw,7.26998737e+05,8900,320
Raw,8.91517037e+05,8901,320
Raw,34649.783,8901,320
Raw,8.75133993e+05,8914,320
Raw,6.38987427e+05,8914,320
Raw,4.07303348e+05,8914,320
Raw,9.08150148e+05,8934,320
Raw,6.20932305e+05,8935,320
Raw,77556.025,8939,320
Raw,6.76279272e+05,8940,320
Raw,9.68874843e+05,8945,320
Raw,4.99862214e+05,8947,320
Raw,9.81412819e+05,8948,320
Raw,7.87356375e+05,8952,320
Raw,6.51700637e+05,8952,320
Raw,1.71143096e+06,8954,320
Raw,6.48496401e+05,8956,320
Raw,8.57902021e+05,8973,320
Raw,9.12745787e+05,8978,320
Raw,8.84336232e+05,8995,320
Raw,6.74739618e+05,9000,320
Raw,9.36072851e+05,9003,320
Raw,9.94548598e+05,9006,320
Raw,5.48587436e+05,9007,320
Raw,7.39625535e+05,9007,320
Raw,7.77169608e+05,9012,320
Raw,8.55004553e+05,9014,320
Raw,1.935524e+06,9016,320
Raw,9.68685076e+05,9032,320
Raw,6.34783671e+05,9032,320
Raw,7.92296317e+05,9044,320
Raw,6.03942632e+05,9045,320
Raw,8.53479855e+05,9048,320
Raw,9.92324157e+05,9050,320
Raw,7.4417428e+05,9062,320
Raw,9.08717759e+05,9069,320
Raw,1.10003614e+06,9072,320
Raw,9.0744703e+05,9077,320
Raw,8.44881857e+05,9078,320
Raw,9.5726303e+05,9081,320
Raw,9.14914653e+05,9084,320
Raw,7.99448371e+05,9088,320
Raw,9.91900933e+05,9094,320
Raw,1.02671063e+06,9112,320
Raw,3.13480768e+05,9114,320
Raw,2.39305793e+06,9114,320
Raw,9.10583433e+05,9116,320
Raw,1.3956262e+06,9116,320
Raw,1.12707937e+06,9116,320
Raw,7.40746804e+05,9138,320
Raw,6.51278771e+05,9139,320
Raw,5.9551522e+05,9140,320
Raw,24177.765,9144,320
Raw,1.62205114e+06,9147,320
Raw,1.33586264e+05,9150,320
Raw,1.75238048e+06,9156,320
Raw,8.31076501e+05,9181,320
Raw,5.93776892e+05,9181,320
Raw,8.46058248e+05,9182,320
Raw,9.57747791e+05,9182,320
Raw,1.08154625e+06,9187,320
Raw,5.07800536e+05,9187,320
Raw,9.03223094e+05,9196,320
Raw,8.05918427e+05,9201,320
Raw,8.96980051e+05,9217,320
Raw,6.05207176e+05,9222,320
Raw,7.58839283e+05,9226,320
Raw,8.76091382e+05,9228,320
Raw,9.38332683e+05,9230,320
Raw,6.20562195e+05,9231,320
Raw,1.71326466e+05,9234,320
Raw,6.83223361e+05,9244,320
Raw,1.68255522e+06,9247,320
Raw,1.71341385e+06,9253,320
Raw,1.75763342e+06,9256,320
Raw,1.6132491e+06,9264,320
Raw,10094.816,9270,320
Raw,4.59696899e+05,9270,320
Raw,7.15602425e+05,9277,320
Raw,1.16563277e+05,9295,320
Raw,8.63785961e+05,9298,320
Raw,8.85637571e+05,9299,320
Raw,5.98710342e+05,9305,320
Raw,1.83331422e+06,9316,320
Raw,2.0898563e+06,9327,320
Raw,9597.4969,9334,320
Raw,8.623889e+05,9338,320
Raw,1.42360286e+06,9341,320
Raw,9.64893229e+05,9345,320
Raw,5.61336241e+05,9347,320
Raw,7.33799214e+05,9347,320
Raw,5.32556036e+05,9349,320
Raw,18041.129,9352,320
Raw,9736.1706,9352,320
Raw,4.6615885e+05,9358,320
Raw,9.98286001e+05,9366,320
Raw,1.02237175e+06,9367,320
Raw,1.06125741e+06,9367,320
Raw,9.08947144e+05,9378,320
Raw,6.40814851e+05,9384,320
Raw,7.27543603e+05,9386,320
Raw,1.4061607e+06,9388,320
Raw,8.08239881e+05,9393,320
Raw,80931.117,9397,320
Raw,1.04480182e+06,9406,320
Raw,4.00606766e+05,9406,320
Raw,7.88908975e+05,9410,320
Raw,8.66311446e+05,9416,320
Raw,1.86395519e+06,9426,320
Raw,7.34326526e+05,9433,320
Raw,1.30706875e+06,9436,320
Raw,7.2471715e+05,9444,320
Raw,1.45349723e+06,9451,320
Raw,3.17988477e+05,9451,320
Raw,4.83913013e+05,9454,320
Raw,65994.845,9454,320
Raw,9.07040623e+05,9455,320
Raw,5.77496724e+05,9455,320
Raw,3.80077044e+05,9455,320
Raw,4.30280164e+05,9460,320
Raw,7.33635351e+05,9479,320
Raw,6.84716462e+05,9497,320
Raw,9.02406592e+05,9510,320
Raw,6.2536906e+05,9511,320
Raw,8.71674944e+05,9513,320
Raw,9.16155208e+05,9519,320
Raw,8.95902202e+05,9520,320
Raw,9.12996566e+05,9527,320
Raw,1.00699973e+06,9528,320
Raw,7.30756548e+05,9538,320
Raw,9.46144222e+05,9555,320
Raw,5.45984183e+05,9555,320
Raw,1.72369036e+06,9557,320
Raw,2.87774854e+05,9557,320
Raw,5.53933264e+05,9559,320
Raw,7.38776921e+05,9563,320
Raw,7.05120463e+05,9563,320
Raw,1.85853707e+06,9580,320
Raw,6.78601262e+05,9587,320
Raw,1.06308284e+06,9588,320
Raw,9.19079887e+05,9590,320
Raw,1.42241465e+06,9596,320
Raw,2.3313111e+06,9602,320
Raw,9.15198292e+05,9603,320
Raw,8.33644345e+05,9614,320
Raw,7.95683226e+05,9618,320
Raw,8.82867713e+05,9637,320
Raw,1.73367216e+06,9645,320
Raw,5.70449257e+05,9645,320
Raw,7.73632945e+05,9655,320
Raw,7.86173555e+05,9661,320
Raw,8.54282711e+05,9667,320
Raw,1.0665129e+06,9674,320
Raw,8.2794007e+05,9679,320
Raw,9.50390829e+05,9682,320
Raw,5.99446028e+05,9699,320
Raw,8.84199037e+05,9707,320
Raw,8.04920928e+05,9709,320
Raw,5.94725665e+05,9720,320
Raw,9.77865114e+05,9720,320
Raw,4.65217176e+05,9724,320
Raw,7.5139513e+05,9726,320
Raw,8.88967213e+05,9737,320
Raw,7.50947292e+05,9739,320
Raw,8.44292114e+05,9751,320
Raw,7.07900288e+05,9761,320
Raw,9.37561166e+05,9770,320
Raw,1.19335767e+06,9773,320
Raw,1.57367042e+06,9782,320
Raw,1.50944463e+05,9789,320
Raw,1.00534764e+06,9790,320
Raw,2.59859151e+06,9791,320
Raw,9.42817275e+05,9794,320
Raw,2.29863409e+06,9802,320
Raw,9.12021899e+05,9806,320
Raw,7.95935521e+05,9808,320
Raw,1.36850801e+06,9830,320
Raw,9.34770414e+05,9832,320
Raw,9.13330296e+05,9838,320
Raw,8.76925189e+05,9839,320
Raw,1.12840312e+06,9839,320
Raw,8.31028206e+05,9864,320
Raw,9.5275109e+05,9906,320
Raw,7.9801717e+05,9912,320
Raw,5.6979264e+05,9912,320
Raw,8.98979539e+05,9918,320
Raw,8.77350508e+05,9930,320
Raw,1.71707842e+05,9937,320
Raw,5.52488043e+05,9942,320
Raw,8.89136321e+05,9948,320
Raw,9.67868813e+05,9951,320
Raw,6.43464251e+05,9954,320
Raw,6.87295608e+05,9960,320
Raw,8.5623892e+05,9976,320
Raw,3.50270401e+05,9986,320
Raw,8.65365487e+05,10003,320
Raw,8.82796529e+05,10012,320
Raw,6.02563344e+05,10014,320
Raw,8.40368343e+05,10019,320
Raw,9.22805336e+05,10019,320
Raw,9.23320415e+05,10037,320
Raw,5.02728642e+05,10037,320
Raw,3.2622698e+05,10044,320
Raw,9.23521781e+05,10054,320
Raw,5.26179997e+05,10055,320
Raw,6.00855787e+05,10065,320
Raw,7.83914247e+05,10067,320
Raw,2.76104069e+05,10072,320
Raw,9.27175494e+05,10088,320
Raw,3.45810854e+05,10090,320
Raw,5.20467164e+05,10098,320
Raw,4.83244844e+05,10098,320
Raw,8.52091963e+05,10107,320
Raw,6.04837316e+05,10107,320
Raw,1.07455215e+06,10119,320
Raw,7.50714544e+05,10140,320
Raw,8.82504574e+05,10143,320
Raw,8.36989633e+05,10150,320
Raw,1.27802768e+05,10159,320
Raw,8.21888481e+05,10162,320
Raw,6.32580704e+05,10174,320
Raw,1.92665899e+06,10179,320
Raw,5.64770457e+05,10189,320
Raw,1.40476808e+06,10202,320
Raw,7.29028926e+05,10204,320
Raw,5.43728673e+05,10206,320
Raw,3.18732518e+05,10208,320
Raw,9.20640825e+05,10217,320
Raw,5.8846267e+05,10222,320
Raw,1.00795293e+06,10231,320
Raw,1.34934763e+05,10233,320
Raw,7.72017984e+05,10239,320
Raw,3.17358281e+05,10239,320
Raw,1.59434042e+06,10240,320
Raw,8.40425093e+05,10243,320
Raw,7.73012285e+05,10248,320
Raw,8.46072008e+05,10262,320
Raw,3.05762863e+05,10267,320
Raw,8.83142217e+05,10268,320
Raw,8.93340014e+05,10271,320
Raw,9.33011075e+05,10277,320
Raw,8.26844019e+05,10281,320
Raw,9.2556002e+05,10286,320
Raw,9.33454421e+05,10288,320
Raw,8.09875701e+05,10289,320
Raw,6.19046127e+05,10294,320
Raw,1.22416803e+06,10298,320
Raw,8.05315189e+05,10311,320
Raw,7.93668674e+05,10322,320
Raw,7.93028689e+05,10323,320
Raw,1.68605363e+06,10327,320
Raw,5.50799773e+05,10328,320
Raw,8.93817756e+05,10329,320
Raw,4.84129836e+05,10333,320
Raw,2.51279228e+05,10337,320
Raw,9.3969338e+05,10398,320
Raw,1.13173026e+06,10399,320
Raw,1.22347115e+05,10404,320
Raw,8.0817583e+05,10406,320
Raw,1.30999115e+06,10406,320
Raw,1.85194562e+06,10417,320
Raw,8.82133926e+05,10420,320
Raw,7.61943801e+05,10452,320
Raw,6.1473276e+05,10453,320
Raw,8.79164083e+05,10467,320
Raw,8.54502149e+05,10470,320
Raw,9.70291702e+05,10473,320
Raw,8.95707765e+05,10489,320
Raw,1.57209676e+06,10500,320
Raw,7.30625332e+05,10501,320
Raw,1.81999504e+06,10502,320
Raw,8.23670477e+05,10510,320
Raw,9.16807607e+05,10516,320
Raw,5.6953748e+05,10525,320
Raw,8.52452342e+05,10534,320
Raw,1.05011572e+06,10537,320
Raw,9.94600806e+05,10539,320
Raw,6.9846829e+05,10540,320
Raw,9.24569884e+05,10546,320
Raw,6.9039153e+05,10547,320
Raw,6.86449175e+05,10555,320
Raw,1.62937361e+06,10574,320
Raw,2.23022192e+05,10574,320
Raw,9.66079459e+05,10591,320
Raw,8.32481699e+05,10603,320
Raw,8.17565356e+05,10614,320
Raw,8.4216611e+05,10616,320
Raw,1.2924829e+06,10617,320
Raw,9.8991316e+05,10621,320
Raw,8.75664644e+05,10623,320
Raw,6.71007913e+05,10624,320
Raw,9.85156289e+05,10633,320
Raw,8.33258796e+05,10635,320
Raw,8.86602415e+05,10680,320
Raw,7.95307495e+05,10681,320
Raw,8.30381405e+05,10689,320
Raw,8.46927951e+05,10695,320
Raw,1.45859676e+06,10710,320
Raw,5.8434022e+05,10712,320
Raw,5.08397176e+05,10720,320
Raw,7.90480816e+05,10724,320
Raw,9.91337569e+05,10729,320
Raw,5.86648513e+05,10735,320
Raw,1.0579508e+06,10742,320
Raw,8.86816338e+05,10755,320
Raw,8.03884331e+05,10756,320
Raw,1.66691439e+06,10758,320
Raw,7.60245361e+05,10760,320
Raw,1.51635622e+06,10764,320
Raw,8.07405052e+05,10769,320
Raw,8.62126236e+05,10770,320
Raw,1.43099982e+06,10771,320
Raw,5.54593361e+05,10779,320
Raw,8.67539753e+05,10782,320
Raw,1.67567175e+06,10814,320
Raw,9.36166696e+05,10820,320
Raw,1.02004518e+06,10829,320
Raw,3.71868008e+05,10829,320
Raw,1.88245734e+06,10836,320
Raw,1.30258987e+05,10840,320
Raw,7.792428e+05,10844,320
Raw,8.52926437e+05,10850,320
Raw,1.73365628e+05,10860,320
Raw,6.0673902e+05,10902,320
Raw,8.57393952e+05,10909,320
Raw,6.6433877e+05,10910,320
Raw,8.27559468e+05,10919,320
Raw,1.67697696e+06,10929,320
Raw,7.71965564e+05,10931,320
Raw,4.34308326e+05,10935,320
Raw,7.17803145e+05,10938,320
Raw,9.30509352e+05,10948,320
Raw,9.53976472e+05,10952,320
Raw,8.46571787e+05,10952,320
Raw,1.02415454e+06,10960,320
Raw,9.42508018e+05,10964,320
Raw,4.60480979e+05,10977,320
Raw,5.80300271e+05,10986,320
Raw,9.4405924e+05,10987,320
Raw,7.18441904e+05,10996,320
Raw,8.1214984e+05,10996,320
Raw,1.98580318e+05,11000,320
Raw,8.55751013e+05,11001,320
Raw,9.47875953e+05,11003,320
Raw,6.89107918e+05,11010,320
Raw,1.38841217e+06,11026,320
Raw,4.45527223e+05,11038,320
Raw,6.19816719e+05,11043,320
Raw,7.69102192e+05,11058,320
Raw,6.57841975e+05,11061,320
Raw,9.70158329e+05,11077,320
Raw,6.92136023e+05,11083,320
Raw,1.02808651e+05,11118,320
Raw,7.78665054e+05,11121,320
Raw,8.84010226e+05,11123,320
Raw,4.81262661e+05,11137,320
Raw,7.62783342e+05,11182,320
Raw,1.49488043e+06,11185,320
Raw,5.72038493e+05,11207,320
Raw,1.02252474e+06,11223,320
Raw,7.46041472e+05,11227,320
Raw,7.66347326e+05,11229,320
Raw,4.95331172e+05,11235,320
Raw,8.8725925e+05,11243,320
Raw,8.47545929e+05,11280,320
Raw,1.05091717e+06,11286,320
Raw,59176.87,11286,320
Raw,8.9505368e+05,11295,320
Raw,5.46108519e+05,11322,320
Raw,8.04497434e+05,11326,320
Raw,8.4866537e+05,11334,320
Raw,8.57389082e+05,11335,320
Raw,5.62951056e+05,11335,320
Raw,9.6295158e+05,11336,320
Raw,9.07062497e+05,11340,320
Raw,1.10337816e+06,11341,320
Raw,7.88878772e+05,11345,320
Raw,4.42341557e+05,11349,320
Raw,3.20275956e+05,11351,320
Raw,4.71807404e+05,11359,320
Raw,8.96964758e+05,11369,320
Raw,7.62714164e+05,11374,320
Raw,8.37188569e+05,11376,320
Raw,1.01235648e+06,11378,320
Raw,8.22800729e+05,11385,320
Raw,8.57630299e+05,11386,320
Raw,9.31635358e+05,11389,320
Raw,1.57565655e+06,11414,320
Raw,8.14769095e+05,11417,320
Raw,1.8423545e+06,11431,320
Raw,5.49700098e+05,11437,320
Raw,1.41630616e+05,11447,320
Raw,9.17305381e+05,11449,320
Raw,3.17379191e+05,11452,320
Raw,1.03117357e+06,11459,320
Raw,7.0419926e+05,11470,320
Raw,9.54839447e+05,11476,320
Raw,7.15273035e+05,11491,320
Raw,2.08626718e+05,11501,320
Raw,8.70353949e+05,11503,320
Raw,8.35680963e+05,11507,320
Raw,9.43467112e+05,11513,320
Raw,18901.801,11513,320
Raw,7.46050257e+05,11520,320
Raw,6.85461905e+05,11524,320
Raw,8.48028101e+05,11540,320
Raw,8.7911941e+05,11545,320
Raw,5.07004701e+05,11548,320
Raw,7.83856676e+05,11564,320
Raw,8.83031835e+05,11566,320
Raw,1.01207922e+06,11567,320
Raw,8.78729396e+05,11570,320
Raw,1.01414302e+06,11572,320
Raw,4.44439262e+05,11572,320
Raw,4.02693321e+05,11578,320
Raw,1.69489016e+06,11581,320
Raw,4.3804253e+05,11581,320
Raw,8.18453378e+05,11585,320
Raw,7.16100728e+05,11588,320
Raw,7.93492428e+05,11592,320
Raw,8.04981731e+05,11604,320
Raw,7.8212411e+05,11607,320
Raw,8.12894021e+05,11608,320
Raw,1.29816897e+06,11609,320
Raw,1.70290623e+06,11618,320
Raw,9.27604764e+05,11621,320
Raw,3.27398507e+05,11622,320
Raw,6.6123282e+05,11626,320
Raw,7.63886084e+05,11637,320
Raw,4.15654208e+05,11644,320
Raw,8.34286264e+05,11647,320
Raw,9.08669261e+05,11651,320
Raw,2.71337895e+05,11674,320
Raw,7.34535721e+05,11682,320
Raw,7.04545922e+05,11683,320
Raw,8.60261586e+05,11689,320
Raw,3.59197749e+05,11718,320
Raw,8.8045163e+05,11719,320
Raw,7.85796901e+05,11721,320
Raw,8.89852505e+05,11722,320
Raw,9.31235233e+05,11723,320
Raw,1.71293323e+06,11729,320
Raw,9.0209349e+05,11734,320
Raw,5.02608138e+05,11737,320
Raw,9.66750197e+05,11739,320
Raw,1.07012518e+06,11745,320
Raw,6.02624275e+05,11747,320
Raw,5.05125659e+05,11749,320
Raw,8.08947905e+05,11751,320
Raw,7.75749486e+05,11752,320
Raw,4.20516593e+05,11760,320
Raw,4.58593845e+05,11764,320
Raw,8.29065889e+05,11765,320
Raw,2.37019821e+05,11767,320
Raw,9.54318875e+05,11781,320
Raw,5.80732533e+05,11794,320
Raw,6.8571327e+05,11797,320
Raw,8.4442314e+05,11799,320
Raw,9.72340418e+05,11802,320
Raw,3.61241873e+05,11808,320
Raw,1.55238702e+06,11811,320
Raw,1.79295558e+06,11813,320
Raw,1.01455601e+06,11817,320
Raw,2.67701376e+05,11819,320
Raw,8.23235049e+05,11826,320
Raw,8.75540048e+05,11835,320
Raw,1.78135173e+06,11843,320
Raw,9.22772062e+05,11845,320
Raw,3.27302123e+05,11845,320
Raw,1.86921477e+06,11857,320
Raw,9.3964112e+05,11866,320
Raw,7.42681242e+05,11866,320
Raw,2.30634471e+06,11871,320
Raw,8.31769833e+05,11871,320
Raw,1.35645431e+06,11872,320
Raw,8.82440452e+05,11874,320
Raw,9.72519155e+05,11874,320
Raw,9.21103278e+05,11877,320
Raw,1.08788865e+06,11881,320
Raw,7.88460683e+05,11885,320
Raw,5.26976983e+05,11887,320
Raw,1.75380383e+06,11888,320
Raw,1.44274978e+06,11897,320
Raw,5.22189434e+05,11901,320
Raw,1.99059356e+05,11911,320
Raw,7.9442006e+05,11917,320
Raw,1.08909239e+06,11923,320
Raw,5.91485377e+05,11947,320
Raw,7.67797683e+05,11949,320
Raw,5.61139228e+05,11969,320
Raw,6.06824138e+05,11969,320
Raw,5.75398931e+05,11989,320
Raw,7.10216083e+05,11993,320
Raw,7.87624379e+05,12001,320
Raw,7.20876132e+05,12004,320
Raw,7.78508761e+05,12016,320
Raw,8.68631601e+05,12019,320
Raw,4.38405895e+05,12020,320
Raw,1.77964566e+06,12025,320
Raw,6.80930137e+05,12035,320
Raw,2.11146666e+06,12041,320
Raw,1.66704734e+06,12043,320
Raw,2.59905796e+05,12046,320
Raw,1.59707205e+06,12055,320
Raw,7.74056852e+05,12056,320
Raw,8.56779764e+05,12063,320
Raw,8.64164016e+05,12089,320
Raw,8.35299462e+05,12090,320
Raw,9.64001161e+05,12093,320
Raw,1.47143625e+06,12094,320
Raw,7.55303873e+05,12104,320
Raw,7.70448091e+05,12111,320
Raw,1.1028331e+06,12119,320
Raw,6.67511468e+05,12122,320
Raw,1.02462855e+06,12127,320
Raw,9.22362085e+05,12130,320
Raw,1.06646828e+06,12131,320
Raw,7.86937979e+05,12133,320
Raw,1.04655725e+06,12135,320
Raw,7.06023699e+05,12136,320
Raw,7.80264291e+05,12137,320
Raw,9.17803961e+05,12151,320
Raw,8.87854776e+05,12154,320
Raw,9.40024069e+05,12155,320
Raw,1.77730857e+06,12156,320
Raw,4.14985969e+05,12156,320
Raw,1.00590549e+06,12173,320
Raw,9.84802808e+05,12186,320
