Cut?,Counts,eventNumber,runNumber
Raw,6.2218647e+05,0,319
Raw,9.74831339e+05,2,319
Raw,8.2953603e+05,3,319
Raw,5.80813009e+05,4,319
Raw,9.35673503e+05,5,319
Raw,8.59883101e+05,6,319
Raw,9.67290393e+05,7,319
Raw,1.04198059e+06,8,319
Raw,9.87134762e+05,9,319
Raw,9.53924956e+05,10,319
Raw,8.51647816e+05,11,319
Raw,1.04786213e+06,12,319
Raw,9.08907843e+05,13,319
Raw,4.99461571e+05,14,319
Raw,9.84455201e+05,15,319
Raw,7.78992603e+05,16,319
Raw,9.94219945e+05,17,319
Raw,7.77445878e+05,18,319
Raw,9.22030514e+05,19,319
Raw,7.43999916e+05,21,319
Raw,6.95920448e+05,23,319
Raw,8.64605789e+05,24,319
Raw,8.78600632e+05,25,319
Raw,4.73920037e+05,26,319
Raw,9.1868185e+05,27,319
Raw,9.9103889e+05,28,319
Raw,9.36824856e+05,29,319
Raw,2.78494836e+05,30,319
Raw,1.0386692e+06,31,319
Raw,6.70011783e+05,32,319
Raw,1.04040696e+06,34,319
Raw,7.64940166e+05,35,319
Raw,1.02722179e+06,36,319
Raw,7.01725541e+05,37,319
Raw,9.67714577e+05,38,319
Raw,1.10800087e+06,39,319
Raw,1.05399904e+06,40,319
Raw,9.89994441e+05,41,319
Raw,8.78313182e+05,42,319
Raw,7.33410983e+05,42,319
Raw,7.81826624e+05,43,319
Raw,3.07510848e+05,44,319
Raw,9.35577316e+05,45,319
Raw,5.70175651e+05,46,319
Raw,9.4105546e+05,47,319
Raw,9.64622353e+05,48,319
Raw,1.01650737e+06,49,319
Raw,8.71667733e+05,51,319
Raw,9.06704745e+05,52,319
Raw,3.1929484e+05,53,319
Raw,7.28131158e+05,54,319
Raw,1.00058807e+06,55,319
Raw,8.81563007e+05,56,319
Raw,1.09287618e+06,57,319
Raw,3.47264332e+05,58,319
Raw,6.72054797e+05,60,319
Raw,1.28966197e+06,61,319
Raw,8.28818459e+05,62,319
Raw,3.62938882e+05,63,319
Raw,1.57131428e+06,64,319
Raw,2.02199996e+06,64,319
Raw,9.47129114e+05,66,319
Raw,8.41254163e+05,68,319
Raw,1.11470815e+06,69,319
Raw,6.22780003e+05,70,319
Raw,3.94677459e+05,71,319
Raw,8.60090726e+05,72,319
Raw,1.05060054e+06,73,319
Raw,6.19549644e+05,74,319
Raw,1.00426307e+06,75,319
Raw,1.02983618e+06,76,319
Raw,7.58472529e+05,77,319
Raw,1.81035119e+05,77,319
Raw,9.56148269e+05,79,319
Raw,1.48396578e+06,80,319
Raw,1.17071138e+05,80,319
Raw,1.02806954e+06,81,319
Raw,9.74755255e+05,82,319
Raw,4.25397811e+05,83,319
Raw,1.11895293e+06,84,319
Raw,9.20178643e+05,85,319
Raw,1.07292003e+06,86,319
Raw,9.50534808e+05,87,319
Raw,4.93855891e+05,88,319
Raw,9.2052309e+05,89,319
Raw,9.93831959e+05,90,319
Raw,9.04680534e+05,91,319
Raw,7.93801671e+05,92,319
Raw,9.61449413e+05,93,319
Raw,9.98516669e+05,94,319
Raw,8.2271353e+05,95,319
Raw,9.72515254e+05,96,319
Raw,6.91207318e+05,98,319
Raw,9.23328565e+05,99,319
Raw,1.3060074e+06,100,319
Raw,8.76219567e+05,101,319
Raw,1.03064102e+06,102,319
Raw,8.6913423e+05,103,319
Raw,1.03869426e+06,104,319
Raw,9.36685718e+05,105,319
Raw,7.43128298e+05,106,319
Raw,1.01048614e+06,107,319
Raw,9.17448775e+05,108,319
Raw,1.06765211e+06,109,319
Raw,5.85932609e+05,110,319
Raw,4.85307315e+05,111,319
Raw,8.74244779e+05,112,319
Raw,6.47688933e+05,113,319
Raw,7.20987778e+05,114,319
Raw,7.8492454e+05,115,319
Raw,1.00354398e+06,116,319
Raw,9.07859599e+05,117,319
Raw,6.53270606e+05,118,319
Raw,5.85974354e+05,119,319
Raw,8.73447052e+05,120,319
Raw,1.05096527e+06,121,319
Raw,9.82926555e+05,122,319
Raw,9.09837943e+05,123,319
Raw,9.76457613e+05,124,319
Raw,1.0957976e+06,125,319
Raw,1.0345943e+06,126,319
Raw,6.90671524e+05,127,319
Raw,9.69974631e+05,128,319
Raw,9.00993205e+05,129,319
Raw,9.26335297e+05,130,319
Raw,1.07764044e+06,131,319
Raw,6.60444653e+05,132,319
Raw,1.09641841e+06,134,319
Raw,8.79331343e+05,135,319
Raw,9.19021443e+05,136,319
Raw,8.63435063e+05,137,319
Raw,5.97211204e+05,138,319
Raw,9.43862645e+05,139,319
Raw,7.1711485e+05,140,319
Raw,8.92353296e+05,142,319
Raw,9.32978872e+05,143,319
Raw,8.48247176e+05,144,319
Raw,9.38707264e+05,145,319
Raw,3.18060521e+05,147,319
Raw,9.66193953e+05,148,319
Raw,5.72062883e+05,149,319
Raw,8.54647438e+05,150,319
Raw,6.39431095e+05,151,319
Raw,1.04682709e+06,152,319
Raw,1.08076964e+05,153,319
Raw,1.00959843e+06,154,319
Raw,7.2185814e+05,154,319
Raw,9.52375617e+05,155,319
Raw,1.0260762e+06,156,319
Raw,7.51882649e+05,157,319
Raw,9.5836673e+05,159,319
Raw,8.2037873e+05,160,319
Raw,8.58177251e+05,161,319
Raw,4.69544678e+05,162,319
Raw,8.87305184e+05,163,319
Raw,7.032479e+05,164,319
Raw,8.37222244e+05,165,319
Raw,6.80603284e+05,166,319
Raw,1.05527446e+06,167,319
Raw,1.17983452e+06,168,319
Raw,9.2093248e+05,169,319
Raw,8.40735018e+05,170,319
Raw,9.71481059e+05,171,319
Raw,2.33079118e+05,172,319
Raw,9.21109842e+05,173,319
Raw,8.80548897e+05,174,319
Raw,9.15420823e+05,175,319
Raw,6.2572468e+05,176,319
Raw,9.80449275e+05,177,319
Raw,1.08953771e+06,178,319
Raw,1.07834883e+06,179,319
Raw,5.60993851e+05,180,319
Raw,6.1293897e+05,181,319
Raw,31937.28,181,319
Raw,7.99874896e+05,182,319
Raw,9.61090787e+05,183,319
Raw,7.72751561e+05,184,319
Raw,5.59202189e+05,185,319
Raw,8.02830711e+05,186,319
Raw,1.00259161e+06,187,319
Raw,7.58532409e+05,188,319
Raw,9.15241748e+05,189,319
Raw,5.31138206e+05,190,319
Raw,40009.605,190,319
Raw,1.06033923e+06,191,319
Raw,8.86207154e+05,194,319
Raw,1.0423392e+06,195,319
Raw,9.71514476e+05,196,319
Raw,8.52395004e+05,197,319
Raw,8.98012018e+05,198,319
Raw,9.2027464e+05,199,319
Raw,9.31367013e+05,201,319
Raw,8.98329679e+05,202,319
Raw,7.87647515e+05,203,319
Raw,1.03871405e+06,204,319
Raw,9.58932747e+05,205,319
Raw,1.05440555e+06,206,319
Raw,1.02381776e+06,207,319
Raw,1.08837562e+06,208,319
Raw,1.19778596e+06,209,319
Raw,5.88349659e+05,210,319
Raw,1.0179173e+06,211,319
Raw,8.07189715e+05,212,319
Raw,9.18664112e+05,213,319
Raw,8.38812936e+05,214,319
Raw,1.03302481e+06,215,319
Raw,6.57945745e+05,216,319
Raw,4.29310451e+05,217,319
Raw,1.24712361e+06,218,319
Raw,6.06960708e+05,219,319
Raw,1.53459687e+05,220,319
Raw,9.36022542e+05,221,319
Raw,9.68431657e+05,222,319
Raw,9.86550328e+05,223,319
Raw,9.37611088e+05,224,319
Raw,5.89367923e+05,225,319
Raw,1.09304308e+06,226,319
Raw,2.02110824e+05,227,319
Raw,8.19426157e+05,230,319
Raw,1.02418016e+06,231,319
Raw,1.00994963e+06,232,319
Raw,8.43148256e+05,233,319
Raw,1.00938848e+06,234,319
Raw,3.94029596e+05,235,319
Raw,9.12606045e+05,236,319
Raw,1.06878096e+06,237,319
Raw,1.00393051e+06,238,319
Raw,9.94466265e+05,239,319
Raw,1.056248e+06,240,319
Raw,8.68219667e+05,241,319
Raw,1.02148107e+06,242,319
Raw,8.75777189e+05,243,319
Raw,9.36954292e+05,244,319
Raw,9.56088648e+05,245,319
Raw,3.01393431e+05,246,319
Raw,9.11809022e+05,247,319
Raw,7.19208776e+05,248,319
Raw,6.28453239e+05,249,319
Raw,1.04224695e+06,250,319
Raw,1.18499571e+06,251,319
Raw,8.84371871e+05,252,319
Raw,9.13155359e+05,253,319
Raw,1.0550233e+06,254,319
Raw,7.71803484e+05,255,319
Raw,9.56859572e+05,256,319
Raw,1.7373728e+05,257,319
Raw,9.08965234e+05,258,319
Raw,8.82998046e+05,259,319
Raw,9.32420969e+05,260,319
Raw,5.56963562e+05,261,319
Raw,1.04651385e+06,262,319
Raw,8.58725723e+05,263,319
Raw,7.25098027e+05,264,319
Raw,8.77443781e+05,265,319
Raw,1.07547042e+06,266,319
Raw,8.177707e+05,267,319
Raw,1.0254837e+06,268,319
Raw,9.74319984e+05,269,319
Raw,6.93848607e+05,270,319
Raw,9.69190712e+05,271,319
Raw,1.12276934e+06,272,319
Raw,9.33195968e+05,273,319
Raw,4.03558816e+05,274,319
Raw,1.00141806e+06,276,319
Raw,9.70552823e+05,277,319
Raw,8.9947503e+05,278,319
Raw,18187.228,278,319
Raw,8.38491866e+05,279,319
Raw,9.39104346e+05,280,319
Raw,7.97206019e+05,281,319
Raw,5.78921018e+05,282,319
Raw,9.87433716e+05,283,319
Raw,1.28432107e+06,284,319
Raw,9.7068349e+05,285,319
Raw,1.18626364e+06,286,319
Raw,1.06773199e+06,287,319
Raw,1.00836337e+06,288,319
Raw,8.49731046e+05,289,319
Raw,1.0496939e+06,290,319
Raw,4.59537584e+05,291,319
Raw,1.06825698e+06,292,319
Raw,9.64797465e+05,293,319
Raw,4.43063711e+05,294,319
Raw,4.76144807e+05,295,319
Raw,9.31297119e+05,296,319
Raw,7.54152872e+05,297,319
Raw,9.68026948e+05,298,319
Raw,2.9566299e+05,299,319
Raw,9.58234525e+05,300,319
Raw,1.09070741e+06,301,319
Raw,6.24237466e+05,302,319
Raw,8.09674895e+05,303,319
Raw,6.13850917e+05,304,319
Raw,1.20397792e+06,305,319
Raw,1.08627216e+06,306,319
Raw,1.18235152e+06,307,319
Raw,1.00058967e+06,308,319
Raw,7.65289975e+05,309,319
Raw,9.38823277e+05,310,319
Raw,8.92769191e+05,311,319
Raw,9.19768797e+05,312,319
Raw,3.86649243e+05,313,319
Raw,1.089847e+06,314,319
Raw,1.08750995e+06,315,319
Raw,5.28899265e+05,316,319
Raw,1.05356518e+06,317,319
Raw,9.02970559e+05,318,319
Raw,2.2218777e+05,319,319
Raw,9.01039608e+05,320,319
Raw,9.75004911e+05,321,319
Raw,9.41004002e+05,322,319
Raw,6.9355447e+05,323,319
Raw,6.62035504e+05,324,319
Raw,8.55512308e+05,325,319
Raw,1.13278974e+06,326,319
Raw,9.71065335e+05,327,319
Raw,1.00618967e+06,328,319
Raw,9.76967044e+05,329,319
Raw,9.77887251e+05,330,319
Raw,8.35342828e+05,331,319
Raw,8.74125384e+05,332,319
Raw,9.95043955e+05,333,319
Raw,1.06970859e+06,334,319
Raw,7.43393237e+05,335,319
Raw,7.02520146e+05,336,319
Raw,9.82706169e+05,337,319
Raw,8.02651211e+05,338,319
Raw,9.29577858e+05,339,319
Raw,1.11866731e+06,340,319
Raw,9.96206398e+05,341,319
Raw,5.01367493e+05,342,319
Raw,5.91457607e+05,343,319
Raw,3.59295685e+05,344,319
Raw,9.26093574e+05,345,319
Raw,8.06681043e+05,346,319
Raw,1.08852448e+06,347,319
Raw,1.34185102e+06,348,319
Raw,8.57359078e+05,349,319
Raw,5.88103535e+05,350,319
Raw,5.72522115e+05,351,319
Raw,5.87036459e+05,352,319
Raw,1.00265976e+06,353,319
Raw,9.82550428e+05,354,319
Raw,7.70415632e+05,355,319
Raw,3.83588878e+05,356,319
Raw,4.58431457e+05,357,319
Raw,9.60702193e+05,358,319
Raw,1.13255685e+06,359,319
Raw,9.17888859e+05,360,319
Raw,8.57511957e+05,361,319
Raw,9.9627193e+05,362,319
Raw,4.86268576e+05,363,319
Raw,8.89274874e+05,364,319
Raw,4.84491575e+05,365,319
Raw,1.01104796e+05,367,319
Raw,8.00996937e+05,368,319
Raw,4.34805953e+05,369,319
Raw,9.32504906e+05,370,319
Raw,5.87859886e+05,371,319
Raw,9.90896484e+05,372,319
Raw,3.0492218e+05,373,319
Raw,3.35829538e+05,374,319
Raw,9.87893708e+05,375,319
Raw,1.00435958e+06,376,319
Raw,9.43840935e+05,377,319
Raw,1.13510739e+06,378,319
Raw,1.00151017e+06,379,319
Raw,9.18162874e+05,380,319
Raw,5.87965665e+05,381,319
Raw,8.38625555e+05,382,319
Raw,1.02339763e+06,383,319
Raw,9.31079147e+05,384,319
Raw,4.21907949e+05,385,319
Raw,1.04921977e+06,386,319
Raw,1.730696e+05,387,319
Raw,9.27068895e+05,388,319
Raw,1.28479222e+05,389,319
Raw,9.19281662e+05,390,319
Raw,1.00746588e+06,391,319
Raw,8.86913352e+05,392,319
Raw,1.9765728e+06,393,319
Raw,7.95217637e+05,394,319
Raw,9.21130943e+05,395,319
Raw,2.06842991e+06,396,319
Raw,1.01132502e+06,397,319
Raw,1.19768828e+06,398,319
Raw,9.25311672e+05,399,319
Raw,8.71630478e+05,400,319
Raw,6.70460285e+05,401,319
Raw,1.00398448e+06,402,319
Raw,5.47215695e+05,404,319
Raw,3.13585431e+05,404,319
Raw,9.96571353e+05,405,319
Raw,1.02850617e+06,406,319
Raw,2.48951126e+05,407,319
Raw,9.43082462e+05,408,319
Raw,1.02947457e+06,409,319
Raw,6.44159728e+05,410,319
Raw,8.12438466e+05,411,319
Raw,9.81130658e+05,412,319
Raw,8.74780707e+05,413,319
Raw,1.02797225e+06,414,319
Raw,9.58265232e+05,415,319
Raw,8.3683536e+05,416,319
Raw,2.68961211e+05,417,319
Raw,9.7178568e+05,419,319
Raw,1.04952669e+06,420,319
Raw,1.07366705e+06,421,319
Raw,9.118752e+05,422,319
Raw,7.42449085e+05,423,319
Raw,6.94642995e+05,424,319
Raw,1.05883776e+06,425,319
Raw,9.40880597e+05,426,319
Raw,6.2101401e+05,427,319
Raw,9.07680472e+05,428,319
Raw,2.87562083e+05,429,319
Raw,9.11117871e+05,430,319
Raw,9.97584946e+05,431,319
Raw,6.46173316e+05,432,319
Raw,8.55953311e+05,433,319
Raw,9.133542e+05,434,319
Raw,1.08642731e+06,435,319
Raw,1.08479165e+05,436,319
Raw,9.33622069e+05,436,319
Raw,7.88464715e+05,437,319
Raw,1.02652126e+06,438,319
Raw,1.05423941e+06,439,319
Raw,6.37339533e+05,440,319
Raw,9.8544161e+05,441,319
Raw,9.96516734e+05,442,319
Raw,9.27354837e+05,443,319
Raw,1.2258058e+06,444,319
Raw,8.61614961e+05,445,319
Raw,6.05144956e+05,446,319
Raw,8.59127755e+05,447,319
Raw,9.20502926e+05,448,319
Raw,9.29030039e+05,449,319
Raw,1.07373249e+06,450,319
Raw,1.71530906e+06,451,319
Raw,6.6298262e+05,451,319
Raw,9.02938199e+05,452,319
Raw,9.84085672e+05,453,319
Raw,6.03146898e+05,454,319
Raw,1.01425659e+06,455,319
Raw,1.06163098e+06,456,319
Raw,9.59544365e+05,457,319
Raw,1.09330636e+06,458,319
Raw,9.95009238e+05,459,319
Raw,8.34718317e+05,460,319
Raw,1.07377146e+06,461,319
Raw,9.04986216e+05,462,319
Raw,9.04775642e+05,463,319
Raw,5.30103802e+05,464,319
Raw,8.72508342e+05,465,319
Raw,4.96449261e+05,466,319
Raw,8.2488364e+05,467,319
Raw,1.02144307e+06,468,319
Raw,6.25094544e+05,469,319
Raw,8.35551278e+05,470,319
Raw,9.72007614e+05,471,319
Raw,8.31783401e+05,472,319
Raw,1.03267636e+06,473,319
Raw,1.02607728e+06,475,319
Raw,6.53311173e+05,476,319
Raw,16789.554,476,319
Raw,1.50478767e+05,477,319
Raw,1.07615685e+06,478,319
Raw,9.51810616e+05,479,319
Raw,8.75029258e+05,480,319
Raw,9.97639906e+05,481,319
Raw,1.05059289e+06,482,319
Raw,26977.299,483,319
Raw,2.05244684e+05,483,319
Raw,3.89425672e+05,484,319
Raw,5.85342363e+05,485,319
Raw,4.71526074e+05,486,319
Raw,8.15378736e+05,487,319
Raw,1.11170694e+06,488,319
Raw,6.01663833e+05,489,319
Raw,9.61132561e+05,490,319
Raw,1.67237003e+06,491,319
Raw,1.07895843e+06,492,319
Raw,5.56023061e+05,493,319
Raw,8.94915602e+05,494,319
Raw,7.22201234e+05,495,319
Raw,8.67616254e+05,497,319
Raw,5.56814916e+05,498,319
Raw,1.2191226e+05,499,319
Raw,3.62824912e+05,500,319
Raw,9.3524927e+05,501,319
Raw,8.57160211e+05,502,319
Raw,1.07891618e+06,503,319
Raw,1.07704314e+06,504,319
Raw,2.97299237e+05,505,319
Raw,5.54297218e+05,506,319
Raw,1.06436571e+06,507,319
Raw,8.05254959e+05,509,319
Raw,7.46688067e+05,510,319
Raw,9.50895749e+05,512,319
Raw,5.43763575e+05,513,319
Raw,9.84630526e+05,514,319
Raw,1.09208325e+06,515,319
Raw,9.87707783e+05,516,319
Raw,8.95483341e+05,517,319
Raw,9.56581008e+05,518,319
Raw,6.73919953e+05,519,319
Raw,4.55452302e+05,520,319
Raw,1.10535179e+06,521,319
Raw,5.39346289e+05,522,319
Raw,1.01067934e+06,523,319
Raw,5.32806061e+05,524,319
Raw,9.39537659e+05,525,319
Raw,8.76653415e+05,526,319
Raw,9.21163955e+05,527,319
Raw,9.68134024e+05,528,319
Raw,1.05140179e+06,529,319
Raw,8.51607346e+05,530,319
Raw,1.11780125e+06,531,319
Raw,9.83569692e+05,532,319
Raw,7.61393384e+05,533,319
Raw,9.32785226e+05,534,319
Raw,8.95905529e+05,535,319
Raw,6.97303408e+05,536,319
Raw,1.78927541e+06,536,319
Raw,8.65940028e+05,537,319
Raw,9.29994733e+05,538,319
Raw,8.62403459e+05,539,319
Raw,1.02176334e+06,540,319
Raw,2.15125921e+06,541,319
Raw,7.04979824e+05,542,319
Raw,9.70788622e+05,543,319
Raw,1.02496233e+06,544,319
Raw,1.35399671e+05,546,319
Raw,3.23381754e+05,546,319
Raw,8.66710218e+05,547,319
Raw,1.0415634e+06,548,319
Raw,9.08972451e+05,549,319
Raw,8.12910539e+05,550,319
Raw,9.47666176e+05,551,319
Raw,5.55344538e+05,552,319
Raw,9.22976624e+05,553,319
Raw,8.06011551e+05,554,319
Raw,8.38575044e+05,555,319
Raw,8.27619859e+05,556,319
Raw,5.97040646e+05,557,319
Raw,5.8331958e+05,558,319
Raw,5874.2597,558,319
Raw,8.98287701e+05,559,319
Raw,1.52070898e+05,560,319
Raw,9.65445737e+05,561,319
Raw,1.0108966e+06,562,319
Raw,6.74877356e+05,563,319
Raw,5.2708854e+05,564,319
Raw,3.60473004e+05,565,319
Raw,9.61546843e+05,566,319
Raw,5.3564308e+05,567,319
Raw,9.59959912e+05,568,319
Raw,1.06161197e+06,569,319
Raw,25779.1,569,319
Raw,9.41413292e+05,570,319
Raw,1.02746453e+06,571,319
Raw,9.80845161e+05,572,319
Raw,9.86434692e+05,573,319
Raw,9.84624457e+05,574,319
Raw,8.05900577e+05,575,319
Raw,5.83963895e+05,576,319
Raw,7.21735453e+05,577,319
Raw,9.79191002e+05,578,319
Raw,1.03064732e+06,579,319
Raw,1.0546209e+06,580,319
Raw,64763.598,580,319
Raw,8.22838575e+05,581,319
Raw,9.44310916e+05,582,319
Raw,3.06614827e+05,583,319
Raw,2.22638781e+05,584,319
Raw,9241.1906,584,319
Raw,6.0832995e+05,585,319
Raw,8.72080739e+05,586,319
Raw,1.04165253e+06,587,319
Raw,1.01025144e+06,588,319
Raw,9.77668925e+05,589,319
Raw,8.5861472e+05,590,319
Raw,6.16638292e+05,594,319
Raw,5.44354055e+05,595,319
Raw,2.8878901e+05,596,319
Raw,8.4565144e+05,597,319
Raw,8.85938924e+05,598,319
Raw,7.98670126e+05,599,319
Raw,8.54039485e+05,600,319
Raw,6.0575147e+05,601,319
Raw,9.80181452e+05,602,319
Raw,7.64439902e+05,603,319
Raw,6.14376885e+05,604,319
Raw,9.86161634e+05,605,319
Raw,9.22989749e+05,606,319
Raw,9.13597726e+05,607,319
Raw,9.14786732e+05,608,319
Raw,6.59706838e+05,609,319
Raw,9.64960892e+05,610,319
Raw,9.71676975e+05,611,319
Raw,6.50779917e+05,612,319
Raw,8.75788326e+05,613,319
Raw,6.32571006e+05,614,319
Raw,9.14297639e+05,615,319
Raw,8.62815365e+05,616,319
Raw,4.24283013e+05,617,319
Raw,9.76295234e+05,618,319
Raw,1.0456535e+06,619,319
Raw,1.23765607e+06,620,319
Raw,9.49805978e+05,621,319
Raw,9.25638268e+05,622,319
Raw,1.09687857e+06,623,319
Raw,1.04573223e+06,624,319
Raw,9.70717767e+05,625,319
Raw,8.78525787e+05,626,319
Raw,1.00708054e+06,627,319
Raw,9.70084754e+05,628,319
Raw,7.02276818e+05,629,319
Raw,1.10628774e+06,630,319
Raw,8.63634787e+05,631,319
Raw,5.13616624e+05,632,319
Raw,5.85179722e+05,633,319
Raw,1.02382283e+06,634,319
Raw,6.49350738e+05,635,319
Raw,8.71447181e+05,636,319
Raw,7.68018113e+05,637,319
Raw,1.02548829e+06,638,319
Raw,8.46307282e+05,639,319
Raw,1.13071719e+06,640,319
Raw,4.52510649e+05,641,319
Raw,9.44101998e+05,642,319
Raw,5.96432163e+05,643,319
Raw,5.60292823e+05,644,319
Raw,7.12467223e+05,645,319
Raw,1.00258576e+06,646,319
Raw,9.10106021e+05,647,319
Raw,1.04325539e+06,649,319
Raw,4.51001836e+05,650,319
Raw,3.56840943e+05,650,319
Raw,8.37877351e+05,651,319
Raw,9.35917545e+05,652,319
Raw,9.19084261e+05,653,319
Raw,7.92206329e+05,654,319
Raw,1.01282531e+06,655,319
Raw,8.78903838e+05,656,319
Raw,1.06160652e+06,657,319
Raw,9.37989719e+05,658,319
Raw,5.19141661e+05,659,319
Raw,9.8213502e+05,660,319
Raw,5.90249414e+05,661,319
Raw,1.08507907e+06,662,319
Raw,9.1916321e+05,663,319
Raw,6.4470265e+05,664,319
Raw,7.19134132e+05,665,319
Raw,9.30166788e+05,666,319
Raw,7.65097216e+05,667,319
Raw,1.11511541e+06,668,319
Raw,5.86152227e+05,669,319
Raw,9.78728306e+05,670,319
Raw,6.83750061e+05,671,319
Raw,5.78456122e+05,672,319
Raw,1.093501e+06,673,319
Raw,1.31179855e+05,674,319
Raw,1.08521324e+06,675,319
Raw,8.72715045e+05,676,319
Raw,9.46135781e+05,677,319
Raw,9.13803146e+05,678,319
Raw,9.64995223e+05,679,319
Raw,1.05609108e+06,680,319
Raw,9.35499051e+05,681,319
Raw,8.66914386e+05,682,319
Raw,1.03442614e+06,683,319
Raw,9.78134879e+05,684,319
Raw,9.62749418e+05,685,319
Raw,1.02633365e+06,686,319
Raw,4.91649783e+05,687,319
Raw,7.89681578e+05,688,319
Raw,8.97773761e+05,689,319
Raw,6.49085744e+05,690,319
Raw,18822.399,690,319
Raw,4.39152381e+05,691,319
Raw,3.86825334e+05,692,319
Raw,9.84424335e+05,693,319
Raw,4.39787648e+05,694,319
Raw,1.06284584e+06,695,319
Raw,9.33738679e+05,696,319
Raw,9.6612217e+05,697,319
Raw,1.0897746e+06,698,319
Raw,9.3620137e+05,699,319
Raw,1.09102362e+06,700,319
Raw,8.43285302e+05,701,319
Raw,5.46286457e+05,702,319
Raw,8.23607601e+05,703,319
Raw,9.9534354e+05,704,319
Raw,8.99771239e+05,705,319
Raw,6.54121802e+05,706,319
Raw,8.64667632e+05,707,319
Raw,7.51828762e+05,708,319
Raw,9.11117913e+05,709,319
Raw,8.27018825e+05,710,319
Raw,4.64409985e+05,711,319
Raw,9.83949201e+05,713,319
Raw,1.21464688e+06,715,319
Raw,1.20862866e+06,716,319
Raw,9.60211974e+05,717,319
Raw,9.98105023e+05,718,319
Raw,4.86715784e+05,719,319
Raw,9.76763996e+05,720,319
Raw,8.80140937e+05,721,319
Raw,1.14035726e+06,722,319
Raw,8.76954588e+05,723,319
Raw,8.89800628e+05,725,319
Raw,1.02171792e+06,726,319
Raw,5.9650912e+05,727,319
Raw,1.04850828e+06,728,319
Raw,9.74971843e+05,729,319
Raw,1.02214612e+06,730,319
Raw,5.02387793e+05,731,319
Raw,7.91927491e+05,732,319
Raw,1.3225315e+05,733,319
Raw,9.38248718e+05,734,319
Raw,4.20754442e+05,735,319
Raw,8.61964088e+05,736,319
Raw,8.88344265e+05,737,319
Raw,9.20798556e+05,738,319
Raw,7.76903038e+05,739,319
Raw,7.70019754e+05,740,319
Raw,1.05262044e+06,741,319
Raw,8.67381857e+05,742,319
Raw,9.78626043e+05,743,319
Raw,8.96668683e+05,744,319
Raw,9.35111835e+05,745,319
Raw,9.63584102e+05,746,319
Raw,1.01470813e+06,747,319
Raw,8.37696988e+05,748,319
Raw,6.00315525e+05,749,319
Raw,9.328448e+05,750,319
Raw,1.0850082e+06,751,319
Raw,1.012091e+06,752,319
Raw,1.16856312e+06,753,319
Raw,8.60354314e+05,754,319
Raw,1.85179805e+05,755,319
Raw,1.06556842e+06,756,319
Raw,9.82834601e+05,757,319
Raw,9.09866812e+05,758,319
Raw,9.62291434e+05,759,319
Raw,1.10195579e+06,760,319
Raw,1.11557046e+06,761,319
Raw,8.35895872e+05,762,319
Raw,8.3425693e+05,763,319
Raw,8.77511165e+05,764,319
Raw,2.10491091e+05,765,319
Raw,9.00427268e+05,766,319
Raw,9.60506563e+05,767,319
Raw,7.11518872e+05,768,319
Raw,5.0356809e+05,769,319
Raw,9.55654483e+05,771,319
Raw,5.68811625e+05,773,319
Raw,7.09080296e+05,774,319
Raw,6.76711203e+05,775,319
Raw,1.06680708e+06,776,319
Raw,9.69055974e+05,777,319
Raw,6.52277743e+05,778,319
Raw,1.04888764e+06,780,319
Raw,8.46261149e+05,781,319
Raw,1.03578631e+06,782,319
Raw,1.02017421e+06,783,319
Raw,2.07764584e+05,784,319
Raw,9.71911527e+05,785,319
Raw,8.47930681e+05,786,319
Raw,6.25486309e+05,787,319
Raw,9.28098762e+05,788,319
Raw,1.03529757e+06,789,319
Raw,9.8678873e+05,790,319
Raw,7.30448828e+05,792,319
Raw,9.70514459e+05,793,319
Raw,9.50877991e+05,794,319
Raw,6.35326322e+05,795,319
Raw,7.20728589e+05,796,319
Raw,9.37925198e+05,797,319
Raw,1.20142678e+06,798,319
Raw,5.71106606e+05,799,319
Raw,2.55095016e+05,801,319
Raw,8.61472374e+05,803,319
Raw,9.63936993e+05,804,319
Raw,8.9552207e+05,805,319
Raw,7.23939769e+05,806,319
Raw,1.22228332e+06,807,319
Raw,9.93454245e+05,808,319
Raw,9.60564628e+05,809,319
Raw,9.82416438e+05,810,319
Raw,9.99063806e+05,811,319
Raw,1.01101726e+06,812,319
Raw,5.5410039e+05,813,319
Raw,8.81871398e+05,814,319
Raw,8.47477353e+05,815,319
Raw,2.20877705e+05,816,319
Raw,9.81653949e+05,817,319
Raw,9.73591881e+05,818,319
Raw,9.54280698e+05,819,319
Raw,1.06123414e+06,820,319
Raw,9.82665042e+05,821,319
Raw,7.96581501e+05,822,319
Raw,5783.9382,822,319
Raw,9.02312658e+05,823,319
Raw,9.71688356e+05,824,319
Raw,7.97592199e+05,825,319
Raw,9.64960369e+05,826,319
Raw,8.61718621e+05,827,319
Raw,7.45322495e+05,828,319
Raw,6.87875481e+05,829,319
Raw,9.75060833e+05,830,319
Raw,1.00485361e+06,831,319
Raw,9.99093127e+05,832,319
Raw,9.6022745e+05,833,319
Raw,9.76102031e+05,834,319
Raw,6.96741798e+05,835,319
Raw,9.45450034e+05,836,319
Raw,8.31952732e+05,837,319
Raw,9.60543312e+05,838,319
Raw,8.62466312e+05,839,319
Raw,5.82832298e+05,840,319
Raw,4.55379129e+05,841,319
Raw,9.81079365e+05,842,319
Raw,7.16496502e+05,843,319
Raw,8.34307139e+05,844,319
Raw,3.61623805e+05,845,319
Raw,1.01073003e+06,846,319
Raw,6.69270271e+05,847,319
Raw,8.59523664e+05,848,319
Raw,1.0481071e+06,849,319
Raw,8.39755242e+05,850,319
Raw,7.17974376e+05,851,319
Raw,9.60788635e+05,852,319
Raw,7.69571312e+05,853,319
Raw,8.46126512e+05,854,319
Raw,8.93458465e+05,855,319
Raw,9.60435038e+05,856,319
Raw,8.09971857e+05,857,319
Raw,8.39135451e+05,858,319
Raw,1.03440607e+06,859,319
Raw,1.76982057e+05,860,319
Raw,9.66221234e+05,861,319
Raw,9.74074759e+05,862,319
Raw,9.4999415e+05,863,319
Raw,9.5196627e+05,864,319
Raw,8.27036707e+05,865,319
Raw,5.4277194e+05,866,319
Raw,1.04320526e+06,867,319
Raw,1.02139654e+06,868,319
Raw,9.5678182e+05,869,319
Raw,9.99999153e+05,870,319
Raw,1.01512486e+06,871,319
Raw,1.11437903e+06,872,319
Raw,9.72562741e+05,873,319
Raw,9.77113883e+05,874,319
Raw,7.62379855e+05,875,319
Raw,9.84189758e+05,877,319
Raw,9.89672589e+05,878,319
Raw,8.79960704e+05,879,319
Raw,6.77452146e+05,880,319
Raw,9.6520405e+05,881,319
Raw,9.53844322e+05,882,319
Raw,1.08792766e+06,883,319
Raw,7.24899747e+05,884,319
Raw,6.60852495e+05,885,319
Raw,3.84755181e+05,886,319
Raw,7.38910186e+05,887,319
Raw,9.08447481e+05,888,319
Raw,4.07072753e+05,889,319
Raw,6.1157985e+05,890,319
Raw,7.71943097e+05,891,319
Raw,6.05118586e+05,892,319
Raw,5.3662252e+05,893,319
Raw,8.49683207e+05,894,319
Raw,9.92428387e+05,895,319
Raw,8.58943321e+05,896,319
Raw,1.00574674e+06,897,319
Raw,6.90107365e+05,898,319
Raw,9.65192535e+05,899,319
Raw,1.95859998e+05,900,319
Raw,8.71317468e+05,901,319
Raw,2.98857434e+05,902,319
Raw,9.7175387e+05,903,319
Raw,1.00993348e+06,904,319
Raw,1.01286737e+06,905,319
Raw,1.05648166e+06,906,319
Raw,9.95081506e+05,907,319
Raw,8.92989393e+05,908,319
Raw,9.56537626e+05,909,319
Raw,9.87837598e+05,910,319
Raw,9.84525857e+05,911,319
Raw,3.70446275e+05,912,319
Raw,1.06254126e+06,913,319
Raw,6.7356496e+05,914,319
Raw,28214.14,914,319
Raw,7.3622188e+05,916,319
Raw,4.24627065e+05,917,319
Raw,4.88282696e+05,918,319
Raw,8.60766639e+05,919,319
Raw,1.06716843e+06,920,319
Raw,5.87965046e+05,921,319
Raw,9.65010873e+05,922,319
Raw,8.27114044e+05,923,319
Raw,9.60068542e+05,924,319
Raw,5.85714177e+05,925,319
Raw,9.98113092e+05,926,319
Raw,9.78458449e+05,927,319
Raw,6.32174526e+05,928,319
Raw,8.71348752e+05,929,319
Raw,1.00788853e+06,930,319
Raw,9.74948003e+05,931,319
Raw,8.98090397e+05,932,319
Raw,9.02666883e+05,933,319
Raw,1.01783453e+06,934,319
Raw,1.89007958e+05,935,319
Raw,9.54430857e+05,936,319
Raw,9.95015529e+05,937,319
Raw,8.17129802e+05,938,319
Raw,8.03193495e+05,939,319
Raw,8.39676788e+05,940,319
Raw,1.02411897e+06,941,319
Raw,6.37506242e+05,942,319
Raw,8.61300533e+05,943,319
Raw,9.70556146e+05,944,319
Raw,8.76158611e+05,945,319
Raw,1.01593706e+06,946,319
Raw,1.13554437e+06,947,319
Raw,9.1700962e+05,948,319
Raw,9.38152588e+05,949,319
Raw,1.04108456e+06,950,319
Raw,3.00778874e+05,951,319
Raw,6.71584699e+05,952,319
Raw,9.88761532e+05,953,319
Raw,5.4255531e+05,954,319
Raw,8.68187156e+05,955,319
Raw,6.77799098e+05,956,319
Raw,5.48004746e+05,957,319
Raw,1.24063572e+06,958,319
Raw,4.11924233e+05,959,319
Raw,9.65004775e+05,960,319
Raw,5.95654975e+05,961,319
Raw,4.82832743e+05,962,319
Raw,8.5655562e+05,963,319
Raw,5781.3104,963,319
Raw,4.92148359e+05,964,319
Raw,1.19525703e+06,965,319
Raw,9.85407202e+05,966,319
Raw,9.07357253e+05,967,319
Raw,3.65018126e+05,968,319
Raw,1.08980655e+06,969,319
Raw,1.01367973e+06,970,319
Raw,1.04806085e+06,971,319
Raw,3.46704244e+05,972,319
Raw,9.39474989e+05,973,319
Raw,8.41138469e+05,974,319
Raw,9.79484983e+05,975,319
Raw,7.64294235e+05,976,319
Raw,1.02638109e+06,977,319
Raw,8.77588323e+05,978,319
Raw,1.01236315e+06,979,319
Raw,1.08624117e+06,980,319
Raw,1.10287758e+06,981,319
Raw,6.9944355e+05,982,319
Raw,8.85398257e+05,983,319
Raw,4.04601141e+05,984,319
Raw,9.83415761e+05,985,319
Raw,7.0892174e+05,986,319
Raw,6.51938488e+05,987,319
Raw,9.5259665e+05,988,319
Raw,1.0802666e+06,989,319
Raw,9.67192639e+05,990,319
Raw,9.25176502e+05,991,319
Raw,1.06857586e+06,992,319
Raw,5.38739436e+05,993,319
Raw,8.25687811e+05,994,319
Raw,7.99692499e+05,995,319
Raw,6.40764371e+05,996,319
Raw,9.81641965e+05,997,319
Raw,2.67071325e+06,999,319
Raw,1.03424997e+06,1000,319
Raw,1.03200212e+06,1001,319
Raw,5.86380387e+05,1002,319
Raw,2.83944783e+05,1002,319
Raw,8.90489506e+05,1003,319
Raw,7.50697142e+05,1004,319
Raw,4.21491133e+05,1005,319
Raw,6.90098622e+05,1006,319
Raw,1.03527245e+06,1007,319
Raw,1.00937298e+06,1008,319
Raw,1.89201562e+06,1009,319
Raw,5.76866625e+05,1010,319
Raw,1.09808496e+06,1011,319
Raw,9.5071874e+05,1012,319
Raw,9.26793299e+05,1014,319
Raw,7.6944979e+05,1015,319
Raw,6.19661508e+05,1016,319
Raw,9.92748431e+05,1017,319
Raw,9.07607711e+05,1018,319
Raw,5.13464148e+05,1019,319
Raw,1.42557469e+05,1020,319
Raw,1.01078797e+06,1021,319
Raw,7.07106568e+05,1022,319
Raw,1.0663474e+06,1023,319
Raw,7.54244102e+05,1024,319
Raw,1.37031466e+06,1024,319
Raw,3.05096739e+05,1024,319
Raw,1.00418262e+06,1025,319
Raw,5.57140403e+05,1026,319
Raw,9.60922992e+05,1027,319
Raw,1.15649079e+06,1028,319
Raw,9.3725905e+05,1029,319
Raw,8.97813912e+05,1030,319
Raw,6.28436091e+05,1031,319
Raw,4.85075662e+05,1032,319
Raw,8.72524014e+05,1033,319
Raw,8.73873491e+05,1034,319
Raw,6.72431222e+05,1035,319
Raw,1.88857329e+05,1036,319
Raw,8.71674373e+05,1037,319
Raw,9.13794027e+05,1038,319
Raw,1.01531162e+06,1039,319
Raw,9.68904039e+05,1040,319
Raw,5.22717925e+05,1041,319
Raw,5.37952106e+05,1042,319
Raw,1.03131248e+06,1043,319
Raw,9.91658403e+05,1044,319
Raw,9.22928127e+05,1045,319
Raw,5.35662845e+05,1046,319
Raw,8.00364911e+05,1047,319
Raw,9.13802755e+05,1048,319
Raw,9.4608835e+05,1049,319
Raw,9.60635292e+05,1050,319
Raw,70239.084,1050,319
Raw,6.68358104e+05,1051,319
Raw,7.27902616e+05,1054,319
Raw,5.56673846e+05,1055,319
Raw,8.83930967e+05,1057,319
Raw,9.62723326e+05,1058,319
Raw,7.43050991e+05,1061,319
Raw,9.72133157e+05,1062,319
Raw,8.91466423e+05,1063,319
Raw,6.7253367e+05,1064,319
Raw,2.06650052e+05,1065,319
Raw,6.08823149e+05,1066,319
Raw,1.06390994e+06,1067,319
Raw,9.25737597e+05,1068,319
Raw,1.04605474e+06,1069,319
Raw,6.04317254e+05,1070,319
Raw,5.46901844e+05,1071,319
Raw,1.00515771e+06,1072,319
Raw,1.89764284e+05,1073,319
Raw,7.04884453e+05,1074,319
Raw,9.80808694e+05,1075,319
Raw,8.61499606e+05,1076,319
Raw,9.76233636e+05,1077,319
Raw,7.2752904e+05,1079,319
Raw,9.1804647e+05,1081,319
Raw,8.68924574e+05,1082,319
Raw,9.38749861e+05,1083,319
Raw,8.74394032e+05,1084,319
Raw,9.74379052e+05,1085,319
Raw,7.95885978e+05,1086,319
Raw,1.08128207e+06,1087,319
Raw,1.47174574e+06,1087,319
Raw,9.31485862e+05,1088,319
Raw,2.87694552e+05,1089,319
Raw,6.95288509e+05,1090,319
Raw,9.95042175e+05,1091,319
Raw,1.08142535e+06,1092,319
Raw,7.48791736e+05,1093,319
Raw,9.35458864e+05,1094,319
Raw,70729.972,1094,319
Raw,6.4798117e+05,1095,319
Raw,1.13354767e+06,1096,319
Raw,5.23733409e+05,1097,319
Raw,1.06197582e+06,1098,319
Raw,1.12406204e+05,1099,319
Raw,1.19059946e+06,1100,319
Raw,8.72743259e+05,1101,319
Raw,1.09421492e+06,1102,319
Raw,8.61540894e+05,1103,319
Raw,4.26616418e+05,1104,319
Raw,1.06871899e+06,1105,319
Raw,8.22324576e+05,1106,319
Raw,9.1892683e+05,1107,319
Raw,1.03424345e+06,1108,319
Raw,1.0213692e+06,1109,319
Raw,1.0174633e+06,1111,319
Raw,9.54683257e+05,1112,319
Raw,5.74213196e+05,1113,319
Raw,4.87868887e+05,1114,319
Raw,1.06560087e+06,1115,319
Raw,1.00453023e+06,1117,319
Raw,9.79948221e+05,1118,319
Raw,9.56454748e+05,1119,319
Raw,1.00436088e+06,1121,319
Raw,1.01836991e+06,1122,319
Raw,7.91301942e+05,1123,319
Raw,9.17893866e+05,1124,319
Raw,8.85276154e+05,1126,319
Raw,8.337649e+05,1127,319
Raw,8.93134157e+05,1128,319
Raw,8.92674241e+05,1129,319
Raw,8.83613991e+05,1130,319
Raw,8.3021225e+05,1131,319
Raw,8.90696407e+05,1132,319
Raw,1.191973e+06,1133,319
Raw,7.97978279e+05,1134,319
Raw,2.30137442e+05,1135,319
Raw,9.8897228e+05,1136,319
Raw,8.98701171e+05,1137,319
Raw,1.82801631e+05,1138,319
Raw,1.20149005e+06,1139,319
Raw,6.11981321e+05,1140,319
Raw,5.21787778e+05,1141,319
Raw,5.00397767e+05,1142,319
Raw,6.20663853e+05,1143,319
Raw,9.69304496e+05,1144,319
Raw,1.04906663e+06,1145,319
Raw,5.69751039e+05,1146,319
Raw,8.803446e+05,1147,319
Raw,9.13290238e+05,1148,319
Raw,8.58648583e+05,1149,319
Raw,9.11412555e+05,1150,319
Raw,6.5000959e+05,1151,319
Raw,9.62192953e+05,1152,319
Raw,7.46099176e+05,1153,319
Raw,9.7966688e+05,1154,319
Raw,1.0329334e+06,1155,319
Raw,8.93033009e+05,1156,319
Raw,8.64857189e+05,1157,319
Raw,8.65344708e+05,1158,319
Raw,1.9811105e+06,1159,319
Raw,1.44712431e+06,1159,319
Raw,5.6180108e+05,1160,319
Raw,9.7592284e+05,1161,319
Raw,9.89497409e+05,1162,319
Raw,7.91455445e+05,1163,319
Raw,9.52425269e+05,1165,319
Raw,9.64565014e+05,1166,319
Raw,8.71680352e+05,1167,319
Raw,1.01951561e+06,1168,319
Raw,1.1654462e+06,1169,319
Raw,39666.413,1169,319
Raw,6.55288524e+05,1170,319
Raw,9.82053211e+05,1171,319
Raw,9.5215486e+05,1172,319
Raw,1.67679858e+06,1173,319
Raw,8.98472517e+05,1174,319
Raw,9.04333516e+05,1175,319
Raw,8.4300643e+05,1177,319
Raw,1.07621326e+06,1178,319
Raw,8.75773585e+05,1179,319
Raw,1.08177008e+06,1180,319
Raw,5.42349062e+05,1181,319
Raw,7.60687302e+05,1182,319
Raw,1.21828541e+06,1183,319
Raw,1.91179117e+06,1183,319
Raw,9.59957382e+05,1183,319
Raw,8.71372823e+05,1184,319
Raw,7.92973738e+05,1185,319
Raw,1.22358368e+06,1186,319
Raw,9.00249692e+05,1188,319
Raw,1.75407969e+05,1189,319
Raw,8.10239679e+05,1190,319
Raw,9.6581577e+05,1191,319
Raw,6.04784162e+05,1192,319
Raw,9.87753048e+05,1193,319
Raw,6.46062714e+05,1194,319
Raw,1.03985758e+06,1195,319
Raw,9.10463538e+05,1196,319
Raw,1.03936736e+06,1197,319
Raw,1.0322362e+06,1198,319
Raw,1.01088066e+06,1199,319
Raw,8.74494547e+05,1200,319
Raw,8.514375e+05,1201,319
Raw,7.78777633e+05,1202,319
Raw,9.2296788e+05,1203,319
Raw,9.61042369e+05,1204,319
Raw,8.16899892e+05,1205,319
Raw,2.86506113e+05,1206,319
Raw,6.39777178e+05,1207,319
Raw,8.94264881e+05,1208,319
Raw,8.47680312e+05,1209,319
Raw,8.55746065e+05,1210,319
Raw,8.44548272e+05,1211,319
Raw,9.83766363e+05,1213,319
Raw,9.75543114e+05,1214,319
Raw,1.0990398e+06,1215,319
Raw,1.44258391e+05,1216,319
Raw,1.12925871e+06,1217,319
Raw,8.30976653e+05,1218,319
Raw,8.60946966e+05,1219,319
Raw,8.21802176e+05,1220,319
Raw,8.9430319e+05,1221,319
Raw,4.46209419e+05,1222,319
Raw,8.28093338e+05,1223,319
Raw,8.24553885e+05,1224,319
Raw,1.01436129e+06,1225,319
Raw,1.09709237e+06,1227,319
Raw,9.62721476e+05,1228,319
Raw,4.16744036e+05,1229,319
Raw,9.87842345e+05,1230,319
Raw,1.06614125e+05,1231,319
Raw,7.15057628e+05,1232,319
Raw,1.03314871e+06,1233,319
Raw,1.09066581e+06,1234,319
Raw,1.05602313e+06,1235,319
Raw,8.24814092e+05,1236,319
Raw,1.07871137e+06,1237,319
Raw,9.26548462e+05,1238,319
Raw,9.89891252e+05,1239,319
Raw,9.51674506e+05,1240,319
Raw,9.70656892e+05,1241,319
Raw,1.36105543e+05,1242,319
Raw,7.49186842e+05,1243,319
Raw,8.52606276e+05,1244,319
Raw,9.18146e+05,1245,319
Raw,9.28196036e+05,1246,319
Raw,7.75985066e+05,1247,319
Raw,1.10038341e+06,1248,319
Raw,7.2150179e+05,1249,319
Raw,6.32817444e+05,1250,319
Raw,1.06858175e+06,1251,319
Raw,5.30206146e+05,1252,319
Raw,5.77631654e+05,1253,319
Raw,1.01050796e+06,1254,319
Raw,9.43399511e+05,1255,319
Raw,9.5381458e+05,1256,319
Raw,8.5896303e+05,1257,319
Raw,8.22768685e+05,1259,319
Raw,9.2069972e+05,1260,319
Raw,1.0820604e+06,1261,319
Raw,1.01805364e+06,1262,319
Raw,8.68991141e+05,1263,319
Raw,1.05659765e+06,1264,319
Raw,8.83245551e+05,1265,319
Raw,8.98888515e+05,1266,319
Raw,9.28020557e+05,1267,319
Raw,2.70514676e+05,1268,319
Raw,1.15322215e+06,1269,319
Raw,9.03697346e+05,1270,319
Raw,6.3352845e+05,1271,319
Raw,9.91316911e+05,1272,319
Raw,8.06914237e+05,1273,319
Raw,9.48143623e+05,1274,319
Raw,8.65806904e+05,1275,319
Raw,5.9754614e+05,1276,319
Raw,6.87562628e+05,1277,319
Raw,7.48745339e+05,1278,319
Raw,1.01340369e+06,1279,319
Raw,9.79544688e+05,1280,319
Raw,8.78862931e+05,1281,319
Raw,9.17892433e+05,1282,319
Raw,9.21424767e+05,1284,319
Raw,1.02323644e+06,1285,319
Raw,7.4920087e+05,1286,319
Raw,2.04573675e+05,1287,319
Raw,8.66351061e+05,1288,319
Raw,8.30714799e+05,1289,319
Raw,2.61739833e+05,1290,319
Raw,9.84271051e+05,1291,319
Raw,2.91878206e+05,1292,319
Raw,7.32022778e+05,1293,319
Raw,8.58782969e+05,1294,319
Raw,8.16730072e+05,1295,319
Raw,9.42669558e+05,1296,319
Raw,8.50794817e+05,1297,319
Raw,5.8738414e+05,1298,319
Raw,9.72789511e+05,1299,319
Raw,9.22746679e+05,1300,319
Raw,6.04166843e+05,1301,319
Raw,1.02994957e+06,1302,319
Raw,7.17282094e+05,1303,319
Raw,1.04956359e+06,1304,319
Raw,1.08729451e+06,1305,319
Raw,1.01163616e+06,1306,319
Raw,8.29087347e+05,1307,319
Raw,1.09593381e+06,1308,319
Raw,9.76752245e+05,1309,319
Raw,4.33361686e+05,1310,319
Raw,9.35039884e+05,1311,319
Raw,8.95279911e+05,1312,319
Raw,8.67933007e+05,1313,319
Raw,5.45637507e+05,1314,319
Raw,1.03091135e+06,1315,319
Raw,8.92416475e+05,1316,319
Raw,1.11045573e+06,1317,319
Raw,1.00424189e+06,1318,319
Raw,9.58050306e+05,1319,319
Raw,9.10417444e+05,1320,319
Raw,5.44654592e+05,1321,319
Raw,8.5449767e+05,1322,319
Raw,1.02209561e+06,1323,319
Raw,9.94766527e+05,1324,319
Raw,7.13604193e+05,1325,319
Raw,8.39921026e+05,1326,319
Raw,8.93131114e+05,1327,319
Raw,9.73796851e+05,1328,319
Raw,1.04635303e+06,1329,319
Raw,1.08545758e+06,1330,319
Raw,2.92572282e+05,1331,319
Raw,7.86341253e+05,1332,319
Raw,5.67324687e+05,1333,319
Raw,8.43448995e+05,1334,319
Raw,4.30925243e+05,1335,319
Raw,8.15166823e+05,1336,319
Raw,9.17858249e+05,1337,319
Raw,1.00822505e+06,1338,319
Raw,6.08171364e+05,1339,319
Raw,9.80527782e+05,1341,319
Raw,1.02433642e+06,1342,319
Raw,5.40023826e+05,1343,319
Raw,9.3873613e+05,1344,319
Raw,4.39917371e+05,1345,319
Raw,9.49555753e+05,1347,319
Raw,7.40397292e+05,1348,319
Raw,9.94759834e+05,1349,319
Raw,3.39973001e+05,1350,319
Raw,1.02046334e+06,1351,319
Raw,3.43172265e+05,1352,319
Raw,1.54368947e+05,1352,319
Raw,1.14210679e+06,1353,319
Raw,4.08286668e+05,1354,319
Raw,9.78015433e+05,1355,319
Raw,9.96715956e+05,1356,319
Raw,8.97009837e+05,1357,319
Raw,9.38826586e+05,1358,319
Raw,1.02091176e+06,1359,319
Raw,9.04558756e+05,1361,319
Raw,1.02842615e+06,1362,319
Raw,9.7763628e+05,1363,319
Raw,1.01529062e+06,1364,319
Raw,8.69014177e+05,1365,319
Raw,5.07676844e+05,1366,319
Raw,1.09595341e+06,1367,319
Raw,1.01511691e+06,1368,319
Raw,1.06885273e+06,1369,319
Raw,7.19951648e+05,1370,319
Raw,6.17190194e+05,1371,319
Raw,9.99785603e+05,1372,319
Raw,9.13086416e+05,1373,319
Raw,3.67393108e+05,1374,319
Raw,9.53282454e+05,1375,319
Raw,9.93392754e+05,1376,319
Raw,6.7711287e+05,1377,319
Raw,6.49462278e+05,1378,319
Raw,9.77538195e+05,1379,319
Raw,8.76743225e+05,1380,319
Raw,1.16853306e+06,1381,319
Raw,1.75279813e+05,1383,319
Raw,1.06963617e+06,1384,319
Raw,1.0639001e+06,1385,319
Raw,1.76726844e+05,1385,319
Raw,1.01032633e+06,1386,319
Raw,9.07267959e+05,1387,319
Raw,6.77098576e+05,1388,319
Raw,1.04794595e+06,1389,319
Raw,5.53681545e+05,1390,319
Raw,4.34226172e+05,1391,319
Raw,9.9563125e+05,1392,319
Raw,9.34088502e+05,1393,319
Raw,8.71909575e+05,1395,319
Raw,7.29670777e+05,1396,319
Raw,8.58103908e+05,1397,319
Raw,7.39568456e+05,1398,319
Raw,9.27438591e+05,1399,319
Raw,7.69470367e+05,1400,319
Raw,6.96332648e+05,1401,319
Raw,8.29880866e+05,1402,319
Raw,7.12601314e+05,1403,319
Raw,9.01275236e+05,1404,319
Raw,1.10147198e+06,1405,319
Raw,7.91769003e+05,1406,319
Raw,7.72098965e+05,1407,319
Raw,5.2104996e+05,1409,319
Raw,9.46878228e+05,1410,319
Raw,9.54251583e+05,1411,319
Raw,5.57956814e+05,1412,319
Raw,1.05845447e+06,1413,319
Raw,1.10627061e+06,1414,319
Raw,8.64883988e+05,1415,319
Raw,1.0306743e+06,1416,319
Raw,9.92706842e+05,1417,319
Raw,1.0513844e+06,1418,319
Raw,6.68767389e+05,1419,319
Raw,2.74185356e+05,1420,319
Raw,9.57717916e+05,1421,319
Raw,4.1007214e+05,1422,319
Raw,8.60962853e+05,1423,319
Raw,4.13681218e+05,1424,319
Raw,8.57792162e+05,1425,319
Raw,5.83895782e+05,1426,319
Raw,6.81204483e+05,1427,319
Raw,8.76176046e+05,1428,319
Raw,6.97118932e+05,1429,319
Raw,9.23201004e+05,1430,319
Raw,9.34492192e+05,1431,319
Raw,1.09065696e+06,1432,319
Raw,6.77215668e+05,1433,319
Raw,6.45101216e+05,1434,319
Raw,7.10232094e+05,1435,319
Raw,4.68692032e+05,1437,319
Raw,8.61638368e+05,1438,319
Raw,9.06836398e+05,1439,319
Raw,9.425347e+05,1441,319
Raw,9.67240037e+05,1442,319
Raw,5.80735714e+05,1443,319
Raw,1.02603399e+06,1444,319
Raw,8.43879251e+05,1445,319
Raw,4.05979372e+05,1446,319
Raw,9.39838832e+05,1447,319
Raw,9.15572891e+05,1448,319
Raw,9.93535411e+05,1449,319
Raw,5.35119485e+05,1450,319
Raw,9.93299164e+05,1451,319
Raw,9.41959476e+05,1452,319
Raw,7.36778116e+05,1453,319
Raw,6.55886922e+05,1454,319
Raw,6.33272164e+05,1455,319
Raw,1.06351308e+06,1456,319
Raw,8.72892558e+05,1457,319
Raw,1.0536182e+06,1458,319
Raw,1.1650641e+05,1459,319
Raw,8.06478118e+05,1460,319
Raw,1.18734133e+06,1461,319
Raw,7.1579936e+05,1462,319
Raw,5.57040956e+05,1463,319
Raw,6.70212728e+05,1464,319
Raw,8.09457601e+05,1465,319
Raw,1.0575077e+06,1467,319
Raw,9.27183579e+05,1468,319
Raw,1.02517708e+06,1469,319
Raw,5.86109493e+05,1471,319
Raw,9.63405109e+05,1472,319
Raw,8.36624625e+05,1473,319
Raw,9.83686144e+05,1474,319
Raw,8.04085689e+05,1475,319
Raw,1.03735019e+06,1476,319
Raw,1.01232273e+06,1477,319
Raw,8.00649003e+05,1478,319
Raw,9.28731054e+05,1479,319
Raw,1.0275499e+06,1480,319
Raw,9.64007753e+05,1481,319
Raw,1.13344604e+06,1482,319
Raw,9.13820971e+05,1483,319
Raw,1.00952605e+06,1484,319
Raw,7.29842754e+05,1485,319
Raw,6.57515838e+05,1486,319
Raw,9.42606701e+05,1487,319
Raw,8.56546215e+05,1488,319
Raw,9.71730009e+05,1489,319
Raw,7.18950466e+05,1490,319
Raw,9.63544691e+05,1491,319
Raw,7.71864854e+05,1492,319
Raw,8.75069737e+05,1493,319
Raw,1.02495419e+06,1494,319
Raw,5.61414991e+05,1495,319
Raw,9.93491672e+05,1496,319
Raw,3.20440802e+05,1497,319
Raw,8.60111344e+05,1498,319
Raw,9.34501766e+05,1499,319
Raw,1.06073682e+06,1500,319
Raw,5.80834227e+05,1501,319
Raw,6.66710461e+05,1502,319
Raw,9.64079371e+05,1503,319
Raw,9.74915774e+05,1504,319
Raw,9.78805982e+05,1505,319
Raw,6.342675e+05,1506,319
Raw,1.00962432e+06,1507,319
Raw,2.49279539e+05,1508,319
Raw,9.62283868e+05,1509,319
Raw,1.07011316e+06,1511,319
Raw,6.04276456e+05,1512,319
Raw,9.99278663e+05,1513,319
Raw,9.15298012e+05,1514,319
Raw,9.84131576e+05,1515,319
Raw,1.11390491e+06,1517,319
Raw,1.00943375e+06,1518,319
Raw,1.06541815e+06,1519,319
Raw,9.55860956e+05,1520,319
Raw,1.11373223e+06,1521,319
Raw,9.07903482e+05,1522,319
Raw,1.01987175e+06,1523,319
Raw,1.0444792e+06,1524,319
Raw,9.17025875e+05,1525,319
Raw,5.91458658e+05,1526,319
Raw,7.19393909e+05,1527,319
Raw,1.00638634e+06,1528,319
Raw,7.46373404e+05,1529,319
Raw,1.17797569e+05,1530,319
Raw,1.00563796e+06,1531,319
Raw,1.01892126e+06,1532,319
Raw,8.978638e+05,1533,319
Raw,9.45766576e+05,1534,319
Raw,1.02487171e+06,1535,319
Raw,8.12826461e+05,1536,319
Raw,9.07466479e+05,1537,319
Raw,8.87161821e+05,1538,319
Raw,1.01325847e+06,1539,319
Raw,7.91594275e+05,1540,319
Raw,8.61084531e+05,1541,319
Raw,9.68895316e+05,1542,319
Raw,1.00092119e+06,1543,319
Raw,9.06656273e+05,1544,319
Raw,5.71133835e+05,1545,319
Raw,1.05823178e+06,1546,319
Raw,1.12224812e+06,1547,319
Raw,8.54612373e+05,1548,319
Raw,3.87103865e+05,1549,319
Raw,3.59583982e+05,1550,319
Raw,5.64088148e+05,1551,319
Raw,7.96309503e+05,1552,319
Raw,4.26719767e+05,1553,319
Raw,6.4511874e+05,1554,319
Raw,1.06121836e+06,1555,319
Raw,1.02688307e+06,1556,319
Raw,8.00498703e+05,1557,319
Raw,6.54879318e+05,1558,319
Raw,9.64608559e+05,1559,319
Raw,9.96154083e+05,1560,319
Raw,74749.083,1560,319
Raw,5.65198919e+05,1561,319
Raw,1.54617188e+06,1562,319
Raw,1.44849042e+06,1562,319
Raw,1.01098523e+06,1562,319
Raw,8.47877575e+05,1563,319
Raw,6.62247973e+05,1564,319
Raw,3.97906639e+05,1565,319
Raw,1.07569126e+06,1566,319
Raw,9.57030037e+05,1567,319
Raw,6.6964566e+05,1568,319
Raw,1.01866785e+06,1569,319
Raw,1.00160993e+06,1570,319
Raw,8.92884172e+05,1571,319
Raw,4.02965353e+05,1572,319
Raw,9.20020769e+05,1573,319
Raw,8.91866024e+05,1574,319
Raw,1.03884762e+06,1575,319
Raw,9.53969571e+05,1576,319
Raw,1.10122549e+06,1577,319
Raw,1.00582655e+06,1578,319
Raw,6.49572513e+05,1579,319
Raw,1.04481818e+06,1580,319
Raw,7.64210856e+05,1581,319
Raw,1.14440702e+06,1582,319
Raw,8.06677086e+05,1583,319
Raw,7.86111493e+05,1584,319
Raw,8.31425192e+05,1585,319
Raw,3.88842884e+05,1586,319
Raw,8.86047476e+05,1587,319
Raw,1.01244973e+06,1588,319
Raw,4.02558219e+05,1589,319
Raw,7.95405637e+05,1590,319
Raw,8.46539903e+05,1591,319
Raw,8.25785221e+05,1592,319
Raw,1.12956332e+06,1593,319
Raw,1.02495464e+06,1594,319
Raw,2.28149284e+05,1595,319
Raw,8.33958698e+05,1596,319
Raw,8.91467586e+05,1597,319
Raw,9.93116737e+05,1598,319
Raw,1.08159776e+06,1599,319
Raw,7.06106135e+05,1601,319
Raw,8.92087297e+05,1602,319
Raw,8.03299648e+05,1603,319
Raw,1.20759024e+05,1604,319
Raw,8.2075522e+05,1606,319
Raw,9.07002188e+05,1607,319
Raw,2.27707634e+05,1608,319
Raw,1.03233058e+06,1609,319
Raw,1.0247913e+06,1610,319
Raw,9.29332588e+05,1611,319
Raw,7.7146749e+05,1612,319
Raw,1.22784419e+06,1613,319
Raw,1.06996794e+06,1614,319
Raw,7.25293864e+05,1615,319
Raw,1.01749676e+06,1616,319
Raw,4.9561529e+05,1617,319
Raw,7.16492008e+05,1618,319
Raw,7.57657533e+05,1619,319
Raw,1.09645818e+06,1620,319
Raw,1.01572772e+06,1621,319
Raw,9.3704082e+05,1622,319
Raw,1.0280958e+06,1623,319
Raw,8.01770497e+05,1625,319
Raw,8.92654365e+05,1626,319
Raw,8.7402833e+05,1627,319
Raw,9.82831275e+05,1628,319
Raw,6.59941811e+05,1629,319
Raw,8.5993369e+05,1630,319
Raw,8.45530071e+05,1631,319
Raw,2.33585382e+06,1632,319
Raw,1.04757985e+06,1633,319
Raw,8.6893714e+05,1634,319
Raw,9.82823963e+05,1635,319
Raw,8.62925531e+05,1636,319
Raw,7.97053424e+05,1637,319
Raw,8.8629419e+05,1638,319
Raw,7.97434837e+05,1639,319
Raw,4.83084319e+05,1640,319
Raw,9.75353805e+05,1641,319
Raw,9.01196777e+05,1642,319
Raw,9.15467515e+05,1643,319
Raw,2.29366683e+06,1645,319
Raw,1.01989615e+06,1645,319
Raw,1.00491102e+06,1646,319
Raw,9.84064539e+05,1647,319
Raw,7.26069678e+05,1648,319
Raw,7.70537881e+05,1649,319
Raw,5.34754242e+05,1650,319
Raw,9.22708805e+05,1651,319
Raw,1.07707034e+06,1652,319
Raw,9.23258107e+05,1653,319
Raw,7.28016899e+05,1654,319
Raw,5.59239731e+05,1655,319
Raw,9.98671047e+05,1656,319
Raw,4.92248278e+05,1657,319
Raw,1.06593551e+06,1658,319
Raw,1.04089777e+06,1659,319
Raw,7.4381082e+05,1660,319
Raw,1.07135753e+06,1661,319
Raw,1.01980869e+06,1662,319
Raw,9.76958828e+05,1664,319
Raw,8.1798065e+05,1665,319
Raw,4.37355054e+05,1667,319
Raw,4.40020764e+05,1669,319
Raw,9.10993644e+05,1670,319
Raw,1.071766e+06,1671,319
Raw,9.08168434e+05,1672,319
Raw,8.39300308e+05,1673,319
Raw,1.06646228e+06,1674,319
Raw,9.88153301e+05,1675,319
Raw,1.07926155e+06,1676,319
Raw,1.06595581e+06,1677,319
Raw,9.02797101e+05,1678,319
Raw,3.89528647e+05,1679,319
Raw,8.0103194e+05,1680,319
Raw,16832.059,1680,319
Raw,2.42194875e+05,1681,319
Raw,9.22627457e+05,1682,319
Raw,1.03857215e+06,1683,319
Raw,8.53568372e+05,1684,319
Raw,9.05789193e+05,1685,319
Raw,9.06518817e+05,1686,319
Raw,8.73809334e+05,1687,319
Raw,5.86765733e+05,1688,319
Raw,6.49714174e+05,1689,319
Raw,6.16350629e+05,1690,319
Raw,9.89852621e+05,1691,319
Raw,8.86417915e+05,1692,319
Raw,1.16852719e+06,1693,319
Raw,1.04763373e+06,1694,319
Raw,1.06345466e+06,1695,319
Raw,7.43180505e+05,1696,319
Raw,4.67735477e+05,1697,319
Raw,6.4175661e+05,1698,319
Raw,5.64674975e+05,1699,319
Raw,7.9605508e+05,1700,319
Raw,5.67072024e+05,1701,319
Raw,9.01554551e+05,1702,319
Raw,9.50655644e+05,1704,319
Raw,9.21918234e+05,1705,319
Raw,5.73891449e+05,1706,319
Raw,6.62485849e+05,1707,319
Raw,5.3398816e+05,1708,319
Raw,1.92351229e+05,1709,319
Raw,9.62072851e+05,1710,319
Raw,9.2700457e+05,1711,319
Raw,9.24115192e+05,1712,319
Raw,6.08077506e+05,1714,319
Raw,9.61753851e+05,1715,319
Raw,7.20527609e+05,1716,319
Raw,3.33044543e+05,1717,319
Raw,8.7735416e+05,1718,319
Raw,6.84154711e+05,1719,319
Raw,7.80149151e+05,1720,319
Raw,1.01285479e+06,1721,319
Raw,1.08361064e+06,1722,319
Raw,9.85351352e+05,1723,319
Raw,9.57795207e+05,1724,319
Raw,7.83957657e+05,1725,319
Raw,5.51604681e+05,1726,319
Raw,1.10051195e+06,1727,319
Raw,1.06512529e+06,1728,319
Raw,8.64788308e+05,1729,319
Raw,5.63146734e+05,1730,319
Raw,1.03530681e+06,1731,319
Raw,6.08933906e+05,1732,319
Raw,2.9556298e+05,1733,319
Raw,1.09324041e+06,1734,319
Raw,1.00948179e+06,1735,319
Raw,9.82264146e+05,1736,319
Raw,1.04241304e+06,1737,319
Raw,1.16471151e+06,1738,319
Raw,6.9168441e+05,1739,319
Raw,1.59696747e+06,1739,319
Raw,8.69612667e+05,1740,319
Raw,8.41822423e+05,1741,319
Raw,9.05717337e+05,1742,319
Raw,5.17862659e+05,1743,319
Raw,8.91323409e+05,1744,319
Raw,1.00807304e+06,1744,319
Raw,7.92770056e+05,1745,319
Raw,8.0357298e+05,1746,319
Raw,1.01317197e+06,1747,319
Raw,1.02708964e+06,1748,319
Raw,1.11845475e+06,1749,319
Raw,9.26074692e+05,1750,319
Raw,9.67842386e+05,1752,319
Raw,4.70389251e+05,1753,319
Raw,1.08416574e+06,1754,319
Raw,8.66458135e+05,1755,319
Raw,9.89648867e+05,1756,319
Raw,8.4468084e+05,1757,319
Raw,4.10065625e+05,1758,319
Raw,9.8670391e+05,1759,319
Raw,9.82307194e+05,1760,319
Raw,5.002657e+05,1761,319
Raw,9.53136538e+05,1762,319
Raw,1.44403484e+05,1763,319
Raw,1.08987468e+06,1764,319
Raw,8.03149548e+05,1765,319
Raw,9.65253239e+05,1766,319
Raw,7.60539867e+05,1767,319
Raw,8.74108464e+05,1768,319
Raw,3.9119787e+05,1769,319
Raw,6.6231814e+05,1771,319
Raw,8.81128006e+05,1772,319
Raw,9.58293336e+05,1773,319
Raw,4.71568454e+05,1774,319
Raw,4.47318108e+05,1775,319
Raw,4.02107738e+05,1776,319
Raw,1.00361315e+06,1777,319
Raw,9.08541708e+05,1778,319
Raw,6.32333515e+05,1779,319
Raw,3.50360473e+05,1780,319
Raw,8.86298846e+05,1781,319
Raw,8.90220616e+05,1782,319
Raw,8.92255467e+05,1783,319
Raw,8.50582707e+05,1784,319
Raw,7.94020995e+05,1785,319
Raw,1.46945944e+05,1787,319
Raw,5.71496473e+05,1788,319
Raw,6.2870569e+05,1789,319
Raw,1.11176997e+06,1790,319
Raw,8.44114098e+05,1791,319
Raw,4.34538401e+05,1792,319
Raw,9.47409117e+05,1793,319
Raw,9.55251383e+05,1794,319
Raw,1.57208688e+05,1795,319
Raw,1.02693459e+06,1796,319
Raw,7.85447927e+05,1797,319
Raw,9.53093831e+05,1798,319
Raw,9.14735497e+05,1799,319
Raw,8.34604496e+05,1800,319
Raw,5.8064731e+05,1801,319
Raw,8.44145857e+05,1802,319
Raw,8.43190656e+05,1804,319
Raw,9.75908759e+05,1805,319
Raw,8.840969e+05,1806,319
Raw,7.82809601e+05,1809,319
Raw,1.058875e+06,1810,319
Raw,1.07997251e+06,1811,319
Raw,8.29327869e+05,1812,319
Raw,8.8331025e+05,1814,319
Raw,9.22058727e+05,1815,319
Raw,5.60041434e+05,1816,319
Raw,8.65531302e+05,1817,319
Raw,7.02440955e+05,1818,319
Raw,6.85925049e+05,1819,319
Raw,6.21965392e+05,1820,319
Raw,9.21391324e+05,1821,319
Raw,9.76237464e+05,1822,319
Raw,6.69098078e+05,1823,319
Raw,9.59756651e+05,1824,319
Raw,4.06082923e+05,1825,319
Raw,9.51424562e+05,1826,319
Raw,9.13183845e+05,1827,319
Raw,1.03673558e+06,1828,319
Raw,9.61027686e+05,1829,319
Raw,5.26804674e+05,1830,319
Raw,8.20176462e+05,1831,319
Raw,1.15811531e+06,1832,319
Raw,3.80998294e+05,1833,319
Raw,6.32059156e+05,1834,319
Raw,3.07149319e+05,1835,319
Raw,1.06810843e+06,1836,319
Raw,1.10197714e+06,1837,319
Raw,9.9592517e+05,1838,319
Raw,8.97207321e+05,1839,319
Raw,9.46665468e+05,1840,319
Raw,9.08219101e+05,1841,319
Raw,1.04182145e+06,1842,319
Raw,8.88729402e+05,1843,319
Raw,5.95267483e+05,1844,319
Raw,5.20833234e+05,1845,319
Raw,9.73380685e+05,1846,319
Raw,1.07841026e+06,1847,319
Raw,8.09896674e+05,1848,319
Raw,9.49598669e+05,1849,319
Raw,7.44464786e+05,1850,319
Raw,1.01178055e+06,1851,319
Raw,8.54311169e+05,1852,319
Raw,1.04273579e+06,1853,319
Raw,2.40696998e+05,1854,319
Raw,8.8988779e+05,1855,319
Raw,7.40132371e+05,1856,319
Raw,4.43522671e+05,1857,319
Raw,5.50062598e+05,1858,319
Raw,8.3537166e+05,1859,319
Raw,8.05063602e+05,1860,319
Raw,1.00596062e+06,1861,319
Raw,1.0369197e+06,1862,319
Raw,1.00612825e+06,1863,319
Raw,1.14060681e+06,1864,319
Raw,9.333868e+05,1865,319
Raw,8.78616491e+05,1866,319
Raw,9.55143594e+05,1867,319
Raw,6.61004211e+05,1868,319
Raw,8.77379611e+05,1869,319
Raw,3.95128651e+05,1870,319
Raw,9.1810489e+05,1871,319
Raw,8.54331022e+05,1872,319
Raw,9.36103751e+05,1873,319
Raw,1.06589999e+06,1874,319
Raw,8.51062935e+05,1875,319
Raw,1.00642206e+06,1876,319
Raw,7.61563686e+05,1877,319
Raw,9.51311544e+05,1878,319
Raw,1.06425079e+06,1879,319
Raw,1.12033585e+06,1880,319
Raw,2.99087687e+05,1881,319
Raw,8.97584677e+05,1882,319
Raw,1.37265595e+05,1883,319
Raw,8.63363925e+05,1884,319
Raw,8.63240047e+05,1885,319
Raw,8.05598179e+05,1886,319
Raw,9.71033689e+05,1887,319
Raw,8.50354136e+05,1888,319
Raw,4.25001745e+05,1889,319
Raw,6.75557359e+05,1890,319
Raw,42428.297,1891,319
Raw,9.57323559e+05,1892,319
Raw,1.03296318e+06,1893,319
Raw,1.02551348e+06,1894,319
Raw,8.15195512e+05,1895,319
Raw,1.00527882e+06,1896,319
Raw,9.38505293e+05,1897,319
Raw,7.48437442e+05,1898,319
Raw,7.11528693e+05,1899,319
Raw,1.0549877e+06,1900,319
Raw,8.28639393e+05,1901,319
Raw,7.92394576e+05,1902,319
Raw,9.75430818e+05,1903,319
Raw,8.98549671e+05,1904,319
Raw,2.33486264e+05,1905,319
Raw,9.21366921e+05,1906,319
Raw,8.06476639e+05,1907,319
Raw,6.18606196e+05,1908,319
Raw,8.9810751e+05,1909,319
Raw,1.13697864e+06,1912,319
Raw,9.3902651e+05,1913,319
Raw,8.37261814e+05,1915,319
Raw,9.97091489e+05,1916,319
Raw,1.01427496e+06,1917,319
Raw,9.45790251e+05,1918,319
Raw,1.01306812e+06,1920,319
Raw,9.87833924e+05,1921,319
Raw,9.26184302e+05,1922,319
Raw,8.7698458e+05,1923,319
Raw,1.04812669e+06,1925,319
Raw,6.04407269e+05,1926,319
Raw,5.57592652e+05,1927,319
Raw,5.38943655e+05,1929,319
Raw,1.1325253e+06,1930,319
Raw,7.73062623e+05,1931,319
Raw,1.01230728e+06,1935,319
Raw,7.37291385e+05,1937,319
Raw,6.55051963e+05,1940,319
Raw,1.95405007e+06,1941,319
Raw,9.19084031e+05,1943,319
Raw,2.63644592e+06,1944,319
Raw,9.64171611e+05,1946,319
Raw,8.0724886e+05,1947,319
Raw,4.51501024e+05,1949,319
Raw,85546.7,1950,319
Raw,6.10741907e+05,1951,319
Raw,1.00941523e+06,1952,319
Raw,9.70579876e+05,1953,319
Raw,7.73023496e+05,1956,319
Raw,9.69180934e+05,1957,319
Raw,8.83673148e+05,1958,319
Raw,9.33074734e+05,1959,319
Raw,8.35849079e+05,1960,319
Raw,8.88882181e+05,1961,319
Raw,1.08783436e+05,1962,319
Raw,9.55793005e+05,1963,319
Raw,6.15108628e+05,1964,319
Raw,1.01070395e+06,1966,319
Raw,8.28349467e+05,1967,319
Raw,3.9657866e+05,1968,319
Raw,9.33489683e+05,1969,319
Raw,7.50613837e+05,1970,319
Raw,6.8945374e+05,1972,319
Raw,9.03835433e+05,1973,319
Raw,8.59515121e+05,1974,319
Raw,9.81659338e+05,1975,319
Raw,9.75360816e+05,1976,319
Raw,5.94457863e+05,1977,319
Raw,9.94212129e+05,1978,319
Raw,8.75556667e+05,1979,319
Raw,1.18044454e+06,1980,319
Raw,9.47405726e+05,1982,319
Raw,8.25765842e+05,1983,319
Raw,8.82363055e+05,1984,319
Raw,9.58601485e+05,1985,319
Raw,6.02594262e+05,1986,319
Raw,8.99296916e+05,1988,319
Raw,7.0172394e+05,1989,319
Raw,9.04382207e+05,1990,319
Raw,8.0761411e+05,1991,319
Raw,5.54405916e+05,1992,319
Raw,9.02014428e+05,1993,319
Raw,1.05375552e+06,1995,319
Raw,9.24832084e+05,1997,319
Raw,9.62166064e+05,1998,319
Raw,9.92365717e+05,1999,319
Raw,8.93469234e+05,2000,319
Raw,9.06285331e+05,2002,319
Raw,8.65176677e+05,2003,319
Raw,1.013965e+06,2004,319
Raw,3.98231379e+05,2005,319
Raw,1.26000186e+05,2006,319
Raw,7.63194879e+05,2007,319
Raw,4.90595639e+05,2008,319
Raw,1.00667913e+06,2009,319
Raw,4.05464328e+05,2010,319
Raw,6.72091325e+05,2011,319
Raw,5.12104847e+05,2012,319
Raw,2.2327353e+05,2012,319
Raw,6.5292215e+05,2013,319
Raw,5.49427158e+05,2014,319
Raw,9.40858232e+05,2015,319
Raw,1.57791808e+05,2016,319
Raw,1.04201263e+06,2018,319
Raw,36275.296,2018,319
Raw,8.50941265e+05,2019,319
Raw,2.46434568e+05,2020,319
Raw,6.17323395e+05,2021,319
Raw,9.53276833e+05,2023,319
Raw,9.28466154e+05,2024,319
Raw,1.52455141e+05,2027,319
Raw,5.97964383e+05,2028,319
Raw,9.1560577e+05,2029,319
Raw,7.46484095e+05,2030,319
Raw,9.68981346e+05,2031,319
Raw,9.25490692e+05,2032,319
Raw,8.63978806e+05,2033,319
Raw,9.97450682e+05,2034,319
Raw,9.29256128e+05,2036,319
Raw,9.81355085e+05,2037,319
Raw,7.91663251e+05,2038,319
Raw,1.0072477e+06,2039,319
Raw,9.39971026e+05,2041,319
Raw,5.95310701e+05,2042,319
Raw,1.0916387e+06,2043,319
Raw,1.90887381e+05,2044,319
Raw,2.90148757e+05,2045,319
Raw,7.64056579e+05,2046,319
Raw,1.66616529e+05,2047,319
Raw,9.68234921e+05,2048,319
Raw,1.60446418e+06,2048,319
Raw,7.08689404e+05,2049,319
Raw,9.43564695e+05,2050,319
Raw,8.08500574e+05,2051,319
Raw,9.62557046e+05,2052,319
Raw,8.90830543e+05,2053,319
Raw,8.09179137e+05,2054,319
Raw,8.3248033e+05,2056,319
Raw,4.72257361e+05,2057,319
Raw,1.13105036e+06,2058,319
Raw,9.09857913e+05,2059,319
Raw,9.13311634e+05,2061,319
Raw,1.01810856e+06,2062,319
Raw,1.01673595e+06,2063,319
Raw,9.05100861e+05,2064,319
Raw,1.03791974e+06,2067,319
Raw,1.00488691e+06,2068,319
Raw,1.67279753e+06,2069,319
Raw,1.11252393e+06,2070,319
Raw,7.55114193e+05,2071,319
Raw,8.68607193e+05,2072,319
Raw,3.42791591e+05,2073,319
Raw,7.20940985e+05,2075,319
Raw,3.82668864e+05,2076,319
Raw,7.75094299e+05,2077,319
Raw,4.17958575e+05,2078,319
Raw,5.35756785e+05,2079,319
Raw,8.7763888e+05,2080,319
Raw,7.2996806e+05,2082,319
Raw,4.7740882e+05,2083,319
Raw,1.03099956e+06,2085,319
Raw,8.95659105e+05,2086,319
Raw,5.9932065e+05,2087,319
Raw,7.83016974e+05,2088,319
Raw,3.91917311e+05,2089,319
Raw,9.92118804e+05,2090,319
Raw,1.0268074e+06,2092,319
Raw,9.3998423e+05,2093,319
Raw,8.40935695e+05,2094,319
Raw,9.17866122e+05,2095,319
Raw,6.96622324e+05,2096,319
Raw,6.836811e+05,2097,319
Raw,1.03324e+06,2099,319
Raw,8.77480938e+05,2100,319
Raw,1.03730499e+06,2101,319
Raw,8.77665275e+05,2102,319
Raw,6.80857681e+05,2103,319
Raw,9.20383767e+05,2104,319
Raw,6.68684333e+05,2105,319
Raw,1.97470311e+05,2107,319
Raw,1.11610355e+06,2108,319
Raw,8.67516509e+05,2109,319
Raw,8.35472903e+05,2110,319
Raw,8.65322117e+05,2111,319
Raw,5.80837962e+05,2112,319
Raw,8.7997225e+05,2114,319
Raw,9.85104943e+05,2115,319
Raw,3.94311022e+05,2116,319
Raw,5.39782683e+05,2117,319
Raw,1.00658288e+06,2119,319
Raw,7.97251063e+05,2120,319
Raw,9.08718873e+05,2121,319
Raw,9.89004015e+05,2122,319
Raw,9.626417e+05,2123,319
Raw,9.67111589e+05,2124,319
Raw,1.0739891e+06,2125,319
Raw,5.69322441e+05,2126,319
Raw,9.09832649e+05,2127,319
Raw,6.20990927e+05,2128,319
Raw,8.99005268e+05,2129,319
Raw,1.02898937e+06,2131,319
Raw,6.17117329e+05,2132,319
Raw,8.43091023e+05,2133,319
Raw,8.04673097e+05,2134,319
Raw,9.70663755e+05,2135,319
Raw,4.77656338e+05,2136,319
Raw,1.04548597e+06,2137,319
Raw,8.86296618e+05,2138,319
Raw,7.66743317e+05,2139,319
Raw,9.46254996e+05,2140,319
Raw,8.73496967e+05,2141,319
Raw,8.29869619e+05,2143,319
Raw,1.04054448e+06,2144,319
Raw,6.73516461e+05,2145,319
Raw,5.28959431e+05,2146,319
Raw,2.49355605e+05,2146,319
Raw,9.90407914e+05,2147,319
Raw,8.94769631e+05,2148,319
Raw,8.83063964e+05,2149,319
Raw,1.31853591e+06,2150,319
Raw,6.30566452e+05,2151,319
Raw,1.48034438e+05,2152,319
Raw,8.13142766e+05,2155,319
Raw,9.70837237e+05,2156,319
Raw,1.03062713e+06,2158,319
Raw,8.15087838e+05,2159,319
Raw,8.73387552e+05,2160,319
Raw,1.07177191e+06,2161,319
Raw,8.8173381e+05,2162,319
Raw,1.02843366e+06,2163,319
Raw,9.35354871e+05,2164,319
Raw,9.33063906e+05,2165,319
Raw,8.42238334e+05,2166,319
Raw,7.37209907e+05,2167,319
Raw,7.59714955e+05,2168,319
Raw,9.41904913e+05,2169,319
Raw,1.07879811e+06,2170,319
Raw,4.70995392e+05,2171,319
Raw,6.73274945e+05,2173,319
Raw,1.04540733e+06,2175,319
Raw,7.91627245e+05,2176,319
Raw,8.88591132e+05,2177,319
Raw,1.0228572e+06,2178,319
Raw,7.84548283e+05,2179,319
Raw,1.08965379e+06,2180,319
Raw,8.88953434e+05,2181,319
Raw,7.73210711e+05,2182,319
Raw,8.2686294e+05,2183,319
Raw,1.0099835e+06,2184,319
Raw,8.91355089e+05,2185,319
Raw,9.91849851e+05,2186,319
Raw,6.42803496e+05,2187,319
Raw,3.10751209e+05,2187,319
Raw,9.18994007e+05,2188,319
Raw,9.60704116e+05,2189,319
Raw,9.05859925e+05,2190,319
Raw,8.65492928e+05,2191,319
Raw,1.07496604e+06,2192,319
Raw,1.24277378e+06,2194,319
Raw,3.02305517e+05,2196,319
Raw,9.8786577e+05,2197,319
Raw,8.11138966e+05,2198,319
Raw,1.01456403e+06,2199,319
Raw,9.39879091e+05,2200,319
Raw,5.51253839e+05,2201,319
Raw,5.9233732e+05,2202,319
Raw,6.06820049e+05,2203,319
Raw,7.84358052e+05,2204,319
Raw,1.04802679e+06,2205,319
Raw,8.16656412e+05,2206,319
Raw,4.75249776e+05,2207,319
Raw,9.19007694e+05,2208,319
Raw,6.34013263e+05,2209,319
Raw,8.6053717e+05,2210,319
Raw,1.03371179e+06,2211,319
Raw,1.5522436e+05,2212,319
Raw,7.73293162e+05,2213,319
Raw,8.79229611e+05,2214,319
Raw,6.03641853e+05,2215,319
Raw,6.35220505e+05,2216,319
Raw,8.67523711e+05,2217,319
Raw,9.5715664e+05,2218,319
Raw,1.04660985e+06,2219,319
Raw,9.74149927e+05,2220,319
Raw,1.7416872e+05,2221,319
Raw,9.75756325e+05,2222,319
Raw,6.3761899e+05,2223,319
Raw,1.08431494e+06,2224,319
Raw,1.0374921e+06,2225,319
Raw,6.11574953e+05,2226,319
Raw,1.06581185e+06,2227,319
Raw,1.05273884e+06,2228,319
Raw,8.05148074e+05,2229,319
Raw,9.38355445e+05,2230,319
Raw,7.74577952e+05,2231,319
Raw,1.50902299e+05,2232,319
Raw,3.63353971e+05,2233,319
Raw,7.57820581e+05,2234,319
Raw,9.84616011e+05,2235,319
Raw,8.93895332e+05,2236,319
Raw,1.761363e+05,2237,319
Raw,8.82332826e+05,2238,319
Raw,8.65662639e+05,2239,319
Raw,1.02430904e+06,2240,319
Raw,3.01277272e+05,2240,319
Raw,8.44068636e+05,2241,319
Raw,8.0990926e+05,2242,319
Raw,3.2038548e+05,2243,319
Raw,7.69453503e+05,2244,319
Raw,8.64916637e+05,2245,319
Raw,1.0863425e+06,2246,319
Raw,6.83095881e+05,2247,319
Raw,6.79067931e+05,2248,319
Raw,1.11549034e+06,2249,319
Raw,9.48604841e+05,2250,319
Raw,1.02452371e+06,2251,319
Raw,1.02321973e+06,2252,319
Raw,1.03998276e+06,2253,319
Raw,7.35128339e+05,2254,319
Raw,9.28555809e+05,2255,319
Raw,9.64084678e+05,2256,319
Raw,9.11101533e+05,2257,319
Raw,9.65784074e+05,2258,319
Raw,1.71351287e+06,2259,319
Raw,6.20575021e+05,2260,319
Raw,7.760583e+05,2261,319
Raw,9.17200427e+05,2262,319
Raw,9.25804975e+05,2263,319
Raw,7.18096786e+05,2264,319
Raw,4.33341063e+05,2265,319
Raw,9.4658899e+05,2266,319
Raw,1.08760089e+06,2267,319
Raw,9.25043909e+05,2268,319
Raw,1.08882495e+06,2269,319
Raw,8.85235593e+05,2270,319
Raw,6.51839669e+05,2271,319
Raw,5.7943244e+05,2272,319
Raw,8.21732324e+05,2273,319
Raw,9.3616644e+05,2274,319
Raw,4.01750406e+05,2275,319
Raw,3.91481546e+05,2276,319
Raw,8.20472271e+05,2277,319
Raw,1.03486917e+06,2278,319
Raw,7.08490442e+05,2279,319
Raw,8.54857739e+05,2280,319
Raw,9.29144754e+05,2281,319
Raw,9.69001612e+05,2282,319
Raw,8.19471545e+05,2283,319
Raw,8.49558226e+05,2284,319
Raw,9.54289332e+05,2285,319
Raw,9.93939928e+05,2288,319
