Cut?,Counts,eventNumber,runNumber
Raw,678,2,323
Raw,440,5,323
Raw,236,10,323
Raw,61,11,323
Raw,231,13,323
Raw,304,19,323
Raw,565,23,323
Raw,583,25,323
Raw,200,26,323
Raw,298,30,323
Raw,485,39,323
Raw,222,39,323
Raw,222,40,323
Raw,358,54,323
Raw,338,54,323
Raw,538,59,323
Raw,209,63,323
Raw,246,67,323
Raw,370,82,323
Raw,594,88,323
Raw,495,93,323
Raw,464,94,323
Raw,152,101,323
Raw,312,116,323
Raw,15,116,323
Raw,100,118,323
Raw,235,120,323
Raw,212,121,323
Raw,4,124,323
Raw,226,125,323
Raw,180,125,323
Raw,180,135,323
Raw,237,138,323
Raw,197,138,323
Raw,153,140,323
Raw,428,149,323
Raw,428,161,323
Raw,229,166,323
Raw,153,190,323
Raw,192,208,323
Raw,139,259,323
Raw,186,267,323
Raw,220,279,323
Raw,224,291,323
Raw,187,303,323
Raw,129,315,323
Raw,169,317,323
Raw,224,324,323
Raw,47,339,323
Raw,233,341,323
Raw,372,342,323
Raw,254,344,323
Raw,258,352,323
Raw,129,352,323
Raw,229,364,323
Raw,131,379,323
Raw,209,394,323
Raw,265,400,323
Raw,118,415,323
Raw,213,418,323
Raw,129,439,323
Raw,199,440,323
Raw,446,442,323
Raw,388,443,323
Raw,166,446,323
Raw,110,469,323
Raw,257,484,323
Raw,252,487,323
Raw,471,489,323
Raw,211,490,323
Raw,317,491,323
Raw,507,494,323
Raw,419,499,323
Raw,134,502,323
Raw,209,504,323
Raw,134,513,323
Raw,215,518,323
Raw,156,520,323
Raw,244,556,323
Raw,215,561,323
Raw,354,563,323
Raw,144,568,323
Raw,223,578,323
Raw,240,591,323
Raw,298,593,323
Raw,211,598,323
Raw,196,599,323
Raw,228,600,323
Raw,60,600,323
Raw,177,613,323
Raw,183,621,323
Raw,151,643,323
Raw,46,643,323
Raw,157,656,323
Raw,197,657,323
Raw,195,670,323
Raw,56,670,323
Raw,261,681,323
Raw,194,689,323
Raw,277,693,323
Raw,164,705,323
Raw,159,711,323
Raw,468,712,323
Raw,16,712,323
Raw,181,713,323
Raw,287,716,323
Raw,240,727,323
Raw,230,732,323
Raw,119,734,323
Raw,21,737,323
Raw,224,739,323
Raw,106,744,323
Raw,446,755,323
Raw,235,758,323
Raw,109,767,323
Raw,192,775,323
Raw,232,801,323
Raw,69,808,323
Raw,202,811,323
Raw,230,814,323
Raw,177,814,323
Raw,160,822,323
Raw,93,824,323
Raw,472,827,323
Raw,240,842,323
Raw,96,849,323
Raw,245,850,323
Raw,235,854,323
Raw,204,863,323
Raw,440,866,323
Raw,182,873,323
Raw,219,873,323
Raw,249,879,323
Raw,421,881,323
Raw,261,885,323
Raw,227,891,323
Raw,154,891,323
Raw,131,897,323
Raw,547,904,323
Raw,493,912,323
Raw,72,921,323
Raw,223,926,323
Raw,206,931,323
Raw,233,942,323
Raw,638,950,323
Raw,194,963,323
Raw,150,965,323
Raw,192,973,323
Raw,479,980,323
Raw,229,985,323
Raw,148,986,323
Raw,136,987,323
Raw,203,997,323
Raw,203,1000,323
Raw,204,1006,323
Raw,387,1009,323
Raw,201,1015,323
Raw,189,1017,323
Raw,189,1018,323
Raw,61,1022,323
Raw,412,1025,323
Raw,251,1034,323
Raw,229,1034,323
Raw,115,1035,323
Raw,156,1049,323
Raw,128,1066,323
Raw,382,1068,323
Raw,178,1071,323
Raw,198,1087,323
Raw,225,1094,323
Raw,186,1100,323
Raw,233,1115,323
Raw,219,1118,323
Raw,206,1118,323
Raw,259,1122,323
Raw,238,1129,323
Raw,235,1137,323
Raw,397,1150,323
Raw,223,1163,323
Raw,219,1173,323
Raw,186,1179,323
Raw,223,1183,323
Raw,222,1189,323
Raw,49,1195,323
Raw,133,1198,323
Raw,240,1203,323
Raw,254,1208,323
Raw,438,1212,323
Raw,499,1222,323
Raw,158,1225,323
Raw,196,1226,323
Raw,98,1226,323
Raw,239,1230,323
Raw,209,1233,323
Raw,433,1238,323
Raw,53,1252,323
Raw,439,1262,323
Raw,205,1266,323
Raw,224,1271,323
Raw,381,1298,323
Raw,228,1301,323
Raw,282,1305,323
Raw,426,1308,323
Raw,73,1309,323
Raw,77,1314,323
Raw,210,1315,323
Raw,122,1324,323
Raw,402,1325,323
Raw,247,1332,323
Raw,200,1357,323
Raw,207,1387,323
Raw,226,1387,323
Raw,195,1399,323
Raw,121,1404,323
Raw,232,1404,323
Raw,284,1405,323
Raw,243,1408,323
Raw,184,1416,323
Raw,117,1416,323
Raw,202,1419,323
Raw,462,1431,323
Raw,90,1438,323
Raw,82,1442,323
Raw,564,1448,323
Raw,187,1454,323
Raw,9,1477,323
Raw,191,1478,323
Raw,172,1482,323
Raw,221,1486,323
Raw,210,1500,323
Raw,52,1505,323
Raw,349,1518,323
Raw,385,1537,323
Raw,391,1538,323
Raw,227,1553,323
Raw,147,1553,323
Raw,131,1557,323
Raw,654,1566,323
Raw,52,1571,323
Raw,231,1572,323
Raw,187,1582,323
Raw,75,1583,323
Raw,401,1585,323
Raw,299,1589,323
Raw,597,1593,323
Raw,142,1599,323
Raw,233,1609,323
Raw,247,1610,323
Raw,178,1612,323
Raw,196,1626,323
Raw,97,1626,323
Raw,421,1628,323
Raw,218,1636,323
Raw,452,1639,323
Raw,147,1641,323
Raw,396,1650,323
Raw,204,1661,323
Raw,243,1665,323
Raw,449,1667,323
Raw,204,1670,323
Raw,244,1675,323
Raw,219,1675,323
Raw,218,1682,323
Raw,158,1683,323
Raw,424,1705,323
Raw,144,1705,323
Raw,187,1708,323
Raw,73,1714,323
Raw,464,1717,323
Raw,230,1733,323
Raw,230,1745,323
Raw,196,1749,323
Raw,165,1749,323
Raw,235,1760,323
Raw,230,1761,323
Raw,204,1767,323
Raw,169,1768,323
Raw,175,1770,323
Raw,244,1776,323
Raw,90,1780,323
Raw,175,1787,323
Raw,103,1800,323
Raw,147,1803,323
Raw,108,1807,323
Raw,151,1822,323
Raw,221,1826,323
Raw,238,1827,323
Raw,160,1831,323
Raw,220,1831,323
Raw,231,1840,323
Raw,68,1860,323
Raw,240,1867,323
Raw,174,1869,323
Raw,214,1869,323
Raw,236,1875,323
Raw,252,1887,323
Raw,518,1888,323
Raw,120,1890,323
Raw,195,1903,323
Raw,135,1903,323
Raw,225,1910,323
Raw,234,1925,323
Raw,291,1926,323
Raw,247,1928,323
Raw,9,1930,323
Raw,228,1934,323
Raw,229,1934,323
Raw,210,1938,323
Raw,212,1938,323
Raw,239,1950,323
Raw,152,1950,323
Raw,166,1955,323
Raw,617,1957,323
Raw,30,2000,323
Raw,12,2000,323
Raw,186,2015,323
Raw,223,2015,323
Raw,116,2022,323
Raw,248,2025,323
Raw,229,2040,323
Raw,669,2048,323
Raw,222,2055,323
Raw,213,2065,323
Raw,138,2068,323
Raw,496,2076,323
Raw,214,2082,323
Raw,213,2100,323
Raw,132,2119,323
Raw,222,2120,323
Raw,101,2122,323
Raw,63,2124,323
Raw,205,2128,323
Raw,409,2129,323
Raw,220,2136,323
Raw,100,2143,323
Raw,206,2157,323
Raw,124,2159,323
Raw,252,2165,323
Raw,243,2178,323
Raw,28,2178,323
Raw,430,2184,323
Raw,303,2186,323
Raw,121,2187,323
Raw,212,2192,323
Raw,159,2194,323
Raw,126,2238,323
Raw,404,2252,323
Raw,93,2268,323
Raw,230,2270,323
Raw,209,2271,323
Raw,200,2275,323
Raw,125,2280,323
Raw,199,2284,323
Raw,334,2324,323
Raw,236,2358,323
Raw,204,2358,323
Raw,177,2361,323
Raw,242,2366,323
Raw,173,2369,323
Raw,220,2382,323
Raw,642,2384,323
Raw,436,2390,323
Raw,170,2390,323
Raw,192,2391,323
Raw,97,2394,323
Raw,231,2401,323
Raw,184,2402,323
Raw,220,2408,323
Raw,160,2409,323
Raw,229,2411,323
Raw,229,2422,323
Raw,193,2432,323
Raw,258,2436,323
Raw,180,2447,323
Raw,413,2463,323
Raw,619,2484,323
Raw,342,2490,323
Raw,103,2499,323
Raw,247,2504,323
Raw,240,2509,323
Raw,106,2515,323
Raw,116,2519,323
Raw,255,2533,323
Raw,234,2542,323
Raw,204,2552,323
Raw,246,2557,323
Raw,167,2558,323
Raw,228,2562,323
Raw,239,2564,323
Raw,220,2568,323
Raw,46,2589,323
Raw,205,2590,323
Raw,187,2590,323
Raw,371,2606,323
Raw,262,2606,323
Raw,181,2626,323
Raw,132,2642,323
Raw,95,2649,323
Raw,427,2649,323
Raw,119,2668,323
Raw,318,2671,323
Raw,427,2673,323
Raw,264,2681,323
Raw,369,2689,323
Raw,223,2690,323
Raw,204,2699,323
Raw,208,2708,323
Raw,259,2714,323
Raw,328,2717,323
Raw,318,2721,323
Raw,119,2768,323
Raw,214,2773,323
Raw,92,2775,323
Raw,276,2779,323
Raw,254,2783,323
Raw,208,2785,323
Raw,233,2793,323
Raw,156,2798,323
Raw,203,2812,323
Raw,233,2815,323
Raw,209,2824,323
Raw,197,2847,323
Raw,243,2870,323
Raw,189,2875,323
Raw,231,2877,323
Raw,399,2885,323
Raw,166,2910,323
Raw,154,2911,323
Raw,201,2915,323
Raw,229,2916,323
Raw,182,2917,323
Raw,159,2917,323
Raw,238,2925,323
Raw,32,2925,323
Raw,194,2928,323
Raw,113,2943,323
Raw,75,2958,323
Raw,31,2959,323
Raw,420,2961,323
Raw,87,2963,323
Raw,145,2965,323
Raw,231,2977,323
Raw,175,2978,323
Raw,73,2988,323
Raw,433,2991,323
Raw,242,2994,323
Raw,234,3012,323
Raw,222,3013,323
Raw,228,3019,323
Raw,216,3031,323
Raw,216,3034,323
Raw,220,3035,323
Raw,95,3035,323
Raw,144,3047,323
Raw,223,3047,323
Raw,234,3052,323
Raw,202,3052,323
Raw,221,3058,323
Raw,163,3074,323
Raw,158,3075,323
Raw,168,3075,323
Raw,195,3097,323
Raw,250,3099,323
Raw,236,3118,323
Raw,233,3137,323
Raw,118,3142,323
Raw,125,3142,323
Raw,140,3144,323
Raw,233,3144,323
Raw,221,3157,323
Raw,210,3157,323
Raw,365,3162,323
Raw,233,3166,323
Raw,246,3186,323
Raw,232,3188,323
Raw,263,3190,323
Raw,132,3195,323
Raw,208,3195,323
Raw,123,3197,323
Raw,431,3198,323
Raw,482,3199,323
Raw,435,3203,323
Raw,218,3227,323
Raw,289,3231,323
Raw,368,3236,323
Raw,430,3239,323
Raw,87,3239,323
Raw,170,3240,323
Raw,245,3260,323
Raw,182,3266,323
Raw,110,3266,323
Raw,167,3266,323
Raw,229,3275,323
Raw,241,3288,323
Raw,219,3310,323
Raw,173,3314,323
Raw,234,3329,323
Raw,214,3331,323
Raw,228,3342,323
Raw,343,3355,323
Raw,194,3359,323
Raw,224,3370,323
Raw,288,3385,323
Raw,150,3394,323
Raw,216,3395,323
Raw,611,3396,323
Raw,424,3402,323
Raw,150,3408,323
Raw,226,3416,323
Raw,237,3418,323
Raw,210,3432,323
Raw,115,3436,323
Raw,259,3438,323
Raw,227,3449,323
Raw,227,3458,323
Raw,197,3460,323
Raw,196,3465,323
Raw,467,3471,323
Raw,260,3478,323
Raw,592,3483,323
Raw,234,3499,323
Raw,287,3510,323
Raw,221,3513,323
Raw,236,3519,323
Raw,109,3524,323
Raw,382,3535,323
Raw,207,3537,323
Raw,63,3545,323
Raw,228,3549,323
Raw,206,3551,323
Raw,171,3552,323
Raw,132,3556,323
Raw,251,3557,323
Raw,227,3558,323
Raw,175,3579,323
Raw,169,3581,323
Raw,214,3595,323
Raw,236,3599,323
Raw,208,3601,323
Raw,104,3613,323
Raw,177,3656,323
Raw,63,3661,323
Raw,136,3668,323
Raw,245,3677,323
Raw,213,3685,323
Raw,667,3703,323
Raw,125,3704,323
Raw,231,3709,323
Raw,194,3715,323
Raw,104,3719,323
Raw,348,3725,323
Raw,208,3727,323
Raw,235,3727,323
Raw,221,3732,323
Raw,201,3734,323
Raw,245,3737,323
Raw,231,3738,323
Raw,218,3739,323
Raw,249,3740,323
Raw,172,3746,323
Raw,161,3748,323
Raw,222,3758,323
Raw,481,3759,323
Raw,68,3772,323
Raw,224,3794,323
Raw,62,3796,323
Raw,234,3801,323
Raw,430,3807,323
Raw,234,3815,323
Raw,216,3817,323
Raw,200,3836,323
Raw,207,3837,323
Raw,229,3838,323
Raw,162,3869,323
Raw,166,3875,323
Raw,438,3877,323
Raw,219,3884,323
Raw,453,3891,323
Raw,220,3902,323
Raw,112,3902,323
Raw,127,3924,323
Raw,236,3930,323
Raw,226,3935,323
Raw,224,3942,323
Raw,210,3946,323
Raw,172,3946,323
Raw,228,3948,323
Raw,198,3973,323
Raw,221,3980,323
Raw,378,3981,323
Raw,236,3983,323
Raw,133,3987,323
Raw,310,3990,323
Raw,226,3994,323
Raw,145,3996,323
Raw,218,4006,323
Raw,189,4009,323
Raw,234,4012,323
Raw,130,4013,323
Raw,198,4018,323
Raw,436,4029,323
Raw,60,4029,323
Raw,245,4047,323
Raw,491,4063,323
Raw,153,4067,323
Raw,374,4082,323
Raw,256,4105,323
Raw,209,4105,323
Raw,249,4113,323
Raw,225,4121,323
Raw,206,4134,323
Raw,94,4134,323
Raw,312,4142,323
Raw,215,4147,323
Raw,209,4149,323
Raw,224,4163,323
Raw,489,4242,323
Raw,124,4260,323
Raw,96,4267,323
Raw,427,4272,323
Raw,215,4286,323
Raw,264,4287,323
Raw,243,4309,323
Raw,35,4309,323
Raw,207,4315,323
Raw,175,4316,323
Raw,119,4343,323
Raw,23,4347,323
Raw,181,4352,323
Raw,215,4353,323
Raw,206,4361,323
Raw,291,4367,323
Raw,596,4368,323
Raw,101,4376,323
Raw,217,4377,323
Raw,261,4379,323
Raw,233,4407,323
Raw,232,4430,323
Raw,238,4436,323
Raw,534,4442,323
Raw,175,4444,323
Raw,220,4449,323
Raw,184,4452,323
Raw,230,4455,323
Raw,211,4494,323
Raw,229,4498,323
Raw,242,4500,323
Raw,152,4514,323
Raw,373,4516,323
Raw,208,4533,323
Raw,213,4562,323
Raw,187,4569,323
Raw,212,4569,323
Raw,220,4583,323
Raw,230,4584,323
Raw,233,4590,323
Raw,214,4605,323
Raw,214,4613,323
Raw,136,4626,323
Raw,31,4626,323
Raw,207,4647,323
Raw,212,4653,323
Raw,138,4687,323
Raw,111,4688,323
Raw,236,4727,323
Raw,235,4740,323
Raw,62,4741,323
Raw,655,4750,323
Raw,389,4757,323
Raw,427,4784,323
Raw,228,4806,323
Raw,175,4811,323
Raw,384,4820,323
Raw,235,4832,323
Raw,167,4840,323
Raw,254,4852,323
Raw,232,4867,323
Raw,49,4872,323
Raw,214,4883,323
Raw,118,4899,323
Raw,141,4902,323
Raw,216,4915,323
Raw,238,4924,323
Raw,71,4925,323
Raw,222,4933,323
Raw,207,4944,323
Raw,136,4952,323
Raw,236,4957,323
Raw,209,4958,323
Raw,227,4964,323
Raw,231,4970,323
Raw,208,4970,323
Raw,391,4972,323
Raw,181,4983,323
Raw,102,4984,323
Raw,254,4986,323
Raw,238,4999,323
Raw,216,5006,323
Raw,432,5015,323
Raw,37,5015,323
Raw,227,5036,323
Raw,212,5042,323
Raw,224,5043,323
Raw,220,5045,323
Raw,33,5048,323
Raw,222,5060,323
Raw,178,5069,323
Raw,99,5077,323
Raw,231,5081,323
Raw,261,5095,323
Raw,207,5097,323
Raw,209,5108,323
Raw,220,5135,323
Raw,225,5137,323
Raw,174,5140,323
Raw,203,5145,323
Raw,194,5148,323
Raw,228,5162,323
Raw,210,5172,323
Raw,170,5176,323
Raw,249,5179,323
Raw,204,5180,323
Raw,124,5187,323
Raw,332,5188,323
Raw,98,5195,323
Raw,217,5196,323
Raw,651,5203,323
Raw,387,5207,323
Raw,176,5209,323
Raw,166,5209,323
Raw,237,5213,323
Raw,415,5216,323
Raw,182,5219,323
Raw,204,5220,323
Raw,672,5224,323
Raw,230,5233,323
Raw,216,5239,323
Raw,159,5251,323
Raw,212,5252,323
Raw,201,5254,323
Raw,82,5267,323
Raw,214,5269,323
Raw,114,5272,323
Raw,122,5276,323
Raw,84,5280,323
Raw,236,5282,323
Raw,202,5283,323
Raw,239,5301,323
Raw,179,5303,323
Raw,97,5316,323
Raw,196,5317,323
Raw,191,5338,323
Raw,158,5344,323
Raw,77,5344,323
Raw,212,5369,323
Raw,336,5372,323
Raw,422,5383,323
Raw,546,5390,323
Raw,236,5418,323
Raw,225,5421,323
Raw,254,5424,323
Raw,210,5430,323
Raw,471,5434,323
Raw,215,5435,323
Raw,228,5459,323
Raw,127,5461,323
Raw,217,5465,323
Raw,216,5483,323
Raw,251,5500,323
Raw,219,5501,323
Raw,220,5501,323
Raw,149,5514,323
Raw,117,5525,323
Raw,238,5538,323
Raw,103,5545,323
Raw,107,5546,323
Raw,204,5581,323
Raw,178,5583,323
Raw,55,5587,323
Raw,233,5601,323
Raw,208,5610,323
Raw,108,5610,323
Raw,248,5625,323
Raw,135,5634,323
Raw,180,5635,323
Raw,212,5662,323
Raw,132,5666,323
Raw,32,5672,323
Raw,173,5673,323
Raw,114,5686,323
Raw,77,5689,323
Raw,212,5702,323
Raw,177,5704,323
Raw,236,5709,323
Raw,161,5711,323
Raw,186,5713,323
Raw,139,5726,323
Raw,165,5734,323
Raw,224,5743,323
Raw,407,5746,323
Raw,617,5747,323
Raw,146,5748,323
Raw,247,5758,323
Raw,190,5775,323
Raw,179,5779,323
Raw,194,5813,323
Raw,214,5814,323
Raw,86,5814,323
Raw,140,5854,323
Raw,64,5854,323
Raw,107,5870,323
Raw,106,5871,323
Raw,212,5873,323
Raw,234,5873,323
Raw,365,5879,323
Raw,135,5881,323
Raw,160,5894,323
Raw,242,5894,323
Raw,222,5897,323
Raw,227,5912,323
Raw,24,5917,323
Raw,5,5918,323
Raw,198,5934,323
Raw,228,5942,323
Raw,68,5947,323
Raw,234,5984,323
Raw,211,5986,323
Raw,223,5989,323
Raw,236,5999,323
Raw,222,6019,323
Raw,244,6022,323
Raw,230,6027,323
Raw,211,6027,323
Raw,220,6030,323
Raw,365,6037,323
Raw,114,6052,323
Raw,448,6053,323
Raw,231,6053,323
Raw,277,6057,323
Raw,224,6065,323
Raw,177,6069,323
Raw,191,6080,323
Raw,298,6081,323
Raw,181,6082,323
Raw,683,6086,323
Raw,46,6102,323
Raw,171,6113,323
Raw,130,6113,323
Raw,228,6122,323
Raw,143,6124,323
Raw,178,6126,323
Raw,210,6134,323
Raw,243,6141,323
Raw,222,6147,323
Raw,69,6150,323
Raw,232,6155,323
Raw,123,6171,323
Raw,220,6180,323
Raw,107,6184,323
Raw,240,6185,323
Raw,245,6201,323
Raw,182,6213,323
Raw,216,6213,323
Raw,176,6222,323
Raw,223,6227,323
Raw,449,6228,323
Raw,67,6236,323
Raw,447,6237,323
Raw,235,6243,323
Raw,49,6246,323
Raw,232,6248,323
Raw,232,6263,323
Raw,245,6264,323
Raw,171,6265,323
Raw,552,6273,323
Raw,225,6280,323
Raw,218,6280,323
Raw,250,6289,323
Raw,106,6302,323
Raw,64,6307,323
Raw,192,6328,323
Raw,540,6337,323
Raw,239,6338,323
Raw,71,6355,323
Raw,329,6357,323
Raw,225,6357,323
Raw,189,6369,323
Raw,255,6380,323
Raw,203,6392,323
Raw,57,6420,323
Raw,169,6430,323
Raw,221,6432,323
Raw,208,6433,323
Raw,116,6433,323
Raw,211,6448,323
Raw,77,6448,323
Raw,222,6456,323
Raw,19,6456,323
Raw,249,6457,323
Raw,227,6502,323
Raw,263,6520,323
Raw,250,6520,323
Raw,492,6522,323
Raw,195,6532,323
Raw,229,6536,323
Raw,204,6540,323
Raw,470,6554,323
Raw,483,6555,323
Raw,250,6557,323
Raw,246,6563,323
Raw,236,6563,323
Raw,193,6567,323
Raw,251,6568,323
Raw,250,6570,323
Raw,213,6595,323
Raw,171,6597,323
Raw,425,6604,323
Raw,231,6607,323
Raw,133,6620,323
Raw,186,6623,323
Raw,211,6625,323
Raw,234,6627,323
Raw,226,6627,323
Raw,242,6628,323
Raw,211,6628,323
Raw,426,6641,323
Raw,130,6652,323
Raw,242,6655,323
Raw,39,6669,323
Raw,135,6673,323
Raw,233,6675,323
Raw,231,6677,323
Raw,248,6690,323
Raw,650,6701,323
Raw,230,6714,323
Raw,160,6715,323
Raw,676,6722,323
Raw,110,6724,323
Raw,195,6743,323
Raw,259,6753,323
Raw,222,6762,323
Raw,144,6764,323
Raw,288,6767,323
Raw,449,6768,323
Raw,343,6771,323
Raw,148,6782,323
Raw,208,6783,323
Raw,128,6784,323
Raw,183,6791,323
Raw,185,6807,323
Raw,238,6809,323
Raw,280,6822,323
Raw,202,6824,323
Raw,183,6831,323
Raw,330,6834,323
Raw,472,6849,323
Raw,229,6852,323
Raw,233,6860,323
Raw,230,6860,323
Raw,249,6868,323
Raw,199,6872,323
Raw,327,6876,323
Raw,183,6879,323
Raw,222,6882,323
Raw,57,6882,323
Raw,266,6886,323
Raw,247,6892,323
Raw,450,6896,323
Raw,210,6905,323
Raw,183,6920,323
Raw,211,6924,323
Raw,116,6924,323
Raw,230,6928,323
Raw,233,6934,323
Raw,183,6935,323
Raw,230,6946,323
Raw,129,6947,323
Raw,233,6963,323
Raw,179,6970,323
Raw,227,6977,323
Raw,208,6988,323
Raw,229,7013,323
Raw,237,7015,323
Raw,236,7020,323
Raw,219,7028,323
Raw,228,7031,323
Raw,225,7031,323
Raw,194,7034,323
Raw,226,7040,323
Raw,248,7050,323
Raw,88,7056,323
Raw,200,7056,323
Raw,99,7059,323
Raw,500,7074,323
Raw,174,7081,323
Raw,114,7085,323
Raw,242,7087,323
Raw,226,7095,323
Raw,227,7095,323
Raw,348,7109,323
Raw,106,7109,323
Raw,111,7109,323
Raw,192,7114,323
Raw,225,7118,323
Raw,207,7119,323
Raw,204,7119,323
Raw,238,7136,323
Raw,211,7139,323
Raw,233,7160,323
Raw,127,7160,323
Raw,249,7161,323
Raw,217,7162,323
Raw,93,7165,323
Raw,151,7167,323
Raw,353,7174,323
Raw,190,7189,323
Raw,175,7189,323
Raw,349,7190,323
Raw,229,7195,323
Raw,173,7201,323
Raw,226,7218,323
Raw,103,7218,323
Raw,480,7221,323
Raw,119,7232,323
Raw,235,7237,323
Raw,240,7238,323
Raw,487,7240,323
Raw,412,7245,323
Raw,222,7248,323
Raw,137,7256,323
Raw,122,7261,323
Raw,174,7282,323
Raw,445,7288,323
Raw,86,7307,323
Raw,221,7318,323
Raw,226,7323,323
Raw,504,7325,323
Raw,114,7330,323
Raw,191,7332,323
Raw,226,7334,323
Raw,420,7336,323
Raw,171,7347,323
Raw,204,7349,323
Raw,128,7350,323
Raw,225,7370,323
Raw,239,7372,323
Raw,231,7380,323
Raw,319,7381,323
Raw,237,7381,323
Raw,184,7393,323
Raw,307,7396,323
Raw,200,7396,323
Raw,206,7401,323
Raw,53,7401,323
Raw,126,7413,323
Raw,119,7414,323
Raw,245,7419,323
Raw,161,7423,323
Raw,226,7435,323
Raw,235,7440,323
Raw,262,7443,323
Raw,249,7454,323
Raw,453,7459,323
Raw,217,7464,323
Raw,229,7468,323
Raw,113,7469,323
Raw,479,7472,323
Raw,218,7487,323
Raw,196,7493,323
Raw,154,7497,323
Raw,254,7513,323
Raw,241,7520,323
Raw,237,7521,323
Raw,205,7533,323
Raw,225,7535,323
Raw,197,7536,323
Raw,121,7542,323
Raw,196,7546,323
Raw,124,7547,323
Raw,207,7550,323
Raw,204,7552,323
Raw,95,7552,323
Raw,227,7555,323
Raw,252,7609,323
Raw,246,7616,323
Raw,206,7624,323
Raw,425,7649,323
Raw,164,7651,323
Raw,228,7659,323
Raw,176,7668,323
Raw,225,7686,323
Raw,147,7696,323
Raw,235,7701,323
Raw,227,7702,323
Raw,182,7702,323
Raw,242,7727,323
Raw,446,7731,323
Raw,218,7745,323
Raw,71,7761,323
Raw,147,7772,323
Raw,229,7809,323
Raw,251,7811,323
Raw,237,7815,323
Raw,85,7815,323
Raw,166,7824,323
Raw,71,7826,323
Raw,91,7841,323
Raw,446,7848,323
Raw,222,7857,323
Raw,357,7862,323
Raw,519,7863,323
Raw,187,7875,323
Raw,229,7886,323
Raw,366,7918,323
Raw,231,7919,323
Raw,183,7929,323
Raw,206,7935,323
Raw,170,7935,323
Raw,323,7936,323
Raw,127,7941,323
Raw,199,7959,323
Raw,429,7963,323
Raw,265,7965,323
Raw,227,7972,323
Raw,189,7976,323
Raw,242,7983,323
Raw,204,7994,323
Raw,231,7996,323
Raw,221,8001,323
Raw,167,8006,323
Raw,386,8013,323
Raw,466,8019,323
Raw,433,8020,323
Raw,206,8023,323
Raw,209,8027,323
Raw,94,8027,323
Raw,222,8032,323
Raw,217,8062,323
Raw,231,8062,323
Raw,105,8063,323
Raw,211,8066,323
Raw,138,8084,323
Raw,246,8105,323
Raw,374,8110,323
Raw,130,8141,323
Raw,78,8141,323
Raw,237,8149,323
Raw,238,8155,323
Raw,264,8162,323
Raw,214,8166,323
Raw,443,8186,323
Raw,219,8188,323
Raw,249,8189,323
Raw,84,8189,323
Raw,196,8190,323
Raw,403,8236,323
Raw,226,8239,323
Raw,161,8249,323
Raw,222,8253,323
Raw,417,8254,323
Raw,222,8257,323
Raw,134,8267,323
Raw,170,8271,323
Raw,69,8271,323
Raw,225,8276,323
Raw,244,8289,323
Raw,213,8290,323
Raw,201,8301,323
Raw,211,8304,323
Raw,215,8309,323
Raw,60,8312,323
Raw,407,8313,323
Raw,201,8314,323
Raw,418,8319,323
Raw,674,8322,323
Raw,61,8327,323
Raw,161,8340,323
Raw,232,8344,323
Raw,186,8352,323
Raw,239,8365,323
Raw,192,8365,323
Raw,176,8367,323
Raw,228,8377,323
Raw,211,8382,323
Raw,473,8386,323
Raw,112,8388,323
Raw,236,8388,323
Raw,506,8391,323
Raw,222,8392,323
Raw,210,8395,323
Raw,127,8405,323
Raw,227,8417,323
Raw,201,8421,323
Raw,225,8429,323
Raw,470,8434,323
Raw,230,8436,323
Raw,174,8445,323
Raw,402,8446,323
Raw,232,8449,323
Raw,221,8450,323
Raw,513,8458,323
Raw,244,8459,323
Raw,228,8473,323
Raw,117,8488,323
Raw,256,8494,323
Raw,124,8496,323
Raw,263,8506,323
Raw,120,8515,323
Raw,480,8516,323
Raw,207,8522,323
Raw,233,8522,323
Raw,174,8526,323
Raw,214,8530,323
Raw,231,8535,323
Raw,160,8541,323
Raw,172,8542,323
Raw,87,8546,323
Raw,124,8547,323
Raw,216,8547,323
Raw,186,8555,323
Raw,196,8565,323
Raw,241,8570,323
Raw,226,8570,323
Raw,237,8579,323
Raw,231,8584,323
Raw,171,8586,323
Raw,247,8625,323
Raw,74,8639,323
Raw,258,8645,323
Raw,156,8647,323
Raw,197,8651,323
Raw,211,8665,323
Raw,168,8666,323
Raw,216,8666,323
Raw,384,8673,323
Raw,187,8696,323
Raw,79,8696,323
Raw,229,8706,323
Raw,227,8714,323
Raw,190,8714,323
Raw,185,8715,323
Raw,209,8733,323
Raw,175,8733,323
Raw,226,8737,323
Raw,135,8738,323
Raw,214,8740,323
Raw,401,8749,323
Raw,203,8760,323
Raw,217,8771,323
Raw,223,8775,323
Raw,232,8789,323
Raw,173,8790,323
Raw,125,8793,323
Raw,439,8797,323
Raw,177,8802,323
Raw,104,8803,323
Raw,119,8825,323
Raw,634,8833,323
Raw,226,8836,323
Raw,213,8839,323
Raw,92,8844,323
Raw,227,8846,323
Raw,229,8857,323
Raw,78,8877,323
Raw,341,8881,323
Raw,100,8882,323
Raw,269,8883,323
Raw,231,8897,323
Raw,463,8898,323
Raw,242,8905,323
Raw,228,8911,323
Raw,212,8938,323
Raw,202,8948,323
Raw,237,8955,323
Raw,232,8972,323
Raw,72,8977,323
Raw,193,8980,323
Raw,206,8986,323
Raw,190,8987,323
Raw,191,8992,323
Raw,230,8993,323
Raw,232,9002,323
Raw,174,9010,323
Raw,201,9019,323
Raw,207,9019,323
Raw,251,9021,323
Raw,195,9021,323
Raw,167,9028,323
Raw,276,9028,323
Raw,179,9046,323
Raw,197,9048,323
Raw,278,9063,323
Raw,234,9069,323
Raw,197,9076,323
Raw,144,9076,323
Raw,209,9077,323
Raw,234,9080,323
Raw,241,9081,323
Raw,482,9084,323
Raw,221,9094,323
Raw,22,9103,323
Raw,121,9103,323
Raw,461,9114,323
Raw,216,9114,323
Raw,222,9116,323
Raw,203,9129,323
Raw,246,9172,323
Raw,251,9180,323
Raw,220,9181,323
Raw,449,9182,323
Raw,18,9183,323
Raw,112,9215,323
Raw,242,9231,323
Raw,201,9242,323
Raw,98,9250,323
Raw,379,9277,323
Raw,645,9298,323
Raw,140,9315,323
Raw,405,9320,323
Raw,234,9322,323
Raw,151,9322,323
Raw,310,9327,323
Raw,299,9332,323
Raw,134,9332,323
Raw,167,9334,323
Raw,103,9343,323
Raw,216,9357,323
Raw,244,9358,323
Raw,230,9358,323
Raw,181,9364,323
Raw,111,9366,323
Raw,119,9366,323
Raw,230,9373,323
Raw,96,9377,323
Raw,238,9380,323
Raw,91,9381,323
Raw,120,9384,323
Raw,237,9386,323
Raw,168,9393,323
Raw,243,9400,323
Raw,238,9406,323
Raw,210,9408,323
Raw,233,9433,323
Raw,15,9436,323
Raw,418,9439,323
Raw,251,9443,323
Raw,480,9448,323
Raw,83,9454,323
Raw,147,9461,323
Raw,253,9471,323
Raw,224,9472,323
Raw,232,9473,323
Raw,469,9492,323
Raw,40,9493,323
Raw,206,9510,323
Raw,111,9511,323
Raw,127,9513,323
Raw,619,9519,323
Raw,292,9528,323
Raw,189,9548,323
Raw,217,9577,323
Raw,217,9577,323
Raw,220,9588,323
Raw,104,9588,323
Raw,211,9594,323
Raw,232,9596,323
Raw,226,9607,323
Raw,350,9614,323
Raw,240,9630,323
Raw,205,9645,323
Raw,98,9646,323
Raw,230,9655,323
Raw,330,9667,323
Raw,210,9674,323
Raw,230,9680,323
Raw,444,9681,323
Raw,408,9691,323
Raw,79,9694,323
Raw,235,9695,323
Raw,202,9708,323
Raw,253,9726,323
Raw,143,9729,323
Raw,663,9732,323
Raw,22,9741,323
Raw,167,9751,323
Raw,182,9751,323
Raw,485,9766,323
Raw,124,9766,323
Raw,185,9767,323
Raw,169,9771,323
Raw,581,9773,323
Raw,115,9778,323
Raw,49,9782,323
Raw,183,9788,323
Raw,224,9791,323
Raw,224,9792,323
Raw,183,9792,323
Raw,209,9798,323
Raw,196,9815,323
Raw,222,9818,323
Raw,112,9830,323
Raw,199,9837,323
Raw,428,9838,323
Raw,275,9845,323
Raw,221,9859,323
Raw,117,9859,323
Raw,131,9869,323
Raw,209,9872,323
Raw,24,9874,323
Raw,225,9884,323
Raw,424,9894,323
Raw,468,9904,323
Raw,283,9905,323
Raw,196,9937,323
Raw,271,9938,323
Raw,187,9938,323
Raw,252,9938,323
Raw,69,9942,323
Raw,233,9951,323
Raw,336,9974,323
Raw,202,9986,323
Raw,234,9987,323
Raw,226,9993,323
Raw,642,10000,323
Raw,269,10012,323
Raw,220,10030,323
Raw,237,10051,323
Raw,239,10065,323
Raw,222,10065,323
Raw,120,10070,323
Raw,115,10088,323
Raw,126,10088,323
Raw,392,10105,323
Raw,37,10111,323
Raw,93,10117,323
Raw,129,10119,323
Raw,255,10119,323
Raw,228,10128,323
Raw,192,10135,323
Raw,60,10135,323
Raw,352,10142,323
Raw,457,10146,323
Raw,100,10163,323
Raw,123,10164,323
Raw,217,10168,323
Raw,252,10171,323
Raw,314,10174,323
Raw,141,10174,323
Raw,243,10176,323
Raw,230,10185,323
Raw,422,10188,323
Raw,51,10194,323
Raw,213,10198,323
Raw,188,10208,323
Raw,122,10215,323
Raw,214,10234,323
Raw,212,10238,323
Raw,277,10238,323
Raw,133,10239,323
Raw,440,10247,323
Raw,384,10248,323
Raw,629,10262,323
Raw,243,10267,323
Raw,177,10268,323
Raw,224,10271,323
Raw,136,10277,323
Raw,128,10277,323
Raw,176,10284,323
Raw,90,10285,323
Raw,208,10287,323
Raw,210,10293,323
Raw,471,10294,323
Raw,39,10294,323
Raw,147,10331,323
Raw,134,10331,323
Raw,248,10335,323
Raw,169,10337,323
Raw,228,10354,323
Raw,226,10369,323
Raw,306,10374,323
Raw,34,10374,323
Raw,176,10383,323
Raw,192,10385,323
Raw,230,10388,323
Raw,217,10391,323
Raw,241,10395,323
Raw,207,10397,323
Raw,463,10399,323
Raw,244,10404,323
Raw,174,10414,323
Raw,537,10415,323
Raw,206,10415,323
Raw,213,10425,323
Raw,235,10434,323
Raw,223,10444,323
Raw,227,10446,323
Raw,3,10453,323
Raw,178,10454,323
Raw,182,10455,323
Raw,78,10455,323
Raw,424,10457,323
Raw,168,10477,323
Raw,223,10496,323
Raw,112,10500,323
Raw,215,10502,323
Raw,454,10519,323
Raw,212,10534,323
Raw,170,10534,323
Raw,349,10538,323
Raw,467,10540,323
Raw,394,10548,323
Raw,230,10555,323
Raw,242,10560,323
Raw,168,10570,323
Raw,215,10577,323
Raw,220,10606,323
Raw,124,10621,323
Raw,382,10626,323
Raw,44,10632,323
Raw,101,10636,323
Raw,182,10644,323
Raw,9,10647,323
Raw,148,10651,323
Raw,113,10654,323
Raw,257,10654,323
Raw,162,10667,323
Raw,424,10672,323
Raw,247,10680,323
Raw,88,10683,323
Raw,223,10683,323
Raw,67,10692,323
Raw,195,10695,323
Raw,206,10700,323
Raw,225,10716,323
Raw,457,10720,323
Raw,475,10725,323
Raw,181,10727,323
Raw,462,10729,323
Raw,218,10740,323
Raw,387,10745,323
Raw,250,10750,323
Raw,225,10754,323
Raw,214,10754,323
Raw,312,10755,323
Raw,119,10756,323
Raw,279,10764,323
Raw,170,10769,323
Raw,498,10772,323
Raw,10,10800,323
Raw,154,10814,323
Raw,221,10819,323
Raw,236,10827,323
Raw,429,10833,323
Raw,221,10836,323
Raw,178,10855,323
Raw,13,10863,323
Raw,213,10872,323
Raw,250,10879,323
Raw,122,10885,323
Raw,221,10898,323
Raw,210,10909,323
Raw,239,10911,323
Raw,235,10917,323
Raw,214,10918,323
Raw,237,10919,323
Raw,229,10922,323
Raw,475,10930,323
Raw,229,10936,323
Raw,600,10949,323
Raw,243,10957,323
Raw,227,10959,323
Raw,231,10960,323
Raw,226,10960,323
Raw,223,10966,323
Raw,228,10974,323
Raw,456,10979,323
Raw,180,10984,323
Raw,181,10984,323
Raw,233,10986,323
Raw,464,11000,323
Raw,316,11002,323
Raw,313,11003,323
Raw,123,11005,323
Raw,225,11009,323
Raw,74,11011,323
Raw,231,11015,323
Raw,244,11017,323
Raw,116,11023,323
Raw,132,11025,323
Raw,211,11026,323
Raw,183,11041,323
Raw,231,11042,323
Raw,244,11043,323
Raw,148,11062,323
Raw,249,11071,323
Raw,223,11077,323
Raw,266,11083,323
Raw,489,11089,323
Raw,239,11093,323
Raw,36,11107,323
Raw,394,11108,323
Raw,319,11139,323
Raw,176,11144,323
Raw,173,11146,323
Raw,93,11146,323
Raw,344,11149,323
Raw,113,11151,323
Raw,218,11155,323
Raw,480,11166,323
Raw,214,11169,323
Raw,180,11171,323
Raw,207,11171,323
Raw,209,11195,323
Raw,226,11197,323
Raw,240,11205,323
Raw,261,11206,323
Raw,334,11209,323
Raw,256,11213,323
Raw,220,11218,323
Raw,117,11245,323
Raw,202,11259,323
Raw,244,11277,323
Raw,157,11279,323
Raw,243,11281,323
Raw,206,11291,323
Raw,246,11295,323
Raw,81,11297,323
Raw,438,11304,323
Raw,235,11309,323
Raw,115,11312,323
Raw,212,11322,323
Raw,97,11325,323
Raw,433,11325,323
Raw,232,11326,323
Raw,333,11329,323
Raw,210,11329,323
Raw,207,11333,323
Raw,225,11335,323
Raw,678,11336,323
Raw,229,11340,323
Raw,223,11345,323
Raw,238,11352,323
Raw,131,11353,323
Raw,192,11367,323
Raw,249,11370,323
Raw,255,11375,323
Raw,55,11375,323
Raw,474,11376,323
Raw,187,11378,323
Raw,148,11379,323
Raw,110,11380,323
Raw,364,11383,323
Raw,245,11391,323
Raw,130,11397,323
Raw,349,11400,323
Raw,134,11404,323
Raw,207,11404,323
Raw,297,11417,323
Raw,48,11419,323
Raw,244,11431,323
Raw,194,11434,323
Raw,266,11434,323
Raw,128,11436,323
Raw,378,11439,323
Raw,230,11447,323
Raw,213,11447,323
Raw,164,11483,323
Raw,173,11491,323
Raw,218,11493,323
Raw,521,11504,323
Raw,239,11519,323
Raw,320,11535,323
Raw,217,11545,323
Raw,243,11555,323
Raw,194,11566,323
Raw,211,11566,323
Raw,181,11572,323
Raw,213,11573,323
Raw,404,11577,323
Raw,54,11585,323
Raw,234,11589,323
Raw,419,11592,323
Raw,114,11596,323
Raw,216,11616,323
Raw,196,11618,323
Raw,261,11623,323
Raw,222,11623,323
Raw,314,11635,323
Raw,135,11638,323
Raw,207,11638,323
Raw,395,11647,323
Raw,625,11648,323
Raw,144,11650,323
Raw,197,11652,323
Raw,192,11657,323
Raw,223,11665,323
Raw,502,11677,323
Raw,426,11682,323
Raw,374,11688,323
Raw,128,11709,323
Raw,580,11713,323
Raw,643,11719,323
Raw,311,11721,323
Raw,223,11729,323
Raw,260,11733,323
Raw,206,11733,323
Raw,226,11747,323
Raw,217,11749,323
Raw,505,11751,323
Raw,212,11752,323
Raw,141,11755,323
Raw,108,11765,323
Raw,172,11766,323
Raw,240,11781,323
Raw,177,11797,323
Raw,24,11797,323
Raw,219,11799,323
Raw,299,11802,323
Raw,403,11808,323
Raw,195,11808,323
Raw,194,11813,323
Raw,157,11824,323
Raw,189,11826,323
Raw,192,11832,323
Raw,153,11835,323
Raw,221,11841,323
Raw,250,11845,323
Raw,212,11848,323
Raw,208,11868,323
Raw,442,11870,323
Raw,190,11872,323
Raw,206,11876,323
Raw,339,11878,323
Raw,399,11881,323
Raw,163,11885,323
Raw,237,11887,323
Raw,253,11888,323
Raw,232,11894,323
Raw,263,11897,323
Raw,215,11911,323
Raw,241,11913,323
Raw,211,11917,323
Raw,25,11938,323
Raw,229,11943,323
Raw,409,11944,323
Raw,221,11965,323
Raw,226,11979,323
Raw,218,11980,323
Raw,342,11984,323
Raw,234,11986,323
Raw,189,11988,323
Raw,289,11990,323
Raw,346,11996,323
Raw,340,12000,323
Raw,317,12008,323
Raw,373,12011,323
Raw,222,12011,323
Raw,289,12019,323
Raw,9,12019,323
Raw,353,12020,323
Raw,277,12020,323
Raw,212,12027,323
Raw,9,12027,323
Raw,238,12031,323
Raw,274,12034,323
Raw,239,12038,323
Raw,231,12041,323
Raw,396,12043,323
Raw,33,12047,323
Raw,68,12047,323
Raw,107,12048,323
Raw,421,12066,323
Raw,185,12067,323
Raw,179,12067,323
Raw,418,12068,323
Raw,129,12077,323
Raw,207,12079,323
Raw,235,12088,323
Raw,243,12089,323
Raw,459,12092,323
Raw,3,12092,323
Raw,368,12093,323
Raw,458,12095,323
Raw,404,12102,323
Raw,242,12114,323
Raw,219,12118,323
Raw,111,12120,323
Raw,199,12123,323
Raw,370,12131,323
Raw,179,12133,323
Raw,231,12136,323
Raw,183,12154,323
Raw,210,12155,323
Raw,201,12156,323
Raw,125,12162,323
Raw,213,12163,323
Raw,461,12170,323
Raw,249,12177,323
Raw,222,12186,323
Raw,16,12189,323
Raw,220,12201,323
Raw,27,12211,323
Raw,567,12215,323
Raw,254,12227,323
Raw,201,12229,323
Raw,458,12235,323
Raw,84,12241,323
Raw,211,12244,323
Raw,233,12257,323
Raw,238,12266,323
Raw,84,12297,323
Raw,460,12309,323
Raw,221,12312,323
Raw,413,12326,323
Raw,243,12329,323
Raw,133,12345,323
Raw,197,12345,323
Raw,212,12358,323
Raw,212,12361,323
Raw,234,12366,323
Raw,213,12379,323
Raw,205,12379,323
Raw,168,12380,323
Raw,48,12380,323
Raw,275,12387,323
Raw,207,12396,323
Raw,230,12398,323
Raw,425,12404,323
Raw,448,12425,323
Raw,196,12431,323
Raw,113,12444,323
Raw,234,12463,323
Raw,238,12469,323
Raw,221,12469,323
Raw,177,12470,323
Raw,186,12478,323
Raw,212,12486,323
Raw,229,12489,323
Raw,16,12491,323
Raw,237,12495,323
Raw,221,12496,323
Raw,215,12498,323
Raw,200,12516,323
Raw,218,12520,323
Raw,212,12525,323
Raw,167,12527,323
Raw,109,12527,323
Raw,176,12539,323
Raw,124,12546,323
Raw,257,12547,323
Raw,200,12551,323
Raw,219,12556,323
Raw,230,12579,323
Raw,488,12582,323
Raw,190,12591,323
Raw,435,12593,323
Raw,197,12600,323
Raw,218,12601,323
Raw,233,12606,323
Raw,201,12615,323
Raw,184,12617,323
Raw,672,12638,323
Raw,278,12642,323
Raw,474,12649,323
Raw,196,12661,323
Raw,215,12665,323
Raw,237,12668,323
Raw,213,12683,323
Raw,185,12694,323
Raw,212,12699,323
Raw,348,12713,323
Raw,194,12717,323
Raw,454,12722,323
Raw,109,12738,323
Raw,539,12739,323
Raw,151,12745,323
Raw,221,12750,323
Raw,198,12751,323
Raw,430,12780,323
Raw,219,12788,323
Raw,213,12793,323
Raw,107,12797,323
Raw,94,12797,323
Raw,470,12800,323
Raw,222,12805,323
Raw,394,12819,323
Raw,212,12844,323
Raw,86,12849,323
Raw,189,12851,323
Raw,196,12855,323
Raw,240,12865,323
Raw,144,12868,323
Raw,215,12881,323
Raw,652,12883,323
Raw,225,12886,323
Raw,442,12889,323
Raw,120,12889,323
Raw,191,12908,323
Raw,152,12912,323
Raw,128,12912,323
Raw,256,12933,323
Raw,243,12935,323
Raw,445,12943,323
Raw,267,12948,323
Raw,246,12966,323
Raw,78,12975,323
Raw,256,12980,323
Raw,129,12984,323
Raw,236,12985,323
Raw,449,13002,323
Raw,137,13009,323
Raw,220,13013,323
Raw,453,13023,323
Raw,384,13048,323
Raw,85,13058,323
Raw,205,13061,323
Raw,243,13074,323
Raw,155,13076,323
Raw,131,13089,323
Raw,106,13107,323
Raw,242,13115,323
Raw,211,13120,323
Raw,119,13124,323
Raw,290,13141,323
Raw,237,13160,323
Raw,498,13171,323
Raw,220,13181,323
Raw,111,13183,323
Raw,357,13188,323
Raw,123,13195,323
Raw,286,13197,323
Raw,223,13206,323
Raw,242,13206,323
Raw,229,13220,323
Raw,201,13221,323
Raw,205,13224,323
Raw,74,13233,323
Raw,147,13235,323
Raw,338,13247,323
Raw,228,13251,323
Raw,66,13256,323
Raw,224,13258,323
Raw,201,13274,323
Raw,133,13280,323
Raw,199,13295,323
Raw,229,13296,323
Raw,226,13336,323
Raw,256,13346,323
Raw,200,13365,323
Raw,94,13367,323
Raw,213,13369,323
Raw,78,13369,323
Raw,446,13376,323
Raw,215,13377,323
Raw,369,13382,323
Raw,211,13382,323
Raw,247,13401,323
Raw,103,13423,323
Raw,45,13430,323
Raw,328,13431,323
Raw,439,13436,323
Raw,284,13437,323
Raw,233,13444,323
Raw,133,13462,323
Raw,231,13466,323
Raw,459,13468,323
Raw,128,13473,323
Raw,339,13480,323
Raw,124,13490,323
Raw,238,13491,323
Raw,220,13493,323
Raw,85,13498,323
Raw,120,13508,323
Raw,63,13513,323
Raw,430,13518,323
Raw,195,13530,323
Raw,252,13535,323
Raw,409,13553,323
Raw,130,13556,323
Raw,136,13588,323
Raw,191,13589,323
Raw,172,13591,323
Raw,113,13604,323
Raw,240,13608,323
Raw,228,13609,323
Raw,235,13612,323
Raw,221,13618,323
Raw,221,13618,323
Raw,182,13621,323
Raw,171,13627,323
Raw,211,13631,323
Raw,102,13632,323
Raw,238,13639,323
Raw,121,13642,323
Raw,68,13655,323
Raw,486,13663,323
Raw,87,13695,323
Raw,93,13702,323
Raw,232,13704,323
Raw,108,13711,323
Raw,206,13722,323
Raw,243,13726,323
Raw,243,13730,323
Raw,211,13731,323
Raw,203,13734,323
Raw,225,13735,323
Raw,213,13737,323
Raw,127,13740,323
Raw,228,13752,323
Raw,106,13759,323
Raw,126,13766,323
Raw,193,13771,323
Raw,343,13778,323
Raw,234,13780,323
Raw,250,13800,323
Raw,181,13800,323
Raw,238,13820,323
Raw,212,13820,323
Raw,231,13824,323
Raw,217,13830,323
Raw,221,13836,323
Raw,163,13837,323
Raw,206,13837,323
Raw,213,13839,323
Raw,220,13841,323
Raw,192,13841,323
Raw,386,13851,323
Raw,356,13858,323
Raw,171,13867,323
Raw,217,13876,323
Raw,208,13886,323
Raw,199,13887,323
Raw,313,13889,323
Raw,233,13891,323
Raw,77,13911,323
Raw,64,13911,323
Raw,191,13925,323
Raw,448,13942,323
Raw,215,13977,323
Raw,224,13979,323
Raw,171,13981,323
Raw,128,13985,323
Raw,244,13988,323
Raw,259,13998,323
Raw,160,14001,323
Raw,297,14013,323
Raw,208,14021,323
Raw,651,14026,323
Raw,351,14027,323
Raw,244,14029,323
Raw,183,14029,323
Raw,246,14031,323
Raw,208,14036,323
Raw,223,14039,323
Raw,352,14042,323
Raw,239,14048,323
Raw,229,14055,323
Raw,192,14057,323
Raw,215,14059,323
Raw,208,14059,323
Raw,200,14064,323
Raw,223,14075,323
Raw,239,14086,323
Raw,72,14096,323
Raw,186,14117,323
Raw,187,14127,323
Raw,188,14127,323
Raw,115,14131,323
Raw,151,14132,323
Raw,264,14135,323
Raw,486,14145,323
Raw,185,14151,323
Raw,378,14164,323
Raw,39,14170,323
Raw,112,14170,323
Raw,211,14170,323
Raw,212,14172,323
Raw,96,14177,323
Raw,219,14199,323
Raw,110,14199,323
Raw,235,14219,323
Raw,462,14223,323
Raw,356,14231,323
Raw,15,14231,323
Raw,167,14237,323
Raw,168,14237,323
Raw,197,14248,323
Raw,215,14252,323
Raw,217,14254,323
Raw,210,14259,323
Raw,208,14266,323
Raw,230,14271,323
Raw,225,14280,323
Raw,230,14290,323
Raw,345,14298,323
Raw,215,14298,323
Raw,331,14307,323
Raw,199,14316,323
Raw,196,14317,323
Raw,405,14318,323
Raw,259,14329,323
Raw,481,14335,323
Raw,149,14337,323
Raw,213,14347,323
Raw,220,14347,323
Raw,496,14350,323
Raw,168,14356,323
Raw,187,14366,323
Raw,217,14369,323
Raw,331,14371,323
Raw,436,14392,323
Raw,220,14394,323
Raw,197,14412,323
Raw,216,14416,323
Raw,209,14431,323
Raw,242,14440,323
Raw,469,14448,323
Raw,199,14452,323
Raw,109,14457,323
Raw,217,14472,323
Raw,150,14475,323
Raw,188,14478,323
Raw,106,14481,323
Raw,95,14486,323
Raw,249,14493,323
Raw,217,14504,323
Raw,392,14519,323
Raw,174,14541,323
Raw,483,14554,323
Raw,211,14556,323
Raw,189,14560,323
Raw,207,14573,323
Raw,236,14574,323
Raw,561,14579,323
Raw,191,14587,323
Raw,203,14588,323
Raw,219,14595,323
Raw,216,14602,323
Raw,231,14606,323
Raw,189,14629,323
Raw,102,14636,323
Raw,473,14638,323
Raw,211,14642,323
Raw,224,14662,323
Raw,249,14668,323
Raw,244,14674,323
Raw,218,14695,323
Raw,505,14697,323
Raw,109,14699,323
Raw,169,14700,323
Raw,429,14705,323
Raw,174,14725,323
Raw,193,14725,323
Raw,235,14730,323
Raw,193,14731,323
Raw,201,14735,323
Raw,256,14763,323
Raw,242,14768,323
Raw,133,14769,323
Raw,207,14775,323
Raw,128,14777,323
Raw,190,14782,323
Raw,56,14782,323
Raw,37,14790,323
Raw,280,14813,323
Raw,429,14814,323
Raw,128,14815,323
Raw,421,14818,323
Raw,362,14824,323
Raw,346,14828,323
Raw,209,14829,323
Raw,134,14829,323
Raw,41,14832,323
Raw,223,14845,323
Raw,201,14852,323
Raw,79,14859,323
Raw,327,14864,323
Raw,374,14888,323
Raw,213,14905,323
Raw,186,14913,323
Raw,119,14915,323
Raw,63,14919,323
Raw,142,14921,323
Raw,210,14955,323
Raw,408,14969,323
Raw,250,14971,323
Raw,156,14972,323
Raw,200,14978,323
Raw,29,14995,323
Raw,248,14998,323
Raw,347,15003,323
Raw,462,15006,323
Raw,236,15016,323
Raw,9,15016,323
Raw,238,15017,323
Raw,218,15026,323
Raw,230,15031,323
Raw,232,15032,323
Raw,207,15048,323
Raw,228,15050,323
Raw,448,15058,323
Raw,63,15065,323
Raw,233,15069,323
Raw,452,15082,323
Raw,227,15085,323
Raw,110,15094,323
Raw,225,15109,323
Raw,114,15112,323
Raw,169,15122,323
Raw,197,15122,323
Raw,250,15130,323
Raw,236,15134,323
Raw,394,15135,323
Raw,87,15138,323
Raw,246,15144,323
Raw,226,15150,323
Raw,231,15162,323
Raw,440,15166,323
Raw,242,15176,323
Raw,199,15181,323
Raw,94,15197,323
Raw,284,15211,323
Raw,169,15215,323
Raw,337,15234,323
Raw,22,15234,323
Raw,250,15236,323
Raw,633,15239,323
Raw,111,15240,323
Raw,10,15242,323
Raw,256,15252,323
Raw,225,15258,323
Raw,402,15263,323
Raw,182,15268,323
Raw,445,15271,323
Raw,140,15281,323
Raw,223,15281,323
Raw,208,15287,323
Raw,233,15314,323
Raw,248,15320,323
Raw,477,15321,323
Raw,185,15324,323
Raw,224,15326,323
Raw,237,15327,323
Raw,348,15331,323
Raw,206,15341,323
Raw,82,15341,323
Raw,405,15346,323
Raw,287,15347,323
Raw,404,15348,323
Raw,365,15356,323
Raw,196,15358,323
Raw,95,15363,323
Raw,154,15364,323
Raw,234,15367,323
Raw,224,15372,323
Raw,593,15383,323
Raw,168,15389,323
Raw,190,15389,323
Raw,230,15390,323
Raw,95,15392,323
Raw,254,15398,323
Raw,383,15407,323
Raw,251,15426,323
Raw,181,15437,323
Raw,94,15437,323
Raw,132,15438,323
Raw,230,15443,323
Raw,445,15446,323
Raw,260,15446,323
Raw,316,15448,323
Raw,209,15454,323
Raw,243,15476,323
Raw,5,15491,323
Raw,230,15494,323
Raw,229,15495,323
Raw,368,15511,323
Raw,153,15512,323
Raw,638,15514,323
Raw,148,15519,323
Raw,403,15531,323
Raw,89,15544,323
Raw,362,15552,323
Raw,235,15555,323
Raw,128,15562,323
Raw,367,15606,323
Raw,456,15607,323
Raw,203,15609,323
Raw,221,15615,323
Raw,241,15617,323
Raw,426,15627,323
Raw,192,15632,323
Raw,208,15645,323
Raw,71,15651,323
Raw,224,15675,323
Raw,216,15680,323
Raw,223,15682,323
Raw,181,15684,323
Raw,107,15694,323
Raw,243,15713,323
Raw,232,15715,323
Raw,126,15726,323
Raw,409,15735,323
Raw,114,15736,323
Raw,252,15740,323
Raw,473,15742,323
Raw,391,15743,323
Raw,247,15753,323
Raw,217,15762,323
Raw,513,15771,323
Raw,237,15782,323
Raw,217,15782,323
Raw,98,15787,323
Raw,205,15789,323
Raw,166,15799,323
Raw,476,15812,323
Raw,190,15818,323
Raw,244,15819,323
Raw,180,15825,323
Raw,201,15825,323
Raw,426,15840,323
Raw,519,15844,323
Raw,187,15851,323
Raw,342,15856,323
Raw,195,15865,323
Raw,227,15876,323
Raw,201,15876,323
Raw,95,15877,323
Raw,211,15882,323
Raw,255,15888,323
Raw,98,15888,323
Raw,143,15888,323
Raw,579,15891,323
Raw,228,15901,323
Raw,86,15910,323
Raw,347,15915,323
Raw,184,15926,323
Raw,123,15926,323
Raw,647,15927,323
Raw,123,15929,323
Raw,354,15938,323
Raw,201,15947,323
Raw,67,15948,323
Raw,450,15951,323
Raw,457,15959,323
Raw,242,15974,323
Raw,220,15976,323
Raw,149,15980,323
Raw,385,15987,323
Raw,546,15997,323
Raw,239,15999,323
Raw,232,16002,323
Raw,371,16003,323
Raw,218,16018,323
Raw,231,16021,323
Raw,207,16044,323
Raw,147,16046,323
Raw,239,16048,323
Raw,602,16056,323
Raw,237,16073,323
Raw,138,16078,323
Raw,227,16093,323
Raw,350,16103,323
Raw,36,16105,323
Raw,204,16120,323
Raw,380,16134,323
Raw,80,16141,323
Raw,107,16147,323
Raw,214,16156,323
Raw,114,16156,323
Raw,108,16159,323
Raw,353,16160,323
Raw,363,16162,323
Raw,202,16169,323
Raw,232,16171,323
Raw,223,16186,323
Raw,347,16194,323
Raw,79,16194,323
Raw,321,16195,323
Raw,217,16199,323
Raw,44,16203,323
Raw,92,16204,323
Raw,104,16204,323
Raw,225,16215,323
Raw,440,16232,323
Raw,218,16233,323
Raw,514,16243,323
Raw,209,16247,323
Raw,637,16250,323
Raw,172,16257,323
Raw,129,16258,323
Raw,215,16261,323
Raw,36,16261,323
Raw,224,16282,323
Raw,201,16290,323
Raw,81,16294,323
Raw,419,16310,323
Raw,189,16313,323
Raw,341,16318,323
Raw,162,16318,323
Raw,160,16322,323
Raw,165,16330,323
Raw,226,16331,323
Raw,519,16343,323
Raw,424,16344,323
Raw,65,16344,323
Raw,211,16351,323
Raw,255,16354,323
Raw,227,16359,323
Raw,217,16362,323
Raw,241,16374,323
Raw,193,16378,323
Raw,145,16382,323
Raw,219,16388,323
Raw,153,16388,323
Raw,236,16395,323
Raw,58,16395,323
Raw,210,16417,323
Raw,247,16419,323
Raw,190,16419,323
Raw,224,16424,323
Raw,259,16428,323
Raw,114,16432,323
Raw,202,16433,323
Raw,122,16435,323
Raw,105,16435,323
Raw,344,16462,323
Raw,250,16466,323
Raw,61,16469,323
Raw,236,16470,323
Raw,242,16477,323
Raw,178,16478,323
Raw,217,16478,323
Raw,247,16484,323
Raw,158,16491,323
Raw,294,16502,323
Raw,76,16514,323
Raw,187,16527,323
Raw,234,16532,323
Raw,454,16576,323
Raw,217,16593,323
Raw,233,16612,323
Raw,441,16615,323
Raw,214,16622,323
Raw,118,16643,323
Raw,231,16645,323
Raw,222,16646,323
Raw,112,16654,323
Raw,177,16661,323
Raw,463,16668,323
Raw,409,16670,323
Raw,241,16685,323
Raw,176,16685,323
Raw,130,16689,323
Raw,200,16696,323
Raw,189,16714,323
Raw,457,16726,323
Raw,220,16729,323
Raw,253,16731,323
Raw,212,16731,323
Raw,239,16732,323
Raw,242,16734,323
Raw,208,16748,323
Raw,123,16752,323
Raw,178,16754,323
Raw,55,16754,323
Raw,225,16757,323
Raw,229,16759,323
Raw,182,16763,323
Raw,69,16771,323
Raw,215,16775,323
Raw,224,16779,323
Raw,462,16782,323
Raw,403,16787,323
Raw,206,16790,323
Raw,392,16791,323
Raw,169,16796,323
Raw,186,16818,323
Raw,235,16820,323
Raw,221,16824,323
Raw,278,16830,323
Raw,220,16838,323
Raw,231,16839,323
Raw,405,16844,323
Raw,416,16851,323
Raw,453,16857,323
Raw,525,16874,323
Raw,219,16887,323
Raw,390,16889,323
Raw,218,16905,323
Raw,416,16913,323
Raw,199,16926,323
Raw,368,16934,323
Raw,296,16936,323
Raw,429,16942,323
Raw,215,16945,323
Raw,140,16950,323
Raw,218,16950,323
Raw,244,16951,323
Raw,63,16951,323
Raw,255,16970,323
Raw,208,16982,323
Raw,101,16990,323
Raw,98,16990,323
Raw,441,17013,323
Raw,246,17033,323
Raw,171,17040,323
Raw,221,17041,323
Raw,227,17046,323
Raw,213,17046,323
Raw,129,17049,323
Raw,26,17055,323
Raw,225,17060,323
Raw,239,17063,323
Raw,114,17073,323
Raw,246,17087,323
Raw,219,17087,323
Raw,480,17115,323
Raw,221,17116,323
Raw,230,17119,323
Raw,525,17120,323
Raw,280,17121,323
Raw,347,17122,323
Raw,366,17132,323
Raw,309,17142,323
Raw,239,17143,323
Raw,260,17152,323
Raw,220,17157,323
Raw,245,17160,323
Raw,236,17167,323
Raw,153,17183,323
Raw,203,17183,323
Raw,216,17185,323
Raw,237,17188,323
Raw,118,17190,323
Raw,241,17199,323
Raw,190,17199,323
Raw,232,17208,323
Raw,94,17221,323
Raw,476,17222,323
Raw,215,17223,323
Raw,235,17234,323
Raw,246,17235,323
Raw,219,17237,323
Raw,236,17238,323
Raw,305,17239,323
Raw,472,17242,323
Raw,191,17243,323
Raw,271,17245,323
Raw,238,17255,323
Raw,132,17257,323
Raw,432,17262,323
Raw,235,17275,323
Raw,204,17276,323
Raw,71,17286,323
Raw,221,17287,323
Raw,128,17291,323
Raw,93,17305,323
Raw,344,17306,323
Raw,470,17316,323
Raw,223,17318,323
Raw,241,17332,323
Raw,230,17336,323
Raw,28,17338,323
Raw,232,17340,323
Raw,139,17348,323
Raw,25,17362,323
Raw,208,17367,323
Raw,204,17374,323
Raw,207,17375,323
Raw,459,17380,323
Raw,139,17408,323
Raw,386,17413,323
Raw,245,17419,323
Raw,361,17430,323
Raw,206,17433,323
Raw,126,17438,323
Raw,201,17439,323
Raw,218,17443,323
Raw,122,17450,323
Raw,651,17459,323
Raw,158,17462,323
Raw,118,17462,323
Raw,209,17471,323
Raw,190,17471,323
Raw,92,17473,323
Raw,221,17476,323
Raw,234,17501,323
Raw,206,17505,323
Raw,217,17519,323
Raw,215,17526,323
Raw,213,17529,323
Raw,186,17539,323
Raw,429,17546,323
Raw,243,17547,323
Raw,367,17552,323
Raw,171,17553,323
Raw,522,17557,323
Raw,243,17558,323
Raw,252,17565,323
Raw,235,17583,323
Raw,228,17598,323
Raw,316,17602,323
Raw,221,17612,323
Raw,224,17623,323
Raw,235,17628,323
Raw,106,17633,323
Raw,252,17648,323
Raw,245,17657,323
Raw,530,17663,323
Raw,441,17668,323
Raw,209,17668,323
Raw,232,17672,323
Raw,133,17672,323
Raw,103,17700,323
Raw,230,17704,323
Raw,95,17706,323
Raw,146,17711,323
Raw,131,17712,323
Raw,200,17717,323
Raw,223,17717,323
Raw,229,17721,323
Raw,228,17722,323
Raw,238,17728,323
Raw,234,17736,323
Raw,107,17740,323
Raw,386,17741,323
Raw,180,17745,323
Raw,295,17748,323
Raw,237,17756,323
Raw,32,17762,323
Raw,342,17780,323
Raw,279,17782,323
Raw,223,17783,323
Raw,223,17788,323
Raw,126,17792,323
Raw,136,17801,323
Raw,223,17816,323
Raw,239,17840,323
Raw,226,17847,323
Raw,199,17848,323
Raw,185,17849,323
Raw,335,17853,323
Raw,104,17859,323
Raw,197,17862,323
Raw,465,17874,323
Raw,371,17900,323
Raw,211,17914,323
Raw,230,17927,323
Raw,450,17938,323
Raw,195,17954,323
Raw,680,17957,323
Raw,466,17965,323
Raw,219,17970,323
Raw,189,17970,323
Raw,493,17979,323
Raw,228,17983,323
Raw,205,17985,323
Raw,241,17986,323
Raw,211,17996,323
Raw,222,17999,323
Raw,235,18005,323
Raw,238,18020,323
Raw,345,18032,323
Raw,191,18038,323
Raw,241,18042,323
Raw,390,18043,323
Raw,129,18052,323
Raw,350,18061,323
Raw,246,18074,323
Raw,215,18074,323
Raw,241,18077,323
Raw,467,18080,323
Raw,135,18088,323
Raw,196,18137,323
Raw,205,18138,323
Raw,460,18143,323
Raw,482,18147,323
Raw,360,18149,323
Raw,223,18150,323
Raw,211,18150,323
Raw,474,18154,323
Raw,369,18164,323
Raw,224,18164,323
Raw,201,18170,323
Raw,224,18176,323
Raw,256,18183,323
Raw,324,18190,323
Raw,424,18193,323
Raw,185,18198,323
Raw,194,18199,323
Raw,229,18200,323
Raw,180,18212,323
Raw,248,18219,323
Raw,210,18219,323
Raw,255,18220,323
Raw,194,18221,323
Raw,227,18223,323
Raw,214,18224,323
Raw,92,18224,323
Raw,562,18231,323
Raw,134,18235,323
Raw,170,18243,323
Raw,220,18254,323
Raw,180,18254,323
Raw,198,18258,323
Raw,683,18260,323
Raw,125,18266,323
Raw,266,18273,323
Raw,75,18274,323
Raw,120,18280,323
Raw,211,18285,323
Raw,226,18292,323
Raw,107,18294,323
Raw,228,18300,323
Raw,282,18306,323
Raw,240,18313,323
Raw,235,18315,323
Raw,444,18324,323
Raw,218,18332,323
Raw,215,18337,323
Raw,205,18346,323
Raw,92,18346,323
Raw,226,18349,323
Raw,239,18353,323
Raw,202,18353,323
Raw,212,18356,323
Raw,403,18362,323
Raw,200,18369,323
Raw,227,18369,323
Raw,271,18383,323
Raw,3,18383,323
Raw,221,18405,323
Raw,143,18413,323
Raw,71,18413,323
Raw,458,18421,323
Raw,211,18423,323
Raw,612,18429,323
Raw,240,18430,323
Raw,140,18441,323
Raw,171,18441,323
Raw,205,18459,323
Raw,204,18504,323
Raw,251,18505,323
Raw,450,18506,323
Raw,234,18509,323
Raw,218,18511,323
Raw,100,18511,323
Raw,427,18518,323
Raw,226,18520,323
Raw,182,18525,323
Raw,236,18531,323
Raw,89,18550,323
Raw,345,18566,323
Raw,274,18573,323
Raw,223,18579,323
Raw,219,18585,323
Raw,4,18585,323
Raw,224,18587,323
Raw,252,18588,323
Raw,154,18588,323
Raw,199,18591,323
Raw,121,18591,323
Raw,217,18592,323
Raw,412,18605,323
Raw,192,18606,323
Raw,93,18606,323
Raw,239,18608,323
Raw,228,18610,323
Raw,200,18614,323
Raw,234,18626,323
Raw,183,18631,323
Raw,214,18631,323
Raw,172,18632,323
Raw,175,18639,323
Raw,424,18642,323
Raw,356,18642,323
Raw,420,18652,323
Raw,178,18665,323
Raw,418,18676,323
Raw,235,18687,323
Raw,230,18698,323
Raw,107,18698,323
Raw,36,18703,323
Raw,553,18707,323
Raw,205,18708,323
Raw,256,18728,323
Raw,145,18733,323
Raw,266,18733,323
Raw,258,18738,323
Raw,458,18745,323
Raw,344,18751,323
Raw,205,18763,323
Raw,325,18771,323
Raw,175,18775,323
Raw,179,18776,323
Raw,141,18798,323
Raw,247,18806,323
Raw,186,18808,323
Raw,125,18808,323
Raw,102,18812,323
Raw,519,18850,323
Raw,229,18855,323
Raw,17,18857,323
Raw,217,18858,323
Raw,62,18863,323
Raw,204,18864,323
Raw,195,18865,323
Raw,220,18882,323
Raw,223,18901,323
Raw,91,18913,323
Raw,242,18944,323
Raw,542,18971,323
Raw,217,18979,323
Raw,185,18985,323
Raw,474,18993,323
Raw,421,18995,323
Raw,190,18998,323
Raw,197,19002,323
Raw,202,19049,323
Raw,218,19049,323
Raw,424,19063,323
Raw,452,19077,323
Raw,222,19086,323
Raw,199,19095,323
Raw,231,19095,323
Raw,210,19106,323
Raw,207,19106,323
Raw,138,19119,323
Raw,231,19121,323
Raw,668,19125,323
Raw,223,19130,323
Raw,224,19134,323
Raw,230,19138,323
Raw,53,19142,323
Raw,457,19163,323
Raw,187,19179,323
Raw,209,19179,323
Raw,151,19181,323
Raw,245,19186,323
Raw,231,19203,323
Raw,24,19212,323
Raw,214,19214,323
Raw,206,19215,323
Raw,235,19218,323
Raw,138,19231,323
Raw,176,19242,323
Raw,88,19252,323
Raw,148,19258,323
Raw,338,19263,323
Raw,416,19266,323
Raw,303,19272,323
Raw,260,19276,323
Raw,10,19276,323
Raw,237,19290,323
Raw,37,19309,323
Raw,127,19316,323
Raw,218,19317,323
Raw,88,19317,323
Raw,216,19318,323
Raw,190,19318,323
Raw,203,19320,323
Raw,146,19320,323
Raw,190,19328,323
Raw,120,19341,323
Raw,3,19341,323
Raw,236,19345,323
Raw,223,19367,323
Raw,252,19385,323
Raw,142,19388,323
Raw,167,19393,323
Raw,188,19403,323
Raw,423,19417,323
Raw,224,19422,323
Raw,338,19427,323
Raw,213,19427,323
Raw,174,19433,323
Raw,228,19442,323
Raw,177,19445,323
Raw,239,19458,323
Raw,225,19465,323
Raw,662,19471,323
Raw,151,19473,323
Raw,237,19474,323
Raw,248,19475,323
Raw,417,19480,323
Raw,225,19502,323
Raw,232,19510,323
Raw,173,19520,323
Raw,183,19524,323
Raw,225,19536,323
Raw,446,19547,323
Raw,229,19553,323
Raw,118,19564,323
Raw,221,19566,323
Raw,248,19572,323
Raw,248,19573,323
Raw,223,19585,323
Raw,226,19586,323
Raw,209,19597,323
Raw,214,19606,323
Raw,218,19609,323
Raw,233,19625,323
Raw,126,19628,323
Raw,212,19641,323
Raw,406,19643,323
Raw,210,19647,323
Raw,243,19651,323
Raw,235,19657,323
Raw,239,19660,323
Raw,97,19660,323
Raw,242,19681,323
Raw,164,19686,323
Raw,243,19708,323
Raw,183,19712,323
Raw,193,19712,323
Raw,248,19721,323
Raw,226,19729,323
Raw,176,19730,323
Raw,191,19730,323
Raw,152,19738,323
Raw,227,19738,323
Raw,228,19742,323
Raw,108,19745,323
Raw,22,19745,323
Raw,371,19747,323
Raw,226,19755,323
Raw,624,19769,323
Raw,122,19776,323
Raw,233,19778,323
Raw,228,19778,323
Raw,244,19780,323
Raw,355,19783,323
Raw,337,19786,323
Raw,193,19788,323
Raw,220,19792,323
Raw,78,19794,323
Raw,235,19797,323
Raw,116,19799,323
Raw,200,19808,323
Raw,118,19808,323
Raw,676,19821,323
Raw,567,19826,323
Raw,209,19836,323
Raw,231,19836,323
Raw,415,19840,323
Raw,204,19844,323
Raw,370,19860,323
Raw,88,19860,323
Raw,236,19864,323
Raw,122,19872,323
Raw,225,19873,323
Raw,232,19884,323
Raw,211,19888,323
Raw,223,19900,323
Raw,73,19909,323
Raw,281,19911,323
Raw,211,19915,323
Raw,457,19930,323
Raw,209,19944,323
Raw,211,19953,323
Raw,33,19953,323
Raw,197,19971,323
Raw,205,19979,323
Raw,159,19984,323
Raw,197,19985,323
Raw,233,19991,323
Raw,448,20003,323
Raw,213,20005,323
Raw,429,20021,323
Raw,229,20027,323
Raw,245,20042,323
Raw,140,20047,323
Raw,217,20049,323
Raw,142,20062,323
Raw,115,20062,323
Raw,184,20067,323
Raw,474,20073,323
Raw,662,20089,323
Raw,456,20090,323
Raw,113,20093,323
Raw,4,20093,323
Raw,597,20117,323
Raw,199,20118,323
Raw,20,20118,323
Raw,222,20121,323
Raw,659,20151,323
Raw,189,20167,323
Raw,214,20167,323
Raw,382,20189,323
Raw,180,20201,323
Raw,226,20203,323
Raw,510,20213,323
Raw,121,20214,323
Raw,635,20215,323
Raw,220,20218,323
Raw,240,20237,323
Raw,240,20239,323
Raw,432,20243,323
Raw,205,20261,323
Raw,203,20270,323
Raw,235,20272,323
Raw,220,20273,323
Raw,588,20278,323
Raw,176,20279,323
Raw,324,20281,323
Raw,332,20282,323
Raw,262,20298,323
Raw,235,20305,323
Raw,227,20306,323
Raw,232,20310,323
Raw,223,20314,323
Raw,87,20318,323
Raw,73,20346,323
Raw,347,20348,323
Raw,221,20352,323
Raw,211,20368,323
Raw,235,20375,323
Raw,206,20380,323
Raw,190,20384,323
Raw,328,20387,323
Raw,123,20392,323
Raw,578,20396,323
Raw,219,20398,323
Raw,91,20406,323
Raw,50,20410,323
Raw,244,20411,323
Raw,572,20414,323
Raw,239,20420,323
Raw,493,20424,323
Raw,172,20425,323
Raw,234,20442,323
Raw,330,20444,323
Raw,416,20460,323
Raw,113,20460,323
Raw,222,20479,323
Raw,124,20497,323
Raw,251,20515,323
Raw,230,20516,323
Raw,133,20547,323
Raw,189,20549,323
Raw,193,20551,323
Raw,226,20558,323
Raw,373,20583,323
Raw,227,20586,323
Raw,129,20586,323
Raw,203,20592,323
Raw,113,20600,323
Raw,217,20606,323
Raw,94,20606,323
Raw,167,20627,323
Raw,107,20631,323
Raw,623,20634,323
Raw,228,20642,323
Raw,200,20642,323
Raw,235,20647,323
Raw,214,20655,323
Raw,483,20658,323
Raw,489,20663,323
Raw,86,20663,323
Raw,135,20664,323
Raw,227,20664,323
Raw,211,20666,323
Raw,154,20676,323
Raw,223,20688,323
Raw,390,20694,323
Raw,419,20699,323
Raw,207,20713,323
Raw,219,20714,323
Raw,182,20716,323
Raw,220,20720,323
Raw,62,20735,323
Raw,217,20748,323
Raw,89,20750,323
Raw,249,20752,323
Raw,231,20755,323
Raw,160,20764,323
Raw,221,20785,323
Raw,127,20793,323
Raw,244,20797,323
Raw,232,20802,323
Raw,119,20807,323
Raw,148,20807,323
Raw,119,20807,323
Raw,309,20808,323
Raw,196,20815,323
Raw,235,20822,323
Raw,232,20823,323
Raw,243,20826,323
Raw,288,20830,323
Raw,103,20845,323
Raw,259,20849,323
Raw,179,20856,323
Raw,234,20860,323
Raw,199,20864,323
Raw,110,20866,323
Raw,83,20866,323
Raw,5,20866,323
Raw,232,20869,323
Raw,489,20893,323
Raw,432,20898,323
Raw,233,20901,323
Raw,134,20902,323
Raw,162,20912,323
Raw,208,20929,323
Raw,216,20930,323
Raw,361,20937,323
Raw,227,20942,323
Raw,195,20953,323
Raw,470,20957,323
Raw,55,20968,323
Raw,431,21009,323
Raw,470,21014,323
Raw,44,21016,323
Raw,217,21031,323
Raw,110,21039,323
Raw,97,21039,323
Raw,446,21041,323
Raw,171,21042,323
Raw,432,21049,323
Raw,124,21051,323
Raw,236,21063,323
Raw,149,21076,323
Raw,248,21081,323
Raw,218,21088,323
Raw,168,21098,323
Raw,281,21115,323
Raw,105,21122,323
Raw,242,21130,323
Raw,253,21134,323
Raw,222,21137,323
Raw,104,21143,323
Raw,217,21167,323
Raw,130,21167,323
Raw,235,21176,323
Raw,232,21180,323
Raw,181,21187,323
Raw,162,21194,323
Raw,218,21194,323
Raw,420,21199,323
Raw,220,21199,323
Raw,206,21201,323
Raw,256,21207,323
Raw,194,21207,323
Raw,149,21210,323
Raw,137,21213,323
Raw,244,21216,323
Raw,93,21221,323
Raw,202,21222,323
Raw,125,21230,323
Raw,193,21238,323
Raw,189,21242,323
Raw,245,21269,323
Raw,405,21280,323
Raw,208,21282,323
Raw,226,21292,323
Raw,220,21299,323
Raw,684,21303,323
Raw,518,21306,323
Raw,412,21315,323
Raw,208,21323,323
Raw,432,21329,323
Raw,177,21337,323
Raw,101,21341,323
Raw,238,21361,323
Raw,100,21363,323
Raw,428,21368,323
Raw,393,21371,323
Raw,271,21378,323
Raw,58,21378,323
Raw,445,21383,323
Raw,93,21391,323
Raw,14,21391,323
Raw,123,21392,323
Raw,350,21405,323
Raw,226,21406,323
Raw,213,21407,323
Raw,240,21408,323
Raw,209,21409,323
Raw,357,21417,323
Raw,616,21424,323
Raw,394,21425,323
Raw,246,21430,323
Raw,230,21431,323
Raw,215,21441,323
Raw,238,21443,323
Raw,304,21444,323
Raw,247,21446,323
Raw,78,21446,323
Raw,170,21455,323
Raw,224,21460,323
Raw,420,21461,323
Raw,548,21471,323
Raw,241,21475,323
Raw,202,21477,323
Raw,95,21487,323
Raw,224,21488,323
Raw,497,21489,323
Raw,25,21491,323
Raw,199,21497,323
Raw,674,21504,323
Raw,232,21506,323
Raw,571,21519,323
Raw,246,21520,323
Raw,184,21520,323
Raw,228,21521,323
Raw,98,21521,323
Raw,274,21524,323
Raw,263,21529,323
Raw,276,21533,323
Raw,197,21535,323
Raw,414,21536,323
Raw,106,21538,323
Raw,236,21538,323
Raw,442,21540,323
Raw,196,21540,323
Raw,369,21545,323
Raw,603,21545,323
Raw,164,21545,323
Raw,440,21552,323
Raw,243,21554,323
Raw,163,21559,323
Raw,107,21562,323
Raw,114,21562,323
Raw,412,21570,323
Raw,135,21571,323
Raw,155,21571,323
Raw,288,21572,323
Raw,154,21574,323
Raw,174,21574,323
Raw,105,21574,323
Raw,109,21577,323
Raw,110,21577,323
Raw,129,21578,323
Raw,243,21581,323
Raw,540,21585,323
Raw,195,21585,323
Raw,482,21587,323
Raw,170,21589,323
Raw,646,21601,323
Raw,148,21601,323
Raw,325,21603,323
Raw,224,21606,323
Raw,511,21607,323
Raw,111,21609,323
Raw,362,21611,323
Raw,142,21616,323
Raw,437,21627,323
Raw,87,21627,323
Raw,420,21629,323
Raw,225,21636,323
Raw,437,21637,323
Raw,306,21640,323
Raw,519,21644,323
Raw,226,21645,323
Raw,234,21646,323
Raw,232,21646,323
Raw,159,21654,323
Raw,570,21660,323
Raw,245,21661,323
Raw,392,21669,323
Raw,247,21670,323
Raw,89,21672,323
Raw,245,21681,323
Raw,222,21684,323
Raw,197,21690,323
Raw,490,21692,323
Raw,208,21694,323
Raw,248,21703,323
Raw,227,21713,323
Raw,230,21720,323
Raw,253,21723,323
Raw,503,21733,323
Raw,252,21754,323
Raw,232,21761,323
Raw,46,21784,323
Raw,202,21797,323
Raw,117,21813,323
Raw,175,21815,323
Raw,193,21822,323
Raw,85,21824,323
Raw,220,21845,323
Raw,93,21862,323
Raw,350,21862,323
Raw,209,21867,323
Raw,233,21874,323
Raw,585,21875,323
Raw,207,21879,323
Raw,222,21897,323
Raw,428,21906,323
Raw,362,21920,323
Raw,144,21928,323
Raw,603,21929,323
Raw,63,21934,323
Raw,216,21948,323
Raw,235,21948,323
Raw,235,21950,323
Raw,233,21979,323
Raw,424,21983,323
Raw,112,21994,323
Raw,156,21996,323
Raw,217,21997,323
Raw,235,22003,323
Raw,252,22015,323
Raw,93,22015,323
Raw,215,22016,323
Raw,101,22018,323
Raw,222,22028,323
Raw,457,22029,323
Raw,397,22042,323
Raw,196,22056,323
Raw,210,22064,323
Raw,442,22071,323
Raw,434,22079,323
Raw,151,22082,323
Raw,68,22089,323
Raw,356,22091,323
Raw,520,22098,323
Raw,445,22120,323
Raw,204,22133,323
Raw,41,22135,323
Raw,215,22167,323
Raw,223,22172,323
Raw,222,22179,323
Raw,272,22193,323
Raw,209,22201,323
Raw,111,22210,323
Raw,415,22212,323
Raw,216,22218,323
Raw,254,22221,323
Raw,464,22228,323
Raw,201,22231,323
Raw,456,22241,323
Raw,187,22242,323
Raw,232,22247,323
Raw,229,22249,323
Raw,44,22251,323
Raw,404,22263,323
Raw,237,22266,323
Raw,536,22269,323
Raw,208,22269,323
Raw,170,22279,323
Raw,200,22281,323
Raw,157,22282,323
Raw,97,22287,323
Raw,477,22289,323
Raw,66,22289,323
Raw,333,22293,323
Raw,166,22303,323
Raw,227,22316,323
Raw,221,22323,323
Raw,255,22324,323
Raw,183,22340,323
Raw,425,22375,323
Raw,144,22375,323
Raw,215,22378,323
Raw,258,22380,323
Raw,259,22388,323
Raw,435,22391,323
Raw,202,22392,323
Raw,326,22394,323
Raw,347,22397,323
Raw,208,22406,323
Raw,103,22420,323
Raw,487,22421,323
Raw,198,22422,323
Raw,273,22430,323
Raw,189,22430,323
Raw,158,22435,323
Raw,86,22435,323
Raw,167,22442,323
Raw,334,22444,323
Raw,236,22447,323
Raw,227,22454,323
Raw,76,22462,323
Raw,227,22464,323
Raw,297,22474,323
Raw,208,22483,323
Raw,103,22483,323
Raw,221,22487,323
Raw,229,22494,323
Raw,186,22500,323
Raw,192,22502,323
Raw,210,22506,323
Raw,94,22514,323
Raw,217,22548,323
Raw,158,22548,323
Raw,64,22557,323
Raw,199,22569,323
Raw,164,22578,323
Raw,190,22596,323
Raw,446,22611,323
Raw,229,22629,323
Raw,238,22630,323
Raw,67,22643,323
Raw,212,22660,323
Raw,223,22672,323
Raw,6,22673,323
Raw,231,22674,323
Raw,193,22676,323
Raw,647,22682,323
Raw,286,22689,323
Raw,301,22705,323
Raw,288,22721,323
Raw,229,22723,323
Raw,190,22736,323
Raw,158,22744,323
Raw,361,22751,323
Raw,197,22768,323
Raw,109,22768,323
Raw,182,22769,323
Raw,72,22769,323
Raw,194,22774,323
Raw,243,22787,323
Raw,233,22801,323
Raw,237,22825,323
Raw,407,22841,323
Raw,184,22844,323
Raw,350,22845,323
Raw,208,22847,323
Raw,182,22852,323
Raw,210,22852,323
Raw,273,22855,323
Raw,528,22860,323
Raw,305,22867,323
Raw,162,22867,323
Raw,228,22869,323
Raw,211,22870,323
Raw,262,22872,323
Raw,427,22873,323
Raw,243,22875,323
Raw,188,22886,323
Raw,92,22886,323
Raw,237,22910,323
Raw,460,22932,323
Raw,213,22940,323
Raw,219,22953,323
Raw,461,22955,323
