Cut?,Counts,eventNumber,runNumber
Raw,1.77148072e+06,2,323
Raw,1.20632848e+06,5,323
Raw,6.4671557e+05,10,323
Raw,1.59025243e+05,11,323
Raw,6.28285561e+05,13,323
Raw,8.01017248e+05,19,323
Raw,1.55058772e+06,23,323
Raw,1.77382585e+06,25,323
Raw,6.22775281e+05,26,323
Raw,7.91843412e+05,30,323
Raw,1.42872384e+06,39,323
Raw,6.61797533e+05,39,323
Raw,5.75161555e+05,40,323
Raw,9.06746423e+05,54,323
Raw,9.7368242e+05,54,323
Raw,1.45010843e+06,59,323
Raw,6.13313887e+05,63,323
Raw,6.92665387e+05,67,323
Raw,1.00575017e+06,82,323
Raw,1.51627116e+06,88,323
Raw,1.30658641e+06,93,323
Raw,1.26162664e+06,94,323
Raw,4.55857094e+05,101,323
Raw,8.42125179e+05,116,323
Raw,42760.235,116,323
Raw,3.05359438e+05,118,323
Raw,6.18585199e+05,120,323
Raw,5.67120715e+05,121,323
Raw,5939.2112,124,323
Raw,6.67991735e+05,125,323
Raw,7.3754863e+05,125,323
Raw,6.48978838e+05,135,323
Raw,7.97591191e+05,138,323
Raw,4.78507464e+05,138,323
Raw,4.00039356e+05,140,323
Raw,1.18129183e+06,149,323
Raw,1.16938081e+06,161,323
Raw,5.9324904e+05,166,323
Raw,3.9973605e+05,190,323
Raw,5.88261068e+05,208,323
Raw,8.21806765e+05,259,323
Raw,4.58847509e+05,267,323
Raw,5.8565272e+05,279,323
Raw,6.75746793e+05,291,323
Raw,5.87661899e+05,303,323
Raw,3.52339979e+05,315,323
Raw,4.90108701e+05,317,323
Raw,5.80120467e+05,324,323
Raw,1.27422855e+05,339,323
Raw,6.8210667e+05,341,323
Raw,1.04700721e+06,342,323
Raw,7.15917763e+05,344,323
Raw,7.10014913e+05,352,323
Raw,3.37542372e+05,352,323
Raw,6.53700323e+05,364,323
Raw,3.9037144e+05,379,323
Raw,5.27370667e+05,394,323
Raw,7.31085377e+05,400,323
Raw,3.1218543e+05,415,323
Raw,6.24258682e+05,418,323
Raw,2.99506835e+05,439,323
Raw,4.39713283e+05,440,323
Raw,1.43176401e+06,442,323
Raw,1.23310213e+06,443,323
Raw,4.72651456e+05,446,323
Raw,2.80915491e+05,469,323
Raw,7.03490067e+05,484,323
Raw,6.7283681e+05,487,323
Raw,1.3249033e+06,489,323
Raw,6.0220822e+05,490,323
Raw,1.01854849e+06,491,323
Raw,1.45126512e+06,494,323
Raw,1.19818019e+06,499,323
Raw,3.76065391e+05,502,323
Raw,5.65773064e+05,504,323
Raw,8.17478223e+05,513,323
Raw,5.67742288e+05,518,323
Raw,8.54457879e+05,520,323
Raw,7.28272509e+05,556,323
Raw,5.50295322e+05,561,323
Raw,1.13040408e+06,563,323
Raw,3.5156885e+05,568,323
Raw,5.75182934e+05,578,323
Raw,7.17577168e+05,591,323
Raw,7.66132556e+05,593,323
Raw,7.22446435e+05,598,323
Raw,6.00193784e+05,599,323
Raw,7.06663978e+05,600,323
Raw,1.39655722e+05,600,323
Raw,4.8602125e+05,613,323
Raw,7.12940332e+05,621,323
Raw,4.14182743e+05,643,323
Raw,1.17051409e+05,643,323
Raw,4.27405119e+05,656,323
Raw,5.31071052e+05,657,323
Raw,5.02823024e+05,670,323
Raw,1.48400408e+05,670,323
Raw,7.27935667e+05,681,323
Raw,5.91117509e+05,689,323
Raw,7.29456905e+05,693,323
Raw,4.2164238e+05,705,323
Raw,4.50802774e+05,711,323
Raw,1.43967454e+06,712,323
Raw,38924.89,712,323
Raw,4.63490995e+05,713,323
Raw,8.29149605e+05,716,323
Raw,6.8343054e+05,727,323
Raw,6.90912192e+05,732,323
Raw,2.77092907e+05,734,323
Raw,1.95076197e+05,737,323
Raw,6.35484856e+05,739,323
Raw,3.31805748e+05,744,323
Raw,1.11031439e+06,755,323
Raw,6.21011401e+05,758,323
Raw,6.88578357e+05,767,323
Raw,5.29653107e+05,775,323
Raw,5.665847e+05,801,323
Raw,9.42235596e+05,808,323
Raw,5.50925464e+05,811,323
Raw,6.45323082e+05,814,323
Raw,4.3475602e+05,814,323
Raw,8.10754063e+05,822,323
Raw,2.44587242e+05,824,323
Raw,1.26975515e+06,827,323
Raw,6.29439385e+05,842,323
Raw,1.02069257e+06,849,323
Raw,6.66830971e+05,850,323
Raw,6.49211912e+05,854,323
Raw,7.26639317e+05,863,323
Raw,1.14360614e+06,866,323
Raw,5.37447729e+05,873,323
Raw,6.59675973e+05,873,323
Raw,7.92358006e+05,879,323
Raw,1.16720303e+06,881,323
Raw,7.73771874e+05,885,323
Raw,6.17980969e+05,891,323
Raw,3.52719427e+05,891,323
Raw,3.55592489e+05,897,323
Raw,1.68481221e+06,904,323
Raw,1.50459501e+06,912,323
Raw,1.98611669e+05,921,323
Raw,5.78795585e+05,926,323
Raw,5.77890435e+05,931,323
Raw,6.65502265e+05,942,323
Raw,5.64253337e+05,963,323
Raw,4.03357455e+05,965,323
Raw,5.94852353e+05,973,323
Raw,1.29204557e+06,980,323
Raw,6.15663156e+05,985,323
Raw,4.59550668e+05,986,323
Raw,3.76843731e+05,987,323
Raw,5.87637611e+05,997,323
Raw,5.3318296e+05,1000,323
Raw,5.1752289e+05,1006,323
Raw,1.13899316e+06,1009,323
Raw,6.27354313e+05,1015,323
Raw,5.70129834e+05,1017,323
Raw,7.38100377e+05,1018,323
Raw,1.44987262e+05,1022,323
Raw,1.14843164e+06,1025,323
Raw,7.89041115e+05,1034,323
Raw,5.88204626e+05,1034,323
Raw,2.85833323e+05,1035,323
Raw,4.3218192e+05,1049,323
Raw,5.65239905e+05,1066,323
Raw,1.05718623e+06,1068,323
Raw,4.84076444e+05,1071,323
Raw,5.447258e+05,1087,323
Raw,6.27128641e+05,1094,323
Raw,8.01560307e+05,1100,323
Raw,7.42374497e+05,1115,323
Raw,6.94467982e+05,1118,323
Raw,5.65540128e+05,1118,323
Raw,7.31993204e+05,1122,323
Raw,6.82820339e+05,1129,323
Raw,6.15396433e+05,1137,323
Raw,1.06471973e+06,1150,323
Raw,5.80650803e+05,1163,323
Raw,6.06521933e+05,1173,323
Raw,4.66337067e+05,1179,323
Raw,6.54944996e+05,1183,323
Raw,5.33411551e+05,1189,323
Raw,5.64992259e+05,1195,323
Raw,3.40752179e+05,1198,323
Raw,6.86614239e+05,1203,323
Raw,7.07492317e+05,1208,323
Raw,1.17771026e+06,1212,323
Raw,1.50337505e+06,1222,323
Raw,4.07012874e+05,1225,323
Raw,5.5218854e+05,1226,323
Raw,2.66219159e+05,1226,323
Raw,5.93699511e+05,1230,323
Raw,6.48493391e+05,1233,323
Raw,1.2404773e+06,1238,323
Raw,1.37374993e+05,1252,323
Raw,1.24350298e+06,1262,323
Raw,5.37431325e+05,1266,323
Raw,5.63650665e+05,1271,323
Raw,1.17480884e+06,1298,323
Raw,5.99947372e+05,1301,323
Raw,7.78306782e+05,1305,323
Raw,1.15849442e+06,1308,323
Raw,1.84501896e+05,1309,323
Raw,2.07533996e+05,1314,323
Raw,5.2867728e+05,1315,323
Raw,7.82278467e+05,1324,323
Raw,1.18158078e+06,1325,323
Raw,6.48628033e+05,1332,323
Raw,7.13287283e+05,1357,323
Raw,1.83670743e+06,1375,323
Raw,7.06943465e+05,1387,323
Raw,6.76271834e+05,1387,323
Raw,5.24085773e+05,1399,323
Raw,3.20396493e+05,1404,323
Raw,6.56937193e+05,1404,323
Raw,7.89325964e+05,1405,323
Raw,7.01289531e+05,1408,323
Raw,4.95008953e+05,1416,323
Raw,3.45359792e+05,1416,323
Raw,6.39126486e+05,1419,323
Raw,1.32196417e+06,1431,323
Raw,2.34206475e+05,1438,323
Raw,2.2494741e+05,1442,323
Raw,1.63626696e+06,1448,323
Raw,5.81272966e+05,1454,323
Raw,23880.303,1477,323
Raw,6.10626722e+05,1478,323
Raw,4.17951617e+05,1482,323
Raw,6.49701845e+05,1486,323
Raw,6.1503266e+05,1500,323
Raw,1.28570107e+05,1505,323
Raw,1.01420107e+06,1518,323
Raw,1.02341861e+06,1537,323
Raw,1.08642517e+06,1538,323
Raw,7.34275428e+05,1553,323
Raw,4.09520744e+05,1553,323
Raw,3.33087102e+05,1557,323
Raw,1.80092827e+06,1566,323
Raw,2.18949676e+05,1571,323
Raw,6.07048031e+05,1572,323
Raw,9.58236001e+05,1582,323
Raw,1.8457973e+05,1583,323
Raw,1.31794556e+06,1585,323
Raw,8.81737048e+05,1589,323
Raw,1.75254774e+06,1593,323
Raw,4.40241591e+05,1599,323
Raw,6.4711557e+05,1609,323
Raw,7.45603757e+05,1610,323
Raw,5.49498569e+05,1612,323
Raw,5.30498048e+05,1626,323
Raw,2.73915868e+05,1626,323
Raw,1.1988216e+06,1628,323
Raw,6.15264542e+05,1636,323
Raw,1.33705795e+06,1639,323
Raw,3.98878851e+05,1641,323
Raw,5.16594347e+05,1661,323
Raw,7.39158421e+05,1665,323
Raw,1.21282244e+06,1667,323
Raw,5.2081979e+05,1670,323
Raw,7.83522266e+05,1675,323
Raw,5.52603819e+05,1675,323
Raw,5.4853228e+05,1682,323
Raw,4.2920926e+05,1683,323
Raw,1.28313223e+06,1705,323
Raw,4.10837209e+05,1705,323
Raw,5.18818637e+05,1708,323
Raw,1.97343472e+05,1714,323
Raw,1.34413452e+06,1717,323
Raw,5.21740821e+05,1733,323
Raw,6.66065532e+05,1745,323
Raw,5.07599876e+05,1749,323
Raw,4.13125095e+05,1749,323
Raw,5.75444299e+05,1760,323
Raw,6.41742548e+05,1761,323
Raw,5.5091219e+05,1767,323
Raw,4.0327104e+05,1768,323
Raw,4.75883539e+05,1770,323
Raw,6.26144197e+05,1776,323
Raw,2.64934208e+05,1780,323
Raw,4.63450269e+05,1787,323
Raw,2.64424021e+05,1800,323
Raw,3.84157376e+05,1803,323
Raw,3.20784188e+05,1807,323
Raw,3.90630284e+05,1822,323
Raw,6.19315675e+05,1826,323
Raw,6.13996268e+05,1827,323
Raw,4.60074098e+05,1831,323
Raw,5.41271815e+05,1831,323
Raw,6.35842667e+05,1840,323
Raw,1.73453121e+05,1860,323
Raw,7.44577039e+05,1867,323
Raw,5.59112527e+05,1869,323
Raw,5.66153517e+05,1869,323
Raw,6.16418391e+05,1875,323
Raw,6.68479989e+05,1887,323
Raw,1.34969821e+06,1888,323
Raw,3.30008979e+05,1890,323
Raw,5.72015617e+05,1903,323
Raw,4.25095489e+05,1903,323
Raw,6.43944131e+05,1910,323
Raw,6.27490264e+05,1925,323
Raw,7.93659618e+05,1926,323
Raw,7.02721371e+05,1928,323
Raw,24261.577,1930,323
Raw,6.3740965e+05,1934,323
Raw,5.88309158e+05,1934,323
Raw,7.02753243e+05,1938,323
Raw,5.9311401e+05,1938,323
Raw,6.82845543e+05,1950,323
Raw,3.89561698e+05,1950,323
Raw,4.2167087e+05,1955,323
Raw,1.74593106e+06,1957,323
Raw,66367.155,2000,323
Raw,30274.95,2000,323
Raw,5.33758824e+05,2015,323
Raw,5.81758196e+05,2015,323
Raw,2.94743828e+05,2022,323
Raw,6.27566472e+05,2025,323
Raw,5.68702635e+05,2040,323
Raw,1.85905164e+06,2048,323
Raw,6.06141388e+05,2055,323
Raw,5.69741632e+05,2065,323
Raw,3.92850186e+05,2068,323
Raw,1.45644251e+06,2076,323
Raw,5.77073312e+05,2082,323
Raw,5.96928479e+05,2100,323
Raw,3.4666408e+05,2119,323
Raw,5.50949705e+05,2120,323
Raw,2.58697398e+05,2122,323
Raw,1.5054981e+05,2124,323
Raw,6.44878609e+05,2128,323
Raw,1.17440906e+06,2129,323
Raw,5.73466733e+05,2136,323
Raw,2.88011041e+05,2143,323
Raw,5.87735386e+05,2157,323
Raw,3.38252123e+05,2159,323
Raw,7.06308111e+05,2165,323
Raw,6.55616261e+05,2178,323
Raw,61952.895,2178,323
Raw,1.15847548e+06,2184,323
Raw,8.33127148e+05,2186,323
Raw,3.33029644e+05,2187,323
Raw,5.7954566e+05,2192,323
Raw,3.90782242e+05,2194,323
Raw,3.46940722e+05,2238,323
Raw,1.28904942e+06,2252,323
Raw,2.55637247e+05,2268,323
Raw,6.32684478e+05,2270,323
Raw,6.50693641e+05,2271,323
Raw,6.41337365e+05,2275,323
Raw,3.09837086e+05,2280,323
Raw,5.09890873e+05,2284,323
Raw,8.25884797e+05,2324,323
Raw,6.86459571e+05,2358,323
Raw,5.30425362e+05,2358,323
Raw,5.32117084e+05,2361,323
Raw,7.38776174e+05,2366,323
Raw,4.50742606e+05,2369,323
Raw,5.9509785e+05,2382,323
Raw,1.19370572e+06,2390,323
Raw,4.60734237e+05,2390,323
Raw,5.22884351e+05,2391,323
Raw,3.06582466e+05,2394,323
Raw,6.25280934e+05,2401,323
Raw,7.2462075e+05,2402,323
Raw,5.40758533e+05,2408,323
Raw,3.67803804e+05,2409,323
Raw,6.40092588e+05,2411,323
Raw,5.90027393e+05,2422,323
Raw,6.03342938e+05,2432,323
Raw,7.35089455e+05,2436,323
Raw,4.2424554e+05,2447,323
Raw,1.12471877e+06,2463,323
Raw,1.82885643e+06,2484,323
Raw,8.73213751e+05,2490,323
Raw,2.37345296e+05,2499,323
Raw,6.54463611e+05,2504,323
Raw,6.66205304e+05,2509,323
Raw,2.99135056e+05,2515,323
Raw,2.95071131e+05,2519,323
Raw,7.21266411e+05,2533,323
Raw,6.05562768e+05,2542,323
Raw,5.81702831e+05,2552,323
Raw,6.87791594e+05,2557,323
Raw,5.8086381e+05,2558,323
Raw,6.16879274e+05,2562,323
Raw,7.07736008e+05,2564,323
Raw,5.30347767e+05,2568,323
Raw,1.10604706e+05,2589,323
Raw,5.04796245e+05,2590,323
Raw,4.57278097e+05,2590,323
Raw,1.01948092e+06,2606,323
Raw,6.89793798e+05,2606,323
Raw,4.69952559e+05,2626,323
Raw,9.84809173e+05,2642,323
Raw,2.80893458e+05,2649,323
Raw,1.17496437e+06,2649,323
Raw,3.41953032e+05,2668,323
Raw,7.76788641e+05,2671,323
Raw,1.12820714e+06,2673,323
Raw,7.59114488e+05,2681,323
Raw,9.19331942e+05,2689,323
Raw,6.45877736e+05,2690,323
Raw,6.23969758e+05,2699,323
Raw,5.2301933e+05,2708,323
Raw,6.6030375e+05,2714,323
Raw,8.60100951e+05,2717,323
Raw,7.99255488e+05,2721,323
Raw,2.86306586e+05,2768,323
Raw,5.64960669e+05,2773,323
Raw,2.69567539e+05,2775,323
Raw,7.86218293e+05,2779,323
Raw,7.22229755e+05,2783,323
Raw,6.01363168e+05,2785,323
Raw,6.11313223e+05,2793,323
Raw,5.84977397e+05,2798,323
Raw,5.75021468e+05,2812,323
Raw,6.65570057e+05,2815,323
Raw,5.65903059e+05,2824,323
Raw,5.35416866e+05,2847,323
Raw,6.24608928e+05,2870,323
Raw,4.84857924e+05,2875,323
Raw,6.67198419e+05,2877,323
Raw,1.00713211e+06,2885,323
Raw,3.89037913e+05,2910,323
Raw,3.64984947e+05,2911,323
Raw,5.63477925e+05,2915,323
Raw,6.72703704e+05,2916,323
Raw,5.72523063e+05,2917,323
Raw,4.31641158e+05,2917,323
Raw,6.99604069e+05,2925,323
Raw,62372.496,2925,323
Raw,5.09812907e+05,2928,323
Raw,3.60408698e+05,2943,323
Raw,2.02602975e+05,2958,323
Raw,79840.044,2959,323
Raw,1.21152201e+06,2961,323
Raw,2.18658776e+05,2963,323
Raw,3.96626955e+05,2965,323
Raw,5.91269802e+05,2977,323
Raw,4.42977765e+05,2978,323
Raw,1.88414236e+05,2988,323
Raw,1.24679198e+06,2991,323
Raw,7.48952345e+05,2994,323
Raw,6.93362194e+05,3012,323
Raw,5.9210815e+05,3013,323
Raw,6.43546406e+05,3019,323
Raw,8.09844895e+05,3031,323
Raw,5.95098474e+05,3034,323
Raw,7.266011e+05,3035,323
Raw,2.44320757e+05,3035,323
Raw,4.03451258e+05,3047,323
Raw,6.44677877e+05,3047,323
Raw,7.50810032e+05,3052,323
Raw,6.37174547e+05,3052,323
Raw,6.41818023e+05,3058,323
Raw,4.88924121e+05,3074,323
Raw,3.91982565e+05,3075,323
Raw,4.89092797e+05,3075,323
Raw,5.23481392e+05,3097,323
Raw,7.99149309e+05,3099,323
Raw,6.40678094e+05,3118,323
Raw,6.92341413e+05,3137,323
Raw,3.0624941e+05,3142,323
Raw,3.13743635e+05,3142,323
Raw,4.53975977e+05,3144,323
Raw,6.02626662e+05,3144,323
Raw,7.18108885e+05,3157,323
Raw,5.96773814e+05,3157,323
Raw,9.49173226e+05,3162,323
Raw,6.12931551e+05,3166,323
Raw,8.13316273e+05,3186,323
Raw,6.25342389e+05,3188,323
Raw,7.4361523e+05,3190,323
Raw,3.56269646e+05,3195,323
Raw,5.35037322e+05,3195,323
Raw,8.58791468e+05,3197,323
Raw,1.12158642e+06,3198,323
Raw,1.33735577e+06,3199,323
Raw,1.153222e+06,3203,323
Raw,5.94112184e+05,3227,323
Raw,7.75212809e+05,3231,323
Raw,1.22240897e+06,3236,323
Raw,1.16489621e+06,3239,323
Raw,2.32319831e+05,3239,323
Raw,5.53692989e+05,3240,323
Raw,7.50442096e+05,3260,323
Raw,5.22194779e+05,3266,323
Raw,3.58594509e+05,3266,323
Raw,4.59344902e+05,3266,323
Raw,6.04666274e+05,3275,323
Raw,5.94016624e+05,3288,323
Raw,6.53898552e+05,3310,323
Raw,5.24827087e+05,3314,323
Raw,6.36235827e+05,3329,323
Raw,5.64238325e+05,3331,323
Raw,6.795339e+05,3342,323
Raw,1.11310767e+06,3355,323
Raw,5.15499465e+05,3359,323
Raw,6.61351084e+05,3370,323
Raw,7.66448328e+05,3385,323
Raw,3.60753764e+05,3394,323
Raw,5.74784e+05,3395,323
Raw,1.74161354e+06,3396,323
Raw,1.12660524e+06,3402,323
Raw,3.63092732e+05,3408,323
Raw,6.24040395e+05,3416,323
Raw,7.09761376e+05,3418,323
Raw,5.22958163e+05,3432,323
Raw,2.93897424e+05,3436,323
Raw,7.23596297e+05,3438,323
Raw,6.79317309e+05,3449,323
Raw,6.17939326e+05,3458,323
Raw,5.04737113e+05,3460,323
Raw,5.52358736e+05,3465,323
Raw,1.20361291e+06,3471,323
Raw,7.35433361e+05,3478,323
Raw,1.54069402e+06,3483,323
Raw,6.3379503e+05,3499,323
Raw,8.42705057e+05,3510,323
Raw,5.41440478e+05,3513,323
Raw,6.83310676e+05,3519,323
Raw,3.22446955e+05,3524,323
Raw,1.01598835e+06,3535,323
Raw,6.32669191e+05,3537,323
Raw,1.65755934e+05,3545,323
Raw,6.21170312e+05,3549,323
Raw,5.43359761e+05,3551,323
Raw,4.53136039e+05,3552,323
Raw,3.17876711e+05,3556,323
Raw,7.39931569e+05,3557,323
Raw,6.12905986e+05,3558,323
Raw,4.87993908e+05,3579,323
Raw,4.6052211e+05,3581,323
Raw,5.79448505e+05,3595,323
Raw,5.80363533e+05,3599,323
Raw,5.78283589e+05,3601,323
Raw,3.14343856e+05,3613,323
Raw,6.0686393e+05,3656,323
Raw,1.41633278e+05,3661,323
Raw,5.03070827e+05,3668,323
Raw,7.00363388e+05,3677,323
Raw,5.18159729e+05,3685,323
Raw,4.05325281e+05,3704,323
Raw,7.62488537e+05,3709,323
Raw,7.41312209e+05,3715,323
Raw,2.41591037e+05,3719,323
Raw,9.1496755e+05,3725,323
Raw,5.91060744e+05,3727,323
Raw,6.04942616e+05,3727,323
Raw,6.01377018e+05,3732,323
Raw,5.92295658e+05,3734,323
Raw,6.86386906e+05,3737,323
Raw,6.39791034e+05,3738,323
Raw,6.16751314e+05,3739,323
Raw,7.04960791e+05,3740,323
Raw,4.59833381e+05,3746,323
Raw,5.94606095e+05,3748,323
Raw,6.67119847e+05,3758,323
Raw,1.37627663e+06,3759,323
Raw,1.83117416e+05,3772,323
Raw,5.86557419e+05,3794,323
Raw,1.51274138e+05,3796,323
Raw,6.90869112e+05,3801,323
Raw,1.07878643e+06,3807,323
Raw,6.26076709e+05,3815,323
Raw,5.68572714e+05,3817,323
Raw,6.47659315e+05,3836,323
Raw,5.79904971e+05,3837,323
Raw,6.49318234e+05,3838,323
Raw,4.32158416e+05,3869,323
Raw,4.33222635e+05,3875,323
Raw,1.19701621e+06,3877,323
Raw,6.13340977e+05,3884,323
Raw,1.25877879e+06,3891,323
Raw,5.47100236e+05,3902,323
Raw,3.14969515e+05,3902,323
Raw,3.22208421e+05,3924,323
Raw,7.0326523e+05,3930,323
Raw,6.4854462e+05,3935,323
Raw,6.25898375e+05,3942,323
Raw,5.56958446e+05,3946,323
Raw,5.38531094e+05,3946,323
Raw,6.60797189e+05,3948,323
Raw,5.89776837e+05,3973,323
Raw,5.83579963e+05,3980,323
Raw,1.0982373e+06,3981,323
Raw,6.9695818e+05,3983,323
Raw,3.54614546e+05,3987,323
Raw,9.18527051e+05,3990,323
Raw,6.57279521e+05,3994,323
Raw,3.63997308e+05,3996,323
Raw,6.06286558e+05,4006,323
Raw,5.97981353e+05,4009,323
Raw,6.31925918e+05,4012,323
Raw,3.44216636e+05,4013,323
Raw,6.05219551e+05,4018,323
Raw,1.23467422e+06,4029,323
Raw,1.29193506e+05,4029,323
Raw,6.99319886e+05,4047,323
Raw,1.39120678e+06,4063,323
Raw,3.88672398e+05,4067,323
Raw,1.51947284e+06,4082,323
Raw,7.85942389e+05,4105,323
Raw,5.90113154e+05,4105,323
Raw,6.74603916e+05,4113,323
Raw,6.69176316e+05,4121,323
Raw,6.12187144e+05,4134,323
Raw,2.43982349e+05,4134,323
Raw,8.93418239e+05,4142,323
Raw,6.18259936e+05,4147,323
Raw,5.9585368e+05,4149,323
Raw,6.04767578e+05,4163,323
Raw,1.43016784e+06,4242,323
Raw,3.82899588e+05,4260,323
Raw,2.26572375e+05,4267,323
Raw,1.15082999e+06,4272,323
Raw,6.45207945e+05,4286,323
Raw,7.47603088e+05,4287,323
Raw,7.2927104e+05,4309,323
Raw,81459.629,4309,323
Raw,5.55982732e+05,4315,323
Raw,4.32710705e+05,4316,323
Raw,3.33895393e+05,4343,323
Raw,1.81827225e+05,4347,323
Raw,4.3476197e+05,4352,323
Raw,5.86446591e+05,4353,323
Raw,5.87591315e+05,4361,323
Raw,7.29833873e+05,4367,323
Raw,1.63651777e+06,4368,323
Raw,2.52483587e+05,4376,323
Raw,5.27599346e+05,4377,323
Raw,7.22571475e+05,4379,323
Raw,5.73424704e+05,4407,323
Raw,6.61778544e+05,4430,323
Raw,6.72259102e+05,4436,323
Raw,1.53475511e+06,4442,323
Raw,4.97131528e+05,4444,323
Raw,6.46597129e+05,4449,323
Raw,5.13404924e+05,4452,323
Raw,6.58314522e+05,4455,323
Raw,5.07449559e+05,4494,323
Raw,6.03128066e+05,4498,323
Raw,6.10527734e+05,4500,323
Raw,4.22980968e+05,4514,323
Raw,1.04569698e+06,4516,323
Raw,5.76076846e+05,4533,323
Raw,6.79024908e+05,4562,323
Raw,4.86771238e+05,4569,323
Raw,5.97843482e+05,4569,323
Raw,6.51131672e+05,4583,323
Raw,7.02082956e+05,4584,323
Raw,6.53960991e+05,4590,323
Raw,6.027759e+05,4605,323
Raw,5.85566379e+05,4613,323
Raw,3.36368662e+05,4626,323
Raw,95447.708,4626,323
Raw,5.25594785e+05,4647,323
Raw,7.48458811e+05,4653,323
Raw,3.49232129e+05,4687,323
Raw,2.81174045e+05,4688,323
Raw,6.44017357e+05,4727,323
Raw,6.50998712e+05,4740,323
Raw,1.58546065e+05,4741,323
Raw,1.84700099e+06,4750,323
Raw,1.10871188e+06,4757,323
Raw,1.12476449e+06,4784,323
Raw,5.92748243e+05,4806,323
Raw,4.48233376e+05,4811,323
Raw,1.41259539e+06,4820,323
Raw,6.42730739e+05,4832,323
Raw,5.39272517e+05,4840,323
Raw,7.21522985e+05,4852,323
Raw,6.54289284e+05,4867,323
Raw,1.28949857e+05,4872,323
Raw,6.04719403e+05,4883,323
Raw,3.30014097e+05,4899,323
Raw,4.11204631e+05,4902,323
Raw,5.64549816e+05,4915,323
Raw,6.62158826e+05,4924,323
Raw,1.9611749e+05,4925,323
Raw,6.55667049e+05,4933,323
Raw,5.60057725e+05,4944,323
Raw,3.61328778e+05,4952,323
Raw,6.01477402e+05,4957,323
Raw,5.72910251e+05,4958,323
Raw,6.44975749e+05,4964,323
Raw,6.59968348e+05,4970,323
Raw,5.96274868e+05,4970,323
Raw,9.96826262e+05,4972,323
Raw,4.85407679e+05,4983,323
Raw,2.35300351e+05,4984,323
Raw,7.4711104e+05,4986,323
Raw,7.15909587e+05,4999,323
Raw,5.96108084e+05,5006,323
Raw,1.1733056e+06,5015,323
Raw,86045.497,5015,323
Raw,6.89153138e+05,5036,323
Raw,5.73453266e+05,5042,323
Raw,6.03029256e+05,5043,323
Raw,6.30442457e+05,5045,323
Raw,1.29530235e+05,5048,323
Raw,5.64705527e+05,5060,323
Raw,6.63100013e+05,5069,323
Raw,2.51904885e+05,5077,323
Raw,6.87001267e+05,5081,323
Raw,7.18447017e+05,5095,323
Raw,5.8159092e+05,5097,323
Raw,5.99527424e+05,5108,323
Raw,6.01551541e+05,5135,323
Raw,6.73727913e+05,5137,323
Raw,4.61600484e+05,5140,323
Raw,6.19851774e+05,5145,323
Raw,5.87600565e+05,5148,323
Raw,5.75712266e+05,5162,323
Raw,5.3129054e+05,5172,323
Raw,4.68610382e+05,5176,323
Raw,6.8106937e+05,5179,323
Raw,5.58607248e+05,5180,323
Raw,3.38120033e+05,5187,323
Raw,9.06193843e+05,5188,323
Raw,2.47297861e+05,5195,323
Raw,5.69675682e+05,5196,323
Raw,1.83970966e+06,5203,323
Raw,1.18530416e+06,5207,323
Raw,5.06806592e+05,5209,323
Raw,4.91461872e+05,5209,323
Raw,6.78488562e+05,5213,323
Raw,1.21526939e+06,5216,323
Raw,4.71640652e+05,5219,323
Raw,6.76786568e+05,5220,323
Raw,5.74460087e+05,5233,323
Raw,6.12588964e+05,5239,323
Raw,4.12285763e+05,5251,323
Raw,5.5211083e+05,5252,323
Raw,4.93057401e+05,5254,323
Raw,2.28277034e+05,5267,323
Raw,5.90150662e+05,5269,323
Raw,3.26070576e+05,5272,323
Raw,3.04204737e+05,5276,323
Raw,2.43598097e+05,5280,323
Raw,6.23388452e+05,5282,323
Raw,5.26916556e+05,5283,323
Raw,7.61324382e+05,5301,323
Raw,4.49117788e+05,5303,323
Raw,2.77322574e+05,5316,323
Raw,5.44900827e+05,5317,323
Raw,5.05304131e+05,5338,323
Raw,4.3191507e+05,5344,323
Raw,1.98271942e+05,5344,323
Raw,6.6826169e+05,5369,323
Raw,8.53454672e+05,5372,323
Raw,1.12253529e+06,5383,323
Raw,1.42392189e+06,5390,323
Raw,6.37313539e+05,5418,323
Raw,5.57594252e+05,5421,323
Raw,7.49183884e+05,5424,323
Raw,5.19121297e+05,5430,323
Raw,1.39533535e+06,5434,323
Raw,6.85716717e+05,5435,323
Raw,6.31843909e+05,5459,323
Raw,3.90030247e+05,5461,323
Raw,5.70121456e+05,5465,323
Raw,5.44317431e+05,5483,323
Raw,6.73504741e+05,5500,323
Raw,5.62630206e+05,5501,323
Raw,5.95532807e+05,5501,323
Raw,4.21390463e+05,5514,323
Raw,3.0919619e+05,5525,323
Raw,6.42017976e+05,5538,323
Raw,2.96609086e+05,5545,323
Raw,2.92839282e+05,5546,323
Raw,5.56776942e+05,5581,323
Raw,5.54572482e+05,5583,323
Raw,1.42191596e+05,5587,323
Raw,6.67971334e+05,5601,323
Raw,6.37461317e+05,5610,323
Raw,2.95607287e+05,5610,323
Raw,6.53568375e+05,5625,323
Raw,3.90679371e+05,5634,323
Raw,4.61104131e+05,5635,323
Raw,5.39466527e+05,5662,323
Raw,3.86451605e+05,5666,323
Raw,79981.233,5672,323
Raw,4.94716755e+05,5673,323
Raw,3.10239655e+05,5686,323
Raw,2.1496596e+05,5689,323
Raw,5.65322172e+05,5702,323
Raw,5.72474583e+05,5704,323
Raw,6.63451973e+05,5709,323
Raw,4.193839e+05,5711,323
Raw,6.92719902e+05,5713,323
Raw,3.95847394e+05,5726,323
Raw,7.35395989e+05,5734,323
Raw,6.38262866e+05,5743,323
Raw,1.1712038e+06,5746,323
Raw,1.77680733e+06,5747,323
Raw,4.20837405e+05,5748,323
Raw,7.04265745e+05,5758,323
Raw,4.81156818e+05,5775,323
Raw,4.80914414e+05,5779,323
Raw,5.5446821e+05,5813,323
Raw,6.05484787e+05,5814,323
Raw,2.29541459e+05,5814,323
Raw,4.14846096e+05,5854,323
Raw,1.66602033e+05,5854,323
Raw,2.47875629e+05,5870,323
Raw,2.97772149e+05,5871,323
Raw,5.71580012e+05,5873,323
Raw,6.56093778e+05,5873,323
Raw,1.08778377e+06,5879,323
Raw,3.70542691e+05,5881,323
Raw,5.38201369e+05,5894,323
Raw,6.350381e+05,5894,323
Raw,6.60243626e+05,5897,323
Raw,6.84708956e+05,5912,323
Raw,2.31675767e+05,5917,323
Raw,27167.605,5918,323
Raw,5.33688026e+05,5934,323
Raw,5.98123967e+05,5942,323
Raw,1.91493405e+05,5947,323
Raw,6.14109192e+05,5984,323
Raw,5.68068419e+05,5986,323
Raw,6.22522229e+05,5989,323
Raw,5.98075589e+05,5999,323
Raw,5.91203521e+05,6019,323
Raw,6.79307586e+05,6022,323
Raw,6.29618357e+05,6027,323
Raw,6.07556314e+05,6027,323
Raw,2.43011493e+05,6030,323
Raw,9.9442647e+05,6037,323
Raw,2.81774837e+05,6052,323
Raw,1.18190316e+06,6053,323
Raw,6.80344443e+05,6053,323
Raw,7.23353811e+05,6057,323
Raw,6.15564371e+05,6065,323
Raw,6.40138613e+05,6069,323
Raw,4.58043632e+05,6080,323
Raw,7.86605368e+05,6081,323
Raw,4.91740658e+05,6082,323
Raw,1.02551652e+05,6102,323
Raw,4.10057584e+05,6113,323
Raw,3.50529915e+05,6113,323
Raw,6.32091986e+05,6122,323
Raw,3.84277882e+05,6124,323
Raw,4.55064637e+05,6126,323
Raw,5.69197035e+05,6134,323
Raw,6.65130747e+05,6141,323
Raw,5.83066168e+05,6147,323
Raw,1.61227241e+05,6150,323
Raw,6.21241466e+05,6155,323
Raw,4.16784624e+05,6171,323
Raw,5.92121044e+05,6180,323
Raw,2.62900087e+05,6184,323
Raw,7.29037673e+05,6185,323
Raw,7.74340498e+05,6201,323
Raw,4.51962426e+05,6213,323
Raw,6.20547856e+05,6213,323
Raw,4.98331425e+05,6222,323
Raw,5.727467e+05,6227,323
Raw,1.19922561e+06,6228,323
Raw,1.80066206e+05,6236,323
Raw,1.21124438e+06,6237,323
Raw,6.14317599e+05,6243,323
Raw,1.07005696e+05,6246,323
Raw,8.42656293e+05,6248,323
Raw,7.07403889e+05,6263,323
Raw,6.60964371e+05,6264,323
Raw,3.91386839e+05,6265,323
Raw,1.72913465e+06,6273,323
Raw,6.67222783e+05,6280,323
Raw,5.13644493e+05,6280,323
Raw,7.41127832e+05,6289,323
Raw,2.69249441e+05,6302,323
Raw,8.18964076e+05,6307,323
Raw,5.99643962e+05,6328,323
Raw,1.48188252e+06,6337,323
Raw,6.35423995e+05,6338,323
Raw,1.67265226e+05,6355,323
Raw,9.94553918e+05,6357,323
Raw,5.92932846e+05,6357,323
Raw,5.02786538e+05,6369,323
Raw,6.56626378e+05,6380,323
Raw,7.63133024e+05,6392,323
Raw,1.70511842e+05,6420,323
Raw,4.61510289e+05,6430,323
Raw,7.78001536e+05,6432,323
Raw,5.95591617e+05,6433,323
Raw,2.89276982e+05,6433,323
Raw,7.06553335e+05,6448,323
Raw,2.1464355e+05,6448,323
Raw,5.87375287e+05,6456,323
Raw,53009.227,6456,323
Raw,6.67779787e+05,6457,323
Raw,5.84226405e+05,6502,323
Raw,8.05591097e+05,6520,323
Raw,6.46732013e+05,6520,323
Raw,1.47379102e+06,6522,323
Raw,6.80763073e+05,6532,323
Raw,6.5776289e+05,6536,323
Raw,4.9353139e+05,6540,323
Raw,1.36942487e+06,6554,323
Raw,1.3847288e+06,6555,323
Raw,7.45514396e+05,6557,323
Raw,6.89075608e+05,6563,323
Raw,6.94827329e+05,6563,323
Raw,5.74052309e+05,6567,323
Raw,6.94128666e+05,6568,323
Raw,7.35812897e+05,6570,323
Raw,6.28371791e+05,6595,323
Raw,5.14035528e+05,6597,323
Raw,1.18665316e+06,6604,323
Raw,7.04454269e+05,6607,323
Raw,3.5532167e+05,6620,323
Raw,5.31213675e+05,6623,323
Raw,5.483292e+05,6625,323
Raw,7.76072854e+05,6627,323
Raw,6.1032021e+05,6627,323
Raw,7.20772898e+05,6628,323
Raw,6.24963293e+05,6628,323
Raw,1.15081314e+06,6641,323
Raw,3.49314634e+05,6652,323
Raw,6.40059301e+05,6655,323
Raw,84586.939,6669,323
Raw,4.01777467e+05,6673,323
Raw,6.42408705e+05,6675,323
Raw,6.36522493e+05,6677,323
Raw,8.36890965e+05,6690,323
Raw,1.73087603e+06,6701,323
Raw,6.05440616e+05,6714,323
Raw,4.54333277e+05,6715,323
Raw,3.06173294e+05,6724,323
Raw,8.41863016e+05,6743,323
Raw,8.1875521e+05,6753,323
Raw,6.28430128e+05,6762,323
Raw,3.85349328e+05,6764,323
Raw,7.90275419e+05,6767,323
Raw,1.31068385e+06,6768,323
Raw,9.69160959e+05,6771,323
Raw,3.95048079e+05,6782,323
Raw,5.22761146e+05,6783,323
Raw,4.32785622e+05,6784,323
Raw,4.8261274e+05,6791,323
Raw,6.83768758e+05,6807,323
Raw,6.67143469e+05,6809,323
Raw,1.02288673e+06,6822,323
Raw,5.86032286e+05,6824,323
Raw,4.98974997e+05,6831,323
Raw,9.88588866e+05,6834,323
Raw,1.35814863e+06,6849,323
Raw,6.99443789e+05,6852,323
Raw,6.51487219e+05,6860,323
Raw,5.97669611e+05,6860,323
Raw,7.04444138e+05,6868,323
Raw,5.51319043e+05,6872,323
Raw,9.36548935e+05,6876,323
Raw,5.38251057e+05,6879,323
Raw,6.77327363e+05,6882,323
Raw,1.70466473e+05,6882,323
Raw,7.67897635e+05,6886,323
Raw,6.54930022e+05,6892,323
Raw,1.23534843e+06,6896,323
Raw,5.52059715e+05,6905,323
Raw,5.03625543e+05,6920,323
Raw,5.5557596e+05,6924,323
Raw,3.12254591e+05,6924,323
Raw,6.65768934e+05,6928,323
Raw,6.63062144e+05,6934,323
Raw,5.54846902e+05,6935,323
Raw,6.1428481e+05,6946,323
Raw,3.62280302e+05,6947,323
Raw,7.24581128e+05,6963,323
Raw,5.39292858e+05,6970,323
Raw,5.94366322e+05,6977,323
Raw,5.84503112e+05,6988,323
Raw,6.79605257e+05,7013,323
Raw,7.07204033e+05,7015,323
Raw,7.38028652e+05,7020,323
Raw,6.15940136e+05,7028,323
Raw,7.26697729e+05,7031,323
Raw,6.37289128e+05,7031,323
Raw,5.44732502e+05,7034,323
Raw,6.35659137e+05,7040,323
Raw,6.08670628e+05,7050,323
Raw,2.26658438e+05,7056,323
Raw,6.13200159e+05,7056,323
Raw,2.5567797e+05,7059,323
Raw,1.43531371e+06,7074,323
Raw,4.40564894e+05,7081,323
Raw,3.10150631e+05,7085,323
Raw,6.59598661e+05,7087,323
Raw,6.25061488e+05,7095,323
Raw,6.81276233e+05,7095,323
Raw,1.09995268e+06,7109,323
Raw,3.10025839e+05,7109,323
Raw,3.76402521e+05,7109,323
Raw,5.54217317e+05,7114,323
Raw,5.28342529e+05,7118,323
Raw,5.86064896e+05,7119,323
Raw,5.11422575e+05,7119,323
Raw,6.95753542e+05,7136,323
Raw,5.61740811e+05,7139,323
Raw,8.05914275e+05,7160,323
Raw,7.3309265e+05,7160,323
Raw,6.76255644e+05,7161,323
Raw,6.02694412e+05,7162,323
Raw,2.36513127e+05,7165,323
Raw,4.13270272e+05,7167,323
Raw,1.04102316e+06,7174,323
Raw,5.07974788e+05,7189,323
Raw,5.12003412e+05,7189,323
Raw,1.06806187e+06,7190,323
Raw,6.61387674e+05,7195,323
Raw,4.92013809e+05,7201,323
Raw,6.43547821e+05,7218,323
Raw,3.44729734e+05,7218,323
Raw,1.31861058e+06,7221,323
Raw,3.24279008e+05,7232,323
Raw,6.751782e+05,7237,323
Raw,6.70557396e+05,7238,323
Raw,1.35894242e+06,7240,323
Raw,1.19141302e+06,7245,323
Raw,5.72554815e+05,7248,323
Raw,3.67578584e+05,7256,323
Raw,2.96700945e+05,7261,323
Raw,4.21667068e+05,7282,323
Raw,1.40929045e+06,7288,323
Raw,1.97763785e+05,7307,323
Raw,5.27154237e+05,7318,323
Raw,5.84751041e+05,7323,323
Raw,1.42818133e+06,7325,323
Raw,3.53890538e+05,7330,323
Raw,5.30155869e+05,7332,323
Raw,6.28581597e+05,7334,323
Raw,1.12016148e+06,7336,323
Raw,8.47153217e+05,7347,323
Raw,7.06606882e+05,7349,323
Raw,3.4269854e+05,7350,323
Raw,5.59741206e+05,7370,323
Raw,6.75632702e+05,7372,323
Raw,6.39610063e+05,7380,323
Raw,8.60864156e+05,7381,323
Raw,7.0145368e+05,7381,323
Raw,4.68511276e+05,7393,323
Raw,1.05052617e+06,7396,323
Raw,5.35371091e+05,7396,323
Raw,6.07229344e+05,7401,323
Raw,1.37794916e+05,7401,323
Raw,3.18539184e+05,7413,323
Raw,3.23847908e+05,7414,323
Raw,6.50454009e+05,7419,323
Raw,5.7756866e+05,7423,323
Raw,5.91795474e+05,7435,323
Raw,7.32667711e+05,7440,323
Raw,7.87884209e+05,7443,323
Raw,6.4405539e+05,7454,323
Raw,1.29520554e+06,7459,323
Raw,7.04418281e+05,7464,323
Raw,6.13847503e+05,7468,323
Raw,3.00344881e+05,7469,323
Raw,1.34378276e+06,7472,323
Raw,5.61412088e+05,7487,323
Raw,5.37264202e+05,7493,323
Raw,6.82588865e+05,7497,323
Raw,7.22290282e+05,7513,323
Raw,7.1971669e+05,7520,323
Raw,6.87775706e+05,7521,323
Raw,5.07951358e+05,7533,323
Raw,6.16351417e+05,7535,323
Raw,5.57014472e+05,7536,323
Raw,3.87938774e+05,7542,323
Raw,4.91013151e+05,7546,323
Raw,3.28463485e+05,7547,323
Raw,5.21131765e+05,7550,323
Raw,5.41673702e+05,7552,323
Raw,2.53768143e+05,7552,323
Raw,7.19355185e+05,7555,323
Raw,7.01054196e+05,7609,323
Raw,6.62520851e+05,7616,323
Raw,6.18609373e+05,7624,323
Raw,1.17349107e+06,7649,323
Raw,5.05403382e+05,7651,323
Raw,6.62222841e+05,7659,323
Raw,5.53731219e+05,7668,323
Raw,6.15607387e+05,7686,323
Raw,5.89461657e+05,7696,323
Raw,6.98615807e+05,7701,323
Raw,6.08642364e+05,7702,323
Raw,6.52254998e+05,7702,323
Raw,6.36105262e+05,7727,323
Raw,1.23056472e+06,7731,323
Raw,5.47529891e+05,7745,323
Raw,2.1121761e+05,7761,323
Raw,3.97764135e+05,7772,323
Raw,7.64726742e+05,7809,323
Raw,6.87103891e+05,7811,323
Raw,6.43125668e+05,7815,323
Raw,2.20059043e+05,7815,323
Raw,4.3997716e+05,7824,323
Raw,1.94760771e+05,7826,323
Raw,2.20859866e+05,7841,323
Raw,1.23912833e+06,7848,323
Raw,5.72366014e+05,7857,323
Raw,1.08482248e+06,7862,323
Raw,1.41125458e+06,7863,323
Raw,5.224803e+05,7875,323
Raw,5.9822409e+05,7886,323
Raw,1.07192244e+06,7918,323
Raw,6.82083244e+05,7919,323
Raw,4.96091886e+05,7929,323
Raw,6.38699892e+05,7935,323
Raw,6.50066941e+05,7935,323
Raw,8.08785076e+05,7936,323
Raw,3.56768578e+05,7941,323
Raw,5.73898367e+05,7959,323
Raw,1.1254932e+06,7963,323
Raw,7.03489725e+05,7965,323
Raw,6.03566065e+05,7972,323
Raw,6.2835171e+05,7976,323
Raw,6.31803502e+05,7983,323
Raw,5.84362216e+05,7994,323
Raw,8.06403896e+05,7996,323
Raw,5.83200803e+05,8001,323
Raw,4.08619972e+05,8006,323
Raw,1.16340021e+06,8013,323
Raw,1.34713128e+06,8019,323
Raw,1.27054888e+06,8020,323
Raw,5.01022268e+05,8023,323
Raw,5.77982611e+05,8027,323
Raw,2.71579997e+05,8027,323
Raw,6.47461694e+05,8032,323
Raw,6.10175793e+05,8062,323
Raw,5.98046416e+05,8062,323
Raw,2.49014261e+05,8063,323
Raw,6.06828347e+05,8066,323
Raw,3.75495496e+05,8084,323
Raw,6.99174903e+05,8105,323
Raw,1.30491281e+06,8110,323
Raw,3.81281045e+05,8141,323
Raw,2.40381003e+05,8141,323
Raw,6.56304599e+05,8149,323
Raw,5.75456958e+05,8155,323
Raw,7.06432281e+05,8162,323
Raw,5.91711955e+05,8166,323
Raw,1.13952957e+06,8186,323
Raw,6.7073595e+05,8188,323
Raw,6.81886646e+05,8189,323
Raw,7.10924302e+05,8189,323
Raw,7.19826538e+05,8190,323
Raw,1.09882401e+06,8236,323
Raw,6.0198323e+05,8239,323
Raw,4.38894726e+05,8249,323
Raw,6.73512393e+05,8253,323
Raw,1.18285932e+06,8254,323
Raw,6.45420385e+05,8257,323
Raw,3.84186417e+05,8267,323
Raw,4.84409056e+05,8271,323
Raw,1.68682301e+05,8271,323
Raw,7.26730925e+05,8276,323
Raw,6.66448011e+05,8289,323
Raw,5.78939167e+05,8290,323
Raw,5.1014556e+05,8301,323
Raw,5.14138497e+05,8304,323
Raw,5.88863523e+05,8309,323
Raw,1.87054725e+05,8312,323
Raw,1.14455125e+06,8313,323
Raw,5.13611792e+05,8314,323
Raw,1.08213445e+06,8319,323
Raw,1.65510081e+05,8327,323
Raw,3.98303676e+05,8340,323
Raw,6.86220129e+05,8344,323
Raw,5.25641475e+05,8352,323
Raw,7.1784352e+05,8365,323
Raw,5.36139528e+05,8365,323
Raw,4.7641676e+05,8367,323
Raw,6.70798359e+05,8377,323
Raw,5.95271423e+05,8382,323
Raw,1.31794343e+06,8386,323
Raw,3.4709513e+05,8388,323
Raw,7.50878167e+05,8388,323
Raw,1.39471323e+06,8391,323
Raw,5.60630908e+05,8392,323
Raw,5.89220193e+05,8395,323
Raw,3.56208215e+05,8405,323
Raw,6.23230015e+05,8417,323
Raw,6.03105403e+05,8421,323
Raw,6.17257576e+05,8429,323
Raw,1.37323805e+06,8434,323
Raw,6.04894972e+05,8436,323
Raw,4.51412902e+05,8445,323
Raw,1.11765196e+06,8446,323
Raw,6.3764413e+05,8449,323
Raw,6.36819251e+05,8450,323
Raw,1.39970553e+06,8458,323
Raw,7.00185077e+05,8459,323
Raw,6.21098648e+05,8473,323
Raw,3.18220657e+05,8488,323
Raw,7.37864411e+05,8494,323
Raw,3.09413774e+05,8496,323
Raw,7.03289523e+05,8506,323
Raw,3.03101706e+05,8515,323
Raw,1.33416464e+06,8516,323
Raw,5.57015113e+05,8522,323
Raw,6.53487583e+05,8522,323
Raw,4.4371458e+05,8526,323
Raw,6.23820699e+05,8530,323
Raw,6.44988479e+05,8535,323
Raw,4.34123397e+05,8541,323
Raw,4.69944769e+05,8542,323
Raw,2.38948211e+05,8546,323
Raw,3.84434795e+05,8547,323
Raw,5.55427844e+05,8547,323
Raw,5.10688811e+05,8555,323
Raw,5.29487913e+05,8565,323
Raw,7.26655403e+05,8570,323
Raw,5.82749318e+05,8570,323
Raw,6.96590623e+05,8579,323
Raw,6.82138934e+05,8584,323
Raw,4.32954246e+05,8586,323
Raw,7.67250706e+05,8625,323
Raw,2.25848619e+05,8639,323
Raw,7.21161255e+05,8645,323
Raw,4.1607556e+05,8647,323
Raw,4.89542083e+05,8651,323
Raw,5.74653797e+05,8665,323
Raw,4.43520019e+05,8666,323
Raw,5.83387247e+05,8666,323
Raw,1.53062998e+06,8673,323
Raw,5.65023581e+05,8696,323
Raw,2.21932319e+05,8696,323
Raw,6.00719961e+05,8706,323
Raw,5.80327638e+05,8714,323
Raw,5.88501863e+05,8714,323
Raw,4.97795808e+05,8715,323
Raw,7.39548783e+05,8733,323
Raw,3.96999984e+05,8733,323
Raw,6.92762782e+05,8737,323
Raw,3.86907555e+05,8738,323
Raw,5.64317222e+05,8740,323
Raw,1.15255327e+06,8749,323
Raw,5.36820326e+05,8760,323
Raw,6.14362327e+05,8771,323
Raw,6.28536093e+05,8775,323
Raw,6.53132021e+05,8789,323
Raw,5.11555145e+05,8790,323
Raw,3.52878257e+05,8793,323
Raw,1.22755465e+06,8797,323
Raw,5.17873046e+05,8802,323
Raw,2.61626181e+05,8803,323
Raw,3.22570518e+05,8825,323
Raw,1.84865915e+06,8833,323
Raw,5.91790339e+05,8836,323
Raw,6.19265543e+05,8839,323
Raw,2.36888834e+05,8844,323
Raw,6.18786173e+05,8846,323
Raw,6.58632554e+05,8857,323
Raw,2.12769261e+05,8877,323
Raw,1.17668658e+06,8881,323
Raw,2.63579418e+05,8882,323
Raw,1.19401784e+06,8883,323
Raw,6.27959761e+05,8897,323
Raw,1.24935359e+06,8898,323
Raw,6.61148122e+05,8905,323
Raw,6.08523352e+05,8911,323
Raw,6.41753152e+05,8938,323
Raw,5.26132267e+05,8948,323
Raw,6.95392204e+05,8955,323
Raw,6.46026139e+05,8972,323
Raw,1.76979229e+05,8977,323
Raw,5.08687367e+05,8980,323
Raw,5.5478557e+05,8986,323
Raw,5.23794626e+05,8987,323
Raw,6.07572893e+05,8992,323
Raw,5.89203202e+05,8993,323
Raw,5.95470896e+05,9002,323
Raw,5.05421564e+05,9010,323
Raw,5.24339271e+05,9019,323
Raw,5.59040948e+05,9019,323
Raw,6.44220017e+05,9021,323
Raw,5.243839e+05,9021,323
Raw,5.13111851e+05,9028,323
Raw,7.45826814e+05,9028,323
Raw,4.58096194e+05,9046,323
Raw,5.01822097e+05,9048,323
Raw,8.35487586e+05,9063,323
Raw,7.77674199e+05,9069,323
Raw,7.5885626e+05,9076,323
Raw,3.92716765e+05,9076,323
Raw,5.98613488e+05,9077,323
Raw,6.61339782e+05,9080,323
Raw,6.28847732e+05,9081,323
Raw,1.37639285e+06,9084,323
Raw,5.62508451e+05,9094,323
Raw,62852.531,9103,323
Raw,3.61487653e+05,9103,323
Raw,1.25525211e+06,9114,323
Raw,6.40732312e+05,9114,323
Raw,6.12421883e+05,9116,323
Raw,5.72756912e+05,9129,323
Raw,6.6265739e+05,9172,323
Raw,6.61093425e+05,9180,323
Raw,5.46871475e+05,9181,323
Raw,1.22024767e+06,9182,323
Raw,39306.711,9183,323
Raw,2.96146095e+05,9215,323
Raw,6.47019711e+05,9231,323
Raw,4.7934859e+05,9242,323
Raw,2.39344299e+05,9250,323
Raw,1.05127938e+06,9277,323
Raw,1.8090906e+06,9298,323
Raw,4.52494432e+05,9315,323
Raw,1.14827594e+06,9320,323
Raw,6.67601394e+05,9322,323
Raw,4.23046829e+05,9322,323
Raw,1.07832973e+06,9327,323
Raw,9.24843965e+05,9332,323
Raw,3.13216935e+05,9332,323
Raw,4.91582277e+05,9334,323
Raw,2.94490051e+05,9343,323
Raw,5.74129116e+05,9357,323
Raw,7.63986543e+05,9358,323
Raw,6.18867918e+05,9358,323
Raw,5.11039424e+05,9364,323
Raw,2.87638171e+05,9366,323
Raw,3.53120726e+05,9366,323
Raw,5.83551503e+05,9373,323
Raw,2.84140433e+05,9377,323
Raw,7.20993343e+05,9380,323
Raw,2.6030927e+05,9381,323
Raw,3.47577477e+05,9384,323
Raw,6.60415249e+05,9386,323
Raw,4.99734211e+05,9393,323
Raw,6.69260671e+05,9400,323
Raw,6.3902068e+05,9406,323
Raw,5.88125367e+05,9408,323
Raw,6.61080163e+05,9433,323
Raw,41086.992,9436,323
Raw,1.26095088e+06,9439,323
Raw,7.16754865e+05,9443,323
Raw,1.32925744e+06,9448,323
Raw,2.46334192e+05,9454,323
Raw,3.74944492e+05,9461,323
Raw,7.15840864e+05,9471,323
Raw,6.10161756e+05,9472,323
Raw,6.07181958e+05,9473,323
Raw,1.29940967e+06,9492,323
Raw,1.08811252e+05,9493,323
Raw,5.7160814e+05,9510,323
Raw,2.74482627e+05,9511,323
Raw,3.57572881e+05,9513,323
Raw,1.65271336e+06,9519,323
Raw,8.41224902e+05,9528,323
Raw,6.0369753e+05,9548,323
Raw,6.7204571e+05,9577,323
Raw,5.61883592e+05,9577,323
Raw,6.82079201e+05,9588,323
Raw,3.22152561e+05,9588,323
Raw,5.50327787e+05,9594,323
Raw,6.20660216e+05,9596,323
Raw,6.2168425e+05,9607,323
Raw,1.01516992e+06,9614,323
Raw,7.07860841e+05,9630,323
Raw,5.23948976e+05,9645,323
Raw,2.78979041e+05,9646,323
Raw,6.38319652e+05,9655,323
Raw,1.19880316e+06,9667,323
Raw,6.08777599e+05,9674,323
Raw,7.03093872e+05,9680,323
Raw,1.16010447e+06,9681,323
Raw,1.1290563e+06,9691,323
Raw,2.19510253e+05,9694,323
Raw,7.20581396e+05,9695,323
Raw,6.48224123e+05,9708,323
Raw,6.55591056e+05,9726,323
Raw,4.15239542e+05,9729,323
Raw,1.82439765e+06,9732,323
Raw,2.87289543e+05,9741,323
Raw,4.54425041e+05,9751,323
Raw,5.38903399e+05,9751,323
Raw,1.41827842e+06,9766,323
Raw,3.20978725e+05,9766,323
Raw,4.41161866e+05,9767,323
Raw,4.27905426e+05,9771,323
Raw,1.80209142e+06,9773,323
Raw,3.34383926e+05,9778,323
Raw,1.19169916e+05,9782,323
Raw,4.91922656e+05,9788,323
Raw,6.09563329e+05,9791,323
Raw,6.48327609e+05,9792,323
Raw,4.80628997e+05,9792,323
Raw,5.4707421e+05,9798,323
Raw,5.15676265e+05,9815,323
Raw,5.62287132e+05,9818,323
Raw,3.54340615e+05,9830,323
Raw,6.69910233e+05,9837,323
Raw,1.16988878e+06,9838,323
Raw,8.21736457e+05,9845,323
Raw,5.89137998e+05,9859,323
Raw,3.15211919e+05,9859,323
Raw,3.22716888e+05,9869,323
Raw,5.91913836e+05,9872,323
Raw,63414.445,9874,323
Raw,5.84177064e+05,9884,323
Raw,1.20671251e+06,9894,323
Raw,1.41737655e+06,9904,323
Raw,7.67915585e+05,9905,323
Raw,6.45243664e+05,9937,323
Raw,8.4426171e+05,9938,323
Raw,6.07122825e+05,9938,323
Raw,7.37808778e+05,9938,323
Raw,1.80032863e+05,9942,323
Raw,6.6378063e+05,9951,323
Raw,1.87913468e+06,9965,323
Raw,1.00167971e+06,9974,323
Raw,6.53222946e+05,9986,323
Raw,6.64563742e+05,9987,323
Raw,6.1314964e+05,9993,323
Raw,8.88114201e+05,10012,323
Raw,6.13703026e+05,10030,323
Raw,6.75623778e+05,10051,323
Raw,6.29911185e+05,10065,323
Raw,5.95998684e+05,10065,323
Raw,3.35302989e+05,10070,323
Raw,3.14241859e+05,10088,323
Raw,3.64371498e+05,10088,323
Raw,1.05430445e+06,10105,323
Raw,97639.001,10111,323
Raw,2.59787896e+05,10117,323
Raw,3.50494159e+05,10119,323
Raw,7.19540151e+05,10119,323
Raw,6.04914758e+05,10128,323
Raw,5.28902617e+05,10135,323
Raw,1.41026671e+05,10135,323
Raw,1.04086741e+06,10142,323
Raw,1.21823789e+06,10146,323
Raw,2.63138106e+05,10163,323
Raw,3.20430293e+05,10164,323
Raw,5.7542982e+05,10168,323
Raw,6.78311903e+05,10171,323
Raw,9.10061731e+05,10174,323
Raw,3.38508997e+05,10174,323
Raw,7.27645016e+05,10176,323
Raw,7.10277035e+05,10185,323
Raw,1.24598245e+06,10188,323
Raw,1.3422616e+05,10194,323
Raw,5.74945667e+05,10198,323
Raw,5.00871612e+05,10208,323
Raw,3.18928519e+05,10215,323
Raw,5.44343545e+05,10234,323
Raw,5.23116693e+05,10238,323
Raw,7.5881163e+05,10238,323
Raw,3.80416158e+05,10239,323
Raw,1.28149614e+06,10247,323
Raw,1.03407773e+06,10248,323
Raw,1.75342722e+06,10262,323
Raw,6.44053682e+05,10267,323
Raw,4.87782328e+05,10268,323
Raw,6.5933258e+05,10271,323
Raw,3.68807641e+05,10277,323
Raw,4.20101763e+05,10277,323
Raw,4.74920591e+05,10284,323
Raw,2.36609624e+05,10285,323
Raw,5.72551342e+05,10287,323
Raw,6.48566811e+05,10293,323
Raw,1.28886374e+06,10294,323
Raw,1.01168221e+05,10294,323
Raw,3.90836471e+05,10331,323
Raw,5.0641877e+05,10331,323
Raw,6.6809962e+05,10335,323
Raw,4.78859409e+05,10337,323
Raw,6.08826217e+05,10354,323
Raw,6.18032497e+05,10369,323
Raw,9.0698337e+05,10374,323
Raw,1.07250729e+05,10374,323
Raw,5.71305291e+05,10383,323
Raw,4.97013346e+05,10385,323
Raw,6.8669588e+05,10388,323
Raw,5.54566125e+05,10391,323
Raw,6.00039579e+05,10395,323
Raw,6.87773603e+05,10397,323
Raw,1.37267555e+06,10399,323
Raw,5.74063906e+05,10404,323
Raw,4.94907278e+05,10414,323
Raw,1.54078831e+06,10415,323
Raw,5.0539267e+05,10415,323
Raw,7.27209875e+05,10425,323
Raw,6.58206917e+05,10434,323
Raw,6.56265483e+05,10444,323
Raw,6.57531995e+05,10446,323
Raw,5674.9772,10453,323
Raw,4.54788343e+05,10454,323
Raw,5.69412363e+05,10455,323
Raw,2.30589898e+05,10455,323
Raw,1.17679632e+06,10457,323
Raw,4.83302634e+05,10477,323
Raw,6.19856589e+05,10496,323
Raw,2.94445583e+05,10500,323
Raw,5.71775228e+05,10502,323
Raw,1.28576654e+06,10519,323
Raw,5.59221831e+05,10534,323
Raw,4.3498538e+05,10534,323
Raw,1.03506668e+06,10538,323
Raw,1.24570679e+06,10540,323
Raw,1.23661643e+06,10548,323
Raw,6.60138512e+05,10555,323
Raw,6.79744366e+05,10560,323
Raw,4.9071643e+05,10570,323
Raw,5.58443381e+05,10577,323
Raw,5.73346022e+05,10606,323
Raw,3.58873245e+05,10621,323
Raw,1.03777575e+06,10626,323
Raw,1.22992162e+05,10632,323
Raw,2.40720977e+05,10636,323
Raw,5.13169217e+05,10644,323
Raw,21352.717,10647,323
Raw,4.22364926e+05,10651,323
Raw,2.94683608e+05,10654,323
Raw,6.65800309e+05,10654,323
Raw,4.51691762e+05,10667,323
Raw,1.23340253e+06,10672,323
Raw,7.02699787e+05,10680,323
Raw,2.54068192e+05,10683,323
Raw,5.82688913e+05,10683,323
Raw,1.67438744e+05,10692,323
Raw,7.04039235e+05,10695,323
Raw,5.97396115e+05,10700,323
Raw,7.11287805e+05,10716,323
Raw,1.43326677e+06,10720,323
Raw,1.34182804e+06,10725,323
Raw,5.8735855e+05,10727,323
Raw,1.39949775e+06,10729,323
Raw,5.70166388e+05,10740,323
Raw,1.03848867e+06,10745,323
Raw,6.98100483e+05,10750,323
Raw,7.00906251e+05,10754,323
Raw,5.60218973e+05,10754,323
Raw,1.34445508e+06,10755,323
Raw,3.37783272e+05,10756,323
Raw,8.11193102e+05,10764,323
Raw,4.97374212e+05,10769,323
Raw,1.39241737e+06,10772,323
Raw,33978.185,10800,323
Raw,4.31735147e+05,10814,323
Raw,5.58818048e+05,10819,323
Raw,5.89461627e+05,10827,323
Raw,1.10988834e+06,10833,323
Raw,6.04203563e+05,10836,323
Raw,5.43835462e+05,10855,323
Raw,34510.721,10863,323
Raw,6.43331394e+05,10872,323
Raw,6.65068709e+05,10879,323
Raw,3.35574533e+05,10885,323
Raw,6.0352903e+05,10898,323
Raw,6.88029058e+05,10909,323
Raw,6.57325344e+05,10911,323
Raw,6.94830588e+05,10917,323
Raw,6.35724316e+05,10918,323
Raw,6.81610927e+05,10919,323
Raw,5.77386187e+05,10922,323
Raw,1.33557075e+06,10930,323
Raw,6.41103068e+05,10936,323
Raw,1.6981723e+06,10949,323
Raw,8.3096131e+05,10957,323
Raw,6.6588457e+05,10959,323
Raw,6.77204097e+05,10960,323
Raw,6.24918361e+05,10960,323
Raw,6.25655653e+05,10966,323
Raw,7.14138905e+05,10974,323
Raw,1.21905813e+06,10979,323
Raw,5.29457024e+05,10984,323
Raw,5.56717297e+05,10984,323
Raw,6.30389307e+05,10986,323
Raw,1.31142493e+06,11000,323
Raw,9.14845459e+05,11002,323
Raw,9.39428244e+05,11003,323
Raw,3.42693304e+05,11005,323
Raw,6.50779573e+05,11009,323
Raw,1.91326681e+05,11011,323
Raw,6.24861898e+05,11015,323
Raw,7.05139088e+05,11017,323
Raw,3.25501533e+05,11023,323
Raw,4.10954135e+05,11025,323
Raw,5.41326105e+05,11026,323
Raw,7.80458271e+05,11041,323
Raw,6.84506475e+05,11042,323
Raw,7.14151536e+05,11043,323
Raw,4.08879848e+05,11062,323
Raw,7.1907423e+05,11071,323
Raw,6.63648724e+05,11077,323
Raw,7.6762347e+05,11083,323
Raw,1.24421719e+06,11089,323
Raw,7.48905884e+05,11093,323
Raw,90673.129,11107,323
Raw,1.24862341e+06,11108,323
Raw,8.52880381e+05,11139,323
Raw,4.73674135e+05,11144,323
Raw,4.47807401e+05,11146,323
Raw,2.5794684e+05,11146,323
Raw,9.66291754e+05,11149,323
Raw,2.67059913e+05,11151,323
Raw,6.78520611e+05,11155,323
Raw,1.28713099e+06,11166,323
Raw,6.49546881e+05,11169,323
Raw,5.40551096e+05,11171,323
Raw,5.42602018e+05,11171,323
Raw,4.97525063e+05,11195,323
Raw,6.70966271e+05,11197,323
Raw,6.30545496e+05,11205,323
Raw,7.08675853e+05,11206,323
Raw,8.75735518e+05,11209,323
Raw,7.33142243e+05,11213,323
Raw,5.73212478e+05,11218,323
Raw,3.17573431e+05,11245,323
Raw,5.55888939e+05,11259,323
Raw,7.03317199e+05,11277,323
Raw,7.24137467e+05,11279,323
Raw,6.771041e+05,11281,323
Raw,5.5937385e+05,11291,323
Raw,7.07499175e+05,11295,323
Raw,1.85843847e+05,11297,323
Raw,1.29718223e+06,11304,323
Raw,6.30936591e+05,11309,323
Raw,3.22442237e+05,11312,323
Raw,5.54086872e+05,11322,323
Raw,2.51144214e+05,11325,323
Raw,1.34944589e+06,11325,323
Raw,6.41021513e+05,11326,323
Raw,9.17603629e+05,11329,323
Raw,6.0897015e+05,11329,323
Raw,6.333839e+05,11333,323
Raw,6.22551419e+05,11335,323
Raw,1.85508713e+06,11336,323
Raw,6.36787613e+05,11340,323
Raw,6.51746399e+05,11345,323
Raw,6.70895139e+05,11352,323
Raw,3.58474096e+05,11353,323
Raw,4.58771151e+05,11367,323
Raw,7.15830068e+05,11370,323
Raw,6.73631338e+05,11375,323
Raw,9.32245621e+05,11375,323
Raw,1.3443501e+06,11376,323
Raw,5.01421403e+05,11378,323
Raw,4.03446935e+05,11379,323
Raw,3.37781517e+05,11380,323
Raw,1.41729859e+06,11383,323
Raw,6.53267379e+05,11391,323
Raw,4.14727071e+05,11397,323
Raw,9.68042156e+05,11400,323
Raw,3.38014488e+05,11404,323
Raw,5.51945137e+05,11404,323
Raw,1.65365099e+06,11417,323
Raw,1.30730173e+05,11419,323
Raw,6.83240488e+05,11431,323
Raw,7.28951945e+05,11434,323
Raw,6.32563406e+05,11434,323
Raw,3.4384146e+05,11436,323
Raw,1.00861329e+06,11439,323
Raw,5.96079699e+05,11447,323
Raw,6.69367407e+05,11447,323
Raw,5.23386722e+05,11483,323
Raw,4.7017683e+05,11491,323
Raw,5.88388854e+05,11493,323
Raw,1.3879117e+06,11504,323
Raw,7.16559244e+05,11519,323
Raw,8.85457773e+05,11535,323
Raw,7.02978418e+05,11545,323
Raw,6.98743724e+05,11555,323
Raw,5.54161071e+05,11566,323
Raw,6.63234632e+05,11566,323
Raw,4.92954886e+05,11572,323
Raw,7.96932443e+05,11573,323
Raw,1.21892058e+06,11577,323
Raw,1.55557994e+05,11585,323
Raw,7.00240363e+05,11589,323
Raw,1.03417662e+06,11592,323
Raw,3.47254614e+05,11596,323
Raw,6.63198992e+05,11616,323
Raw,4.87266936e+05,11618,323
Raw,7.45172899e+05,11623,323
Raw,6.34679275e+05,11623,323
Raw,8.5668345e+05,11635,323
Raw,3.95321318e+05,11638,323
Raw,6.09819179e+05,11638,323
Raw,1.1260753e+06,11647,323
Raw,4.09916867e+05,11650,323
Raw,8.07527324e+05,11652,323
Raw,5.62903857e+05,11657,323
Raw,6.12688965e+05,11665,323
Raw,1.75555656e+06,11677,323
Raw,1.18690967e+06,11682,323
Raw,9.7965685e+05,11688,323
Raw,4.14312698e+05,11709,323
Raw,1.85469485e+06,11713,323
Raw,1.83678945e+06,11719,323
Raw,8.53200457e+05,11721,323
Raw,6.92343124e+05,11729,323
Raw,7.47119726e+05,11733,323
Raw,5.80333889e+05,11733,323
Raw,6.1874144e+05,11747,323
Raw,5.51797459e+05,11749,323
Raw,1.47585784e+06,11751,323
Raw,5.42269218e+05,11752,323
Raw,4.2651318e+05,11755,323
Raw,2.50706815e+05,11765,323
Raw,1.13876526e+06,11766,323
Raw,6.5925387e+05,11781,323
Raw,5.33448172e+05,11797,323
Raw,56989.948,11797,323
Raw,6.54734755e+05,11799,323
Raw,9.10196646e+05,11802,323
Raw,1.07584377e+06,11808,323
Raw,5.56279784e+05,11808,323
Raw,5.24842505e+05,11813,323
Raw,3.82718814e+05,11824,323
Raw,5.1277759e+05,11826,323
Raw,6.01835286e+05,11832,323
Raw,3.974583e+05,11835,323
Raw,5.84538923e+05,11841,323
Raw,7.11427812e+05,11845,323
Raw,6.13145719e+05,11848,323
Raw,6.0665802e+05,11868,323
Raw,1.16421207e+06,11870,323
Raw,5.48939904e+05,11872,323
Raw,5.72606757e+05,11876,323
Raw,1.00398766e+06,11878,323
Raw,1.0485711e+06,11881,323
Raw,4.76868135e+05,11885,323
Raw,6.90458057e+05,11887,323
Raw,7.05963857e+05,11888,323
Raw,5.71881385e+05,11894,323
Raw,7.41343167e+05,11897,323
Raw,5.51455032e+05,11911,323
Raw,6.85159209e+05,11913,323
Raw,5.92560365e+05,11917,323
Raw,53917.341,11938,323
Raw,7.16619954e+05,11943,323
Raw,1.12237871e+06,11944,323
Raw,6.42787313e+05,11965,323
Raw,6.35996506e+05,11979,323
Raw,7.29125456e+05,11980,323
Raw,9.54704851e+05,11984,323
Raw,7.03522097e+05,11986,323
Raw,4.88684176e+05,11988,323
Raw,8.4808181e+05,11990,323
Raw,9.65764029e+05,11996,323
Raw,9.93040139e+05,12000,323
Raw,8.6134709e+05,12008,323
Raw,1.03049572e+06,12011,323
Raw,7.40849126e+05,12011,323
Raw,7.20370429e+05,12019,323
Raw,27096.635,12019,323
Raw,1.05078044e+06,12020,323
Raw,7.86868825e+05,12020,323
Raw,6.16727817e+05,12027,323
Raw,23325.898,12027,323
Raw,6.91282868e+05,12031,323
Raw,8.21628312e+05,12034,323
Raw,6.90688542e+05,12038,323
Raw,6.3872881e+05,12041,323
Raw,1.22621124e+06,12043,323
Raw,1.05918378e+05,12047,323
Raw,1.67867363e+05,12047,323
Raw,3.00189883e+05,12048,323
Raw,1.16498281e+06,12066,323
Raw,5.69653767e+05,12067,323
Raw,4.75366756e+05,12067,323
Raw,1.36645979e+06,12068,323
Raw,3.26181371e+05,12077,323
Raw,6.50625835e+05,12079,323
Raw,6.01096922e+05,12088,323
Raw,7.06057288e+05,12089,323
Raw,1.2704124e+06,12092,323
Raw,8102.9977,12092,323
Raw,1.26759868e+06,12093,323
Raw,1.3631911e+06,12095,323
Raw,1.09584556e+06,12102,323
Raw,7.07071791e+05,12114,323
Raw,6.53615912e+05,12118,323
Raw,2.7900387e+05,12120,323
Raw,5.86281874e+05,12123,323
Raw,1.05749474e+06,12131,323
Raw,4.52042739e+05,12133,323
Raw,6.85614108e+05,12136,323
Raw,5.95263741e+05,12154,323
Raw,6.1304285e+05,12155,323
Raw,5.43689796e+05,12156,323
Raw,3.51642376e+05,12162,323
Raw,8.13367914e+05,12163,323
Raw,1.39591559e+06,12170,323
Raw,7.36708762e+05,12177,323
Raw,5.7948717e+05,12186,323
Raw,45815.713,12189,323
Raw,6.41632914e+05,12201,323
Raw,67258.095,12211,323
Raw,1.51571778e+06,12215,323
Raw,8.35657128e+05,12227,323
Raw,5.44074024e+05,12229,323
Raw,1.22875479e+06,12235,323
Raw,1.97134175e+05,12241,323
Raw,5.53794899e+05,12244,323
Raw,6.44758965e+05,12257,323
Raw,6.88215182e+05,12266,323
Raw,2.26560741e+05,12297,323
Raw,1.21326877e+06,12309,323
Raw,5.98227966e+05,12312,323
Raw,1.38949946e+06,12326,323
Raw,7.86460244e+05,12329,323
Raw,3.52521162e+05,12345,323
Raw,5.79768464e+05,12345,323
Raw,5.52014489e+05,12358,323
Raw,6.58124562e+05,12361,323
Raw,6.41843544e+05,12366,323
Raw,5.69348082e+05,12379,323
Raw,5.57364006e+05,12379,323
Raw,8.13715899e+05,12380,323
Raw,1.13362904e+05,12380,323
Raw,7.6971783e+05,12387,323
Raw,6.30394904e+05,12396,323
Raw,6.05595402e+05,12398,323
Raw,1.35948285e+06,12404,323
Raw,1.1864447e+06,12425,323
Raw,5.45097607e+05,12431,323
Raw,2.98003316e+05,12444,323
Raw,6.56187579e+05,12463,323
Raw,6.89271466e+05,12469,323
Raw,5.87026819e+05,12469,323
Raw,5.10725606e+05,12470,323
Raw,5.65890763e+05,12478,323
Raw,5.40679371e+05,12486,323
Raw,6.34363733e+05,12489,323
Raw,43183.551,12491,323
Raw,6.3722581e+05,12495,323
Raw,6.90459043e+05,12496,323
Raw,5.86847342e+05,12498,323
Raw,5.1691863e+05,12516,323
Raw,6.47523807e+05,12520,323
Raw,5.90834067e+05,12525,323
Raw,4.39771192e+05,12527,323
Raw,3.3181269e+05,12527,323
Raw,4.52232159e+05,12539,323
Raw,3.51061969e+05,12546,323
Raw,7.61031803e+05,12547,323
Raw,5.21010094e+05,12551,323
Raw,5.79772671e+05,12556,323
Raw,6.68318221e+05,12579,323
Raw,1.47090027e+06,12582,323
Raw,4.93439809e+05,12591,323
Raw,1.20443702e+06,12593,323
Raw,5.79777038e+05,12600,323
Raw,6.14240087e+05,12601,323
Raw,6.68135854e+05,12606,323
Raw,6.6842852e+05,12615,323
Raw,4.91839369e+05,12617,323
Raw,8.02675752e+05,12642,323
Raw,1.28209012e+06,12649,323
Raw,5.4833165e+05,12661,323
Raw,6.54550745e+05,12665,323
Raw,7.29086651e+05,12668,323
Raw,5.51173745e+05,12683,323
Raw,6.02477158e+05,12694,323
Raw,5.36028411e+05,12699,323
Raw,9.19703236e+05,12713,323
Raw,5.59376539e+05,12717,323
Raw,1.25523815e+06,12722,323
Raw,2.50231707e+05,12738,323
Raw,1.4294948e+06,12739,323
Raw,4.12582634e+05,12745,323
Raw,5.65002984e+05,12750,323
Raw,5.28518561e+05,12751,323
Raw,1.28402063e+06,12780,323
Raw,5.90575977e+05,12788,323
Raw,7.3385942e+05,12793,323
Raw,2.95824803e+05,12797,323
Raw,2.5365103e+05,12797,323
Raw,1.23412593e+06,12800,323
Raw,5.435881e+05,12805,323
Raw,1.1662376e+06,12819,323
Raw,5.69413781e+05,12844,323
Raw,2.33623979e+05,12849,323
Raw,5.36906716e+05,12851,323
Raw,4.81695518e+05,12855,323
Raw,6.19248521e+05,12865,323
Raw,4.38293561e+05,12868,323
Raw,6.76403068e+05,12881,323
Raw,1.67914144e+06,12883,323
Raw,6.45028656e+05,12886,323
Raw,1.29777226e+06,12889,323
Raw,2.96428412e+05,12889,323
Raw,5.07732729e+05,12908,323
Raw,4.4656168e+05,12912,323
Raw,3.45949706e+05,12912,323
Raw,6.98024452e+05,12933,323
Raw,6.92893128e+05,12935,323
Raw,1.28570674e+06,12943,323
Raw,7.03205156e+05,12948,323
Raw,7.36004527e+05,12966,323
Raw,2.02674028e+05,12975,323
Raw,8.12315096e+05,12980,323
Raw,3.64069376e+05,12984,323
Raw,6.20929446e+05,12985,323
Raw,1.26921207e+06,13002,323
Raw,4.04273857e+05,13009,323
Raw,6.71799434e+05,13013,323
Raw,1.41666116e+06,13023,323
Raw,9.67144475e+05,13048,323
Raw,2.29610384e+05,13058,323
Raw,5.3534798e+05,13061,323
Raw,7.05072845e+05,13074,323
Raw,3.98925614e+05,13076,323
Raw,3.74164535e+05,13089,323
Raw,3.06346151e+05,13107,323
Raw,6.75245229e+05,13115,323
Raw,6.12887096e+05,13120,323
Raw,3.39849001e+05,13124,323
Raw,7.57909425e+05,13141,323
Raw,6.5042679e+05,13160,323
Raw,1.40275947e+06,13171,323
Raw,6.00981832e+05,13181,323
Raw,2.92657926e+05,13183,323
Raw,9.45279885e+05,13188,323
Raw,2.81338989e+05,13195,323
Raw,7.17796231e+05,13197,323
Raw,7.58708056e+05,13206,323
Raw,6.73461275e+05,13206,323
Raw,6.80572374e+05,13220,323
Raw,5.37391136e+05,13221,323
Raw,5.30176206e+05,13224,323
Raw,2.14304636e+05,13233,323
Raw,3.90833803e+05,13235,323
Raw,9.23318288e+05,13247,323
Raw,5.61585667e+05,13251,323
Raw,1.72021408e+05,13256,323
Raw,5.94048049e+05,13258,323
Raw,5.87185974e+05,13274,323
Raw,3.72357531e+05,13280,323
Raw,6.02471904e+05,13295,323
Raw,5.56996363e+05,13296,323
Raw,6.3312229e+05,13336,323
Raw,6.89509279e+05,13346,323
Raw,5.84323683e+05,13365,323
Raw,2.53516717e+05,13367,323
Raw,6.10422531e+05,13369,323
Raw,2.26824664e+05,13369,323
Raw,1.15503993e+06,13376,323
Raw,6.62123944e+05,13377,323
Raw,1.10974199e+06,13382,323
Raw,5.48631868e+05,13382,323
Raw,7.30976307e+05,13401,323
Raw,2.48124202e+05,13423,323
Raw,1.34730399e+05,13430,323
Raw,9.52750604e+05,13431,323
Raw,1.20534511e+06,13436,323
Raw,6.83130083e+05,13437,323
Raw,6.58502698e+05,13444,323
Raw,3.49684164e+05,13462,323
Raw,6.77135827e+05,13466,323
Raw,1.25283171e+06,13468,323
Raw,3.49559512e+05,13473,323
Raw,9.26331472e+05,13480,323
Raw,3.16003208e+05,13490,323
Raw,6.763849e+05,13491,323
Raw,5.96316542e+05,13493,323
Raw,7.636828e+05,13498,323
Raw,3.20555523e+05,13508,323
Raw,1.62580937e+05,13513,323
Raw,1.118051e+06,13518,323
Raw,5.33947622e+05,13530,323
Raw,7.3301284e+05,13535,323
Raw,1.09540892e+06,13553,323
Raw,3.32245061e+05,13556,323
Raw,3.84139718e+05,13588,323
Raw,4.89879693e+05,13589,323
Raw,4.52683645e+05,13591,323
Raw,2.84241588e+05,13604,323
Raw,6.29638561e+05,13608,323
Raw,6.67737153e+05,13609,323
Raw,6.41468722e+05,13612,323
Raw,7.1375984e+05,13618,323
Raw,5.76379625e+05,13618,323
Raw,4.61688331e+05,13621,323
Raw,4.56390073e+05,13627,323
Raw,5.59724741e+05,13631,323
Raw,2.9170779e+05,13632,323
Raw,6.23471399e+05,13639,323
Raw,3.30763497e+05,13642,323
Raw,2.33608325e+05,13655,323
Raw,1.44379213e+06,13663,323
Raw,2.55857873e+05,13695,323
Raw,2.68740991e+05,13702,323
Raw,6.12458828e+05,13704,323
Raw,3.49729554e+05,13711,323
Raw,5.22222885e+05,13722,323
Raw,7.26597209e+05,13726,323
Raw,6.55037529e+05,13730,323
Raw,6.24197472e+05,13731,323
Raw,5.42400863e+05,13734,323
Raw,6.23656982e+05,13735,323
Raw,5.6731048e+05,13737,323
Raw,3.48867808e+05,13740,323
Raw,6.40813982e+05,13752,323
Raw,2.70222564e+05,13759,323
Raw,3.72118637e+05,13766,323
Raw,5.93746291e+05,13771,323
Raw,9.78854232e+05,13778,323
Raw,7.36383632e+05,13780,323
Raw,6.72280713e+05,13800,323
Raw,4.86593407e+05,13800,323
Raw,6.24817053e+05,13820,323
Raw,7.6189974e+05,13820,323
Raw,6.49897966e+05,13824,323
Raw,7.94477515e+05,13830,323
Raw,5.83096937e+05,13836,323
Raw,4.82054768e+05,13837,323
Raw,4.894242e+05,13837,323
Raw,6.35645897e+05,13839,323
Raw,5.87533187e+05,13841,323
Raw,5.13255804e+05,13841,323
Raw,1.09873862e+06,13851,323
Raw,1.43931998e+06,13858,323
Raw,5.13283606e+05,13867,323
Raw,5.72067466e+05,13876,323
Raw,5.98885318e+05,13886,323
Raw,5.44599204e+05,13887,323
Raw,9.3769791e+05,13889,323
Raw,6.5017838e+05,13891,323
Raw,2.13288793e+05,13911,323
Raw,1.69570122e+05,13911,323
Raw,5.19255152e+05,13925,323
Raw,1.14562344e+06,13942,323
Raw,5.43833202e+05,13977,323
Raw,6.46376767e+05,13979,323
Raw,4.28584828e+05,13981,323
Raw,3.55723412e+05,13985,323
Raw,6.53643048e+05,13988,323
Raw,7.03014206e+05,13998,323
Raw,4.3518252e+05,14001,323
Raw,8.75138959e+05,14013,323
Raw,6.27786978e+05,14021,323
Raw,1.7586015e+06,14026,323
Raw,9.61676532e+05,14027,323
Raw,7.12646157e+05,14029,323
Raw,5.15681451e+05,14029,323
Raw,6.7520551e+05,14031,323
Raw,5.31087388e+05,14036,323
Raw,7.0410231e+05,14039,323
Raw,9.73342783e+05,14042,323
Raw,7.24637167e+05,14048,323
Raw,6.48766589e+05,14055,323
Raw,5.32313666e+05,14057,323
Raw,6.10911922e+05,14059,323
Raw,5.83146737e+05,14059,323
Raw,6.08905178e+05,14064,323
Raw,6.31779623e+05,14075,323
Raw,6.31424832e+05,14086,323
Raw,1.79650684e+05,14096,323
Raw,5.31771582e+05,14117,323
Raw,5.69663845e+05,14127,323
Raw,5.06551705e+05,14127,323
Raw,3.47114604e+05,14131,323
Raw,4.45773853e+05,14132,323
Raw,7.69242642e+05,14135,323
Raw,1.2879764e+06,14145,323
Raw,4.85239097e+05,14151,323
Raw,1.09615833e+06,14164,323
Raw,1.17606503e+05,14170,323
Raw,3.20628748e+05,14170,323
Raw,5.93725644e+05,14170,323
Raw,5.63834056e+05,14172,323
Raw,2.97611559e+05,14177,323
Raw,5.65743009e+05,14199,323
Raw,2.93448892e+05,14199,323
Raw,6.10463435e+05,14219,323
Raw,1.17570733e+06,14223,323
Raw,1.05021503e+06,14231,323
Raw,56497.228,14231,323
Raw,7.12737216e+05,14237,323
Raw,8.02088947e+05,14237,323
Raw,5.54150987e+05,14248,323
Raw,5.96993e+05,14252,323
Raw,6.40809669e+05,14254,323
Raw,5.89905384e+05,14259,323
Raw,5.77767868e+05,14266,323
Raw,5.73789636e+05,14271,323
Raw,6.33222403e+05,14280,323
Raw,6.59822259e+05,14290,323
Raw,1.03308809e+06,14298,323
Raw,6.06591293e+05,14298,323
Raw,9.21650266e+05,14307,323
Raw,5.32379474e+05,14316,323
Raw,7.61361795e+05,14317,323
Raw,1.23478203e+06,14318,323
Raw,6.94570357e+05,14329,323
Raw,1.38124492e+06,14335,323
Raw,3.98204536e+05,14337,323
Raw,6.18609888e+05,14347,323
Raw,5.8705918e+05,14347,323
Raw,1.34465974e+06,14350,323
Raw,4.24975154e+05,14356,323
Raw,5.28284916e+05,14366,323
Raw,6.29870556e+05,14369,323
Raw,8.98579987e+05,14371,323
Raw,1.33089589e+06,14392,323
Raw,6.72027349e+05,14394,323
Raw,5.33220072e+05,14412,323
Raw,6.1402665e+05,14416,323
Raw,6.20342788e+05,14431,323
Raw,6.6977452e+05,14440,323
Raw,1.25119842e+06,14448,323
Raw,5.19035313e+05,14452,323
Raw,3.08330329e+05,14457,323
Raw,5.66955814e+05,14472,323
Raw,7.11492743e+05,14475,323
Raw,5.25010363e+05,14478,323
Raw,2.98561204e+05,14481,323
Raw,4.74021448e+05,14486,323
Raw,7.03388214e+05,14493,323
Raw,6.21814502e+05,14504,323
Raw,1.3353377e+06,14519,323
Raw,4.77750853e+05,14541,323
Raw,1.2980456e+06,14554,323
Raw,5.71970617e+05,14556,323
Raw,5.01078938e+05,14560,323
Raw,6.67217127e+05,14573,323
Raw,6.70511335e+05,14574,323
Raw,1.77718048e+06,14579,323
Raw,4.81721798e+05,14587,323
Raw,5.282762e+05,14588,323
Raw,6.12620137e+05,14595,323
Raw,6.40668985e+05,14602,323
Raw,6.46701592e+05,14606,323
Raw,4.92053684e+05,14629,323
Raw,3.02166771e+05,14636,323
Raw,1.359879e+06,14638,323
Raw,5.676988e+05,14642,323
Raw,6.20888084e+05,14662,323
Raw,7.00889189e+05,14668,323
Raw,6.7231681e+05,14674,323
