Cut?,Counts,eventNumber,runNumber
Raw,193,0,315
Raw,252,1,315
Raw,223,2,315
Raw,206,3,315
Raw,205,4,315
Raw,144,5,315
Raw,232,6,315
Raw,223,7,315
Raw,216,9,315
Raw,94,11,315
Raw,33,11,315
Raw,235,12,315
Raw,217,13,315
Raw,203,14,315
Raw,159,15,315
Raw,227,16,315
Raw,225,17,315
Raw,171,18,315
Raw,218,19,315
Raw,230,20,315
Raw,200,21,315
Raw,236,22,315
Raw,226,23,315
Raw,431,24,315
Raw,217,25,315
Raw,226,26,315
Raw,242,27,315
Raw,94,28,315
Raw,222,29,315
Raw,210,30,315
Raw,204,31,315
Raw,235,32,315
Raw,50,33,315
Raw,249,34,315
Raw,235,35,315
Raw,243,36,315
Raw,179,37,315
Raw,246,38,315
Raw,241,39,315
Raw,214,40,315
Raw,227,41,315
Raw,166,42,315
Raw,203,43,315
Raw,188,44,315
Raw,177,45,315
Raw,252,46,315
Raw,211,47,315
Raw,153,48,315
Raw,210,49,315
Raw,129,49,315
Raw,133,50,315
Raw,76,51,315
Raw,105,52,315
Raw,172,53,315
Raw,233,54,315
Raw,220,55,315
Raw,179,56,315
Raw,120,57,315
Raw,100,58,315
Raw,51,59,315
Raw,73,60,315
Raw,260,61,315
Raw,225,62,315
Raw,224,63,315
Raw,60,64,315
Raw,317,66,315
Raw,154,67,315
Raw,240,68,315
Raw,232,69,315
Raw,157,70,315
Raw,47,71,315
Raw,148,72,315
Raw,223,74,315
Raw,132,75,315
Raw,173,76,315
Raw,157,77,315
Raw,202,78,315
Raw,154,79,315
Raw,234,80,315
Raw,262,81,315
Raw,131,82,315
Raw,227,83,315
Raw,222,84,315
Raw,96,85,315
Raw,203,86,315
Raw,205,87,315
Raw,194,88,315
Raw,227,89,315
Raw,203,90,315
Raw,185,91,315
Raw,177,92,315
Raw,234,93,315
Raw,167,94,315
Raw,226,95,315
Raw,197,96,315
Raw,200,97,315
Raw,348,98,315
Raw,135,99,315
Raw,44,100,315
Raw,300,101,315
Raw,192,102,315
Raw,99,103,315
Raw,202,104,315
Raw,176,105,315
Raw,202,106,315
Raw,244,108,315
Raw,168,109,315
Raw,103,110,315
Raw,178,111,315
Raw,227,113,315
Raw,228,114,315
Raw,70,115,315
Raw,210,116,315
Raw,220,117,315
Raw,208,118,315
Raw,211,119,315
Raw,206,120,315
Raw,183,121,315
Raw,76,122,315
Raw,150,123,315
Raw,279,124,315
Raw,242,125,315
Raw,180,126,315
Raw,152,127,315
Raw,218,128,315
Raw,215,129,315
Raw,155,130,315
Raw,221,131,315
Raw,291,132,315
Raw,31,133,315
Raw,151,134,315
Raw,319,135,315
Raw,57,136,315
Raw,102,137,315
Raw,89,138,315
Raw,223,139,315
Raw,248,140,315
Raw,229,141,315
Raw,191,142,315
Raw,184,143,315
Raw,356,144,315
Raw,65,145,315
Raw,59,146,315
Raw,196,147,315
Raw,215,148,315
Raw,219,149,315
Raw,189,150,315
Raw,209,151,315
Raw,237,152,315
Raw,348,153,315
Raw,186,154,315
Raw,223,155,315
Raw,122,156,315
Raw,191,157,315
Raw,160,158,315
Raw,167,159,315
Raw,195,160,315
Raw,121,161,315
Raw,55,162,315
Raw,226,163,315
Raw,199,164,315
Raw,222,165,315
Raw,65,166,315
Raw,180,167,315
Raw,239,168,315
Raw,215,169,315
Raw,84,170,315
Raw,274,171,315
Raw,193,173,315
Raw,194,174,315
Raw,202,175,315
Raw,162,176,315
Raw,192,177,315
Raw,235,179,315
Raw,222,180,315
Raw,132,181,315
Raw,214,181,315
Raw,113,182,315
Raw,212,183,315
Raw,204,184,315
Raw,44,185,315
Raw,189,186,315
Raw,220,187,315
Raw,195,188,315
Raw,185,189,315
Raw,274,190,315
Raw,202,191,315
Raw,216,192,315
Raw,225,193,315
Raw,174,194,315
Raw,234,195,315
Raw,318,196,315
Raw,279,198,315
Raw,251,199,315
Raw,191,200,315
Raw,232,201,315
Raw,280,202,315
Raw,225,203,315
Raw,173,204,315
Raw,226,205,315
Raw,208,206,315
Raw,73,207,315
Raw,240,208,315
Raw,135,209,315
Raw,197,210,315
Raw,169,211,315
Raw,212,212,315
Raw,41,213,315
Raw,229,214,315
Raw,196,215,315
Raw,12,215,315
Raw,169,216,315
Raw,228,217,315
Raw,240,218,315
Raw,86,219,315
Raw,250,220,315
Raw,101,221,315
Raw,4,221,315
Raw,201,222,315
Raw,307,223,315
Raw,6,223,315
Raw,221,224,315
Raw,280,225,315
Raw,180,228,315
Raw,447,229,315
Raw,186,230,315
Raw,225,231,315
Raw,91,232,315
Raw,180,233,315
Raw,210,234,315
Raw,240,236,315
Raw,230,237,315
Raw,76,238,315
Raw,33,238,315
Raw,172,239,315
Raw,223,240,315
Raw,115,241,315
Raw,136,242,315
Raw,226,243,315
Raw,192,244,315
Raw,132,245,315
Raw,89,246,315
Raw,209,247,315
Raw,251,248,315
Raw,145,249,315
Raw,103,250,315
Raw,216,251,315
Raw,41,252,315
Raw,237,253,315
Raw,234,254,315
Raw,105,255,315
Raw,199,256,315
Raw,232,257,315
Raw,215,258,315
Raw,171,259,315
Raw,197,260,315
Raw,186,262,315
Raw,119,263,315
Raw,76,264,315
Raw,228,265,315
Raw,244,266,315
Raw,178,267,315
Raw,169,269,315
Raw,190,270,315
Raw,212,271,315
Raw,302,272,315
Raw,29,272,315
Raw,274,273,315
Raw,338,274,315
Raw,115,275,315
Raw,54,276,315
Raw,247,277,315
Raw,220,278,315
Raw,172,279,315
Raw,301,280,315
Raw,219,281,315
Raw,215,282,315
Raw,212,283,315
Raw,172,284,315
Raw,369,286,315
Raw,237,287,315
Raw,241,288,315
Raw,167,289,315
Raw,193,290,315
Raw,230,291,315
Raw,220,292,315
Raw,304,293,315
Raw,186,294,315
Raw,236,295,315
Raw,146,296,315
Raw,160,297,315
Raw,99,298,315
Raw,212,299,315
Raw,236,301,315
Raw,237,302,315
Raw,159,303,315
Raw,218,304,315
Raw,227,305,315
Raw,90,306,315
Raw,208,307,315
Raw,172,308,315
Raw,212,309,315
Raw,197,310,315
Raw,171,311,315
Raw,240,312,315
Raw,152,314,315
Raw,207,315,315
Raw,194,316,315
Raw,114,317,315
Raw,334,318,315
Raw,263,319,315
Raw,101,320,315
Raw,33,320,315
Raw,364,321,315
Raw,334,322,315
Raw,226,323,315
Raw,133,324,315
Raw,180,325,315
Raw,152,326,315
Raw,184,327,315
Raw,222,329,315
Raw,184,330,315
Raw,171,331,315
Raw,333,332,315
Raw,196,333,315
Raw,235,334,315
Raw,120,335,315
Raw,227,336,315
Raw,86,337,315
Raw,246,338,315
Raw,219,339,315
Raw,185,340,315
Raw,148,341,315
Raw,181,342,315
Raw,238,343,315
Raw,241,344,315
Raw,216,345,315
Raw,254,346,315
Raw,204,347,315
Raw,174,348,315
Raw,234,349,315
Raw,195,350,315
Raw,246,351,315
Raw,211,352,315
Raw,121,353,315
Raw,53,354,315
Raw,212,355,315
Raw,371,356,315
Raw,225,357,315
Raw,220,359,315
Raw,237,360,315
Raw,192,361,315
Raw,231,362,315
Raw,236,363,315
Raw,205,364,315
Raw,240,365,315
Raw,99,366,315
Raw,242,367,315
Raw,223,368,315
Raw,170,369,315
Raw,168,370,315
Raw,360,371,315
Raw,230,372,315
Raw,189,374,315
Raw,90,375,315
Raw,220,376,315
Raw,188,378,315
Raw,288,379,315
Raw,367,380,315
Raw,166,381,315
Raw,93,382,315
Raw,297,383,315
Raw,358,384,315
Raw,240,385,315
Raw,99,387,315
Raw,296,388,315
Raw,211,389,315
Raw,229,390,315
Raw,299,391,315
Raw,160,392,315
Raw,102,394,315
Raw,200,395,315
Raw,91,397,315
Raw,222,398,315
Raw,213,399,315
Raw,125,400,315
Raw,200,401,315
Raw,225,402,315
Raw,132,403,315
Raw,254,404,315
Raw,181,404,315
Raw,306,405,315
Raw,109,406,315
Raw,210,407,315
Raw,85,408,315
Raw,231,409,315
Raw,247,410,315
Raw,239,411,315
Raw,330,412,315
Raw,205,413,315
Raw,133,414,315
Raw,236,415,315
Raw,304,416,315
Raw,193,417,315
Raw,231,418,315
Raw,199,419,315
Raw,234,420,315
Raw,13,420,315
Raw,256,421,315
Raw,213,422,315
Raw,185,423,315
Raw,117,424,315
Raw,236,425,315
Raw,229,426,315
Raw,183,427,315
Raw,244,428,315
Raw,212,429,315
Raw,212,430,315
Raw,215,431,315
Raw,23,431,315
Raw,140,432,315
Raw,224,433,315
Raw,209,434,315
Raw,316,435,315
Raw,110,436,315
Raw,204,437,315
Raw,196,438,315
Raw,241,439,315
Raw,200,440,315
Raw,190,441,315
Raw,253,442,315
Raw,247,443,315
Raw,169,445,315
Raw,331,446,315
Raw,86,446,315
Raw,347,447,315
Raw,189,448,315
Raw,100,449,315
Raw,106,450,315
Raw,93,451,315
Raw,203,452,315
Raw,366,454,315
Raw,212,455,315
Raw,175,456,315
Raw,77,457,315
Raw,63,458,315
Raw,137,459,315
Raw,238,460,315
Raw,169,461,315
Raw,234,463,315
Raw,125,464,315
Raw,76,465,315
Raw,193,466,315
Raw,224,467,315
Raw,104,468,315
Raw,179,470,315
Raw,82,472,315
Raw,257,473,315
Raw,180,474,315
Raw,207,475,315
Raw,161,476,315
Raw,192,478,315
Raw,213,479,315
Raw,222,480,315
Raw,230,481,315
Raw,170,482,315
Raw,244,483,315
Raw,193,484,315
Raw,198,485,315
Raw,108,486,315
Raw,332,487,315
Raw,200,488,315
Raw,76,489,315
Raw,241,491,315
Raw,199,492,315
Raw,172,493,315
Raw,293,494,315
Raw,366,496,315
Raw,221,498,315
Raw,105,499,315
Raw,203,500,315
Raw,150,501,315
Raw,207,502,315
Raw,235,503,315
Raw,170,504,315
Raw,206,505,315
Raw,272,506,315
Raw,156,507,315
Raw,147,508,315
Raw,172,509,315
Raw,256,510,315
Raw,174,511,315
Raw,246,512,315
Raw,168,514,315
Raw,183,515,315
Raw,239,516,315
Raw,231,517,315
Raw,182,518,315
Raw,222,519,315
Raw,252,520,315
Raw,220,521,315
Raw,204,522,315
Raw,229,523,315
Raw,220,524,315
Raw,200,525,315
Raw,254,526,315
Raw,300,527,315
Raw,111,528,315
Raw,249,529,315
Raw,223,530,315
Raw,258,531,315
Raw,386,532,315
Raw,216,533,315
Raw,228,534,315
Raw,182,535,315
Raw,212,536,315
Raw,132,537,315
Raw,128,538,315
Raw,225,539,315
Raw,57,540,315
Raw,232,541,315
Raw,430,542,315
Raw,106,543,315
Raw,178,544,315
Raw,307,545,315
Raw,193,546,315
Raw,234,547,315
Raw,175,548,315
Raw,230,549,315
Raw,233,550,315
Raw,155,551,315
Raw,254,552,315
Raw,192,553,315
Raw,125,554,315
Raw,202,555,315
Raw,174,556,315
Raw,191,557,315
Raw,166,558,315
Raw,116,559,315
Raw,283,562,315
Raw,91,563,315
Raw,398,564,315
Raw,173,565,315
Raw,237,566,315
Raw,241,567,315
Raw,218,568,315
Raw,309,569,315
Raw,326,570,315
Raw,115,571,315
Raw,209,572,315
Raw,225,573,315
Raw,195,575,315
Raw,11,575,315
Raw,249,576,315
Raw,159,577,315
Raw,203,579,315
Raw,75,580,315
Raw,177,581,315
Raw,200,582,315
Raw,168,583,315
Raw,220,584,315
Raw,198,586,315
Raw,229,587,315
Raw,148,588,315
Raw,183,589,315
Raw,208,590,315
Raw,461,591,315
Raw,188,592,315
Raw,357,593,315
Raw,391,594,315
Raw,185,595,315
Raw,230,596,315
Raw,130,597,315
Raw,232,598,315
Raw,214,599,315
Raw,71,600,315
Raw,214,601,315
Raw,240,602,315
Raw,404,603,315
Raw,210,604,315
Raw,178,605,315
Raw,301,606,315
Raw,50,607,315
Raw,153,608,315
Raw,97,609,315
Raw,37,612,315
Raw,251,613,315
Raw,99,614,315
Raw,162,615,315
Raw,217,616,315
Raw,290,617,315
Raw,120,618,315
Raw,238,619,315
Raw,135,620,315
Raw,188,621,315
Raw,110,622,315
Raw,72,623,315
Raw,247,624,315
Raw,227,625,315
Raw,104,626,315
Raw,215,627,315
Raw,186,628,315
Raw,239,629,315
Raw,255,630,315
Raw,235,631,315
Raw,191,632,315
Raw,165,633,315
Raw,54,634,315
Raw,277,635,315
Raw,71,636,315
Raw,194,637,315
Raw,181,638,315
Raw,217,639,315
Raw,194,640,315
Raw,262,641,315
Raw,206,642,315
Raw,185,643,315
Raw,415,644,315
Raw,201,645,315
Raw,253,646,315
Raw,201,647,315
Raw,316,648,315
Raw,201,649,315
Raw,36,650,315
Raw,188,651,315
Raw,323,652,315
Raw,186,653,315
Raw,221,654,315
Raw,56,655,315
Raw,226,656,315
Raw,174,657,315
Raw,320,658,315
Raw,355,659,315
Raw,194,660,315
Raw,242,662,315
Raw,223,663,315
Raw,216,664,315
Raw,231,665,315
Raw,257,666,315
Raw,114,667,315
Raw,207,668,315
Raw,169,669,315
Raw,221,670,315
Raw,135,672,315
Raw,236,673,315
Raw,80,674,315
Raw,219,675,315
Raw,237,676,315
Raw,247,677,315
Raw,197,678,315
Raw,182,679,315
Raw,214,680,315
Raw,233,681,315
Raw,214,682,315
Raw,194,684,315
Raw,223,685,315
Raw,64,686,315
Raw,165,687,315
Raw,246,688,315
Raw,193,690,315
Raw,70,692,315
Raw,245,693,315
Raw,183,694,315
Raw,185,695,315
Raw,68,696,315
Raw,185,697,315
Raw,326,698,315
Raw,224,699,315
Raw,44,699,315
Raw,110,700,315
Raw,389,701,315
Raw,147,702,315
Raw,164,703,315
Raw,13,703,315
Raw,202,704,315
Raw,226,705,315
Raw,116,706,315
Raw,274,707,315
Raw,364,708,315
Raw,263,709,315
Raw,81,710,315
Raw,176,711,315
Raw,203,712,315
Raw,162,713,315
Raw,135,713,315
Raw,223,714,315
Raw,200,715,315
Raw,327,716,315
Raw,53,717,315
Raw,48,718,315
Raw,336,719,315
Raw,249,720,315
Raw,281,721,315
Raw,181,722,315
Raw,161,723,315
Raw,189,724,315
Raw,97,725,315
Raw,250,726,315
Raw,79,727,315
Raw,194,728,315
Raw,62,729,315
Raw,213,730,315
Raw,200,732,315
Raw,174,733,315
Raw,197,734,315
Raw,241,736,315
Raw,215,737,315
Raw,213,738,315
Raw,187,739,315
Raw,202,740,315
Raw,200,741,315
Raw,230,743,315
Raw,199,744,315
Raw,89,745,315
Raw,232,746,315
Raw,136,747,315
Raw,241,748,315
Raw,236,749,315
Raw,73,750,315
Raw,216,751,315
Raw,146,752,315
Raw,307,753,315
Raw,241,755,315
Raw,234,756,315
Raw,380,757,315
Raw,239,758,315
Raw,87,759,315
Raw,181,760,315
Raw,303,761,315
Raw,146,762,315
Raw,247,764,315
Raw,116,765,315
Raw,202,766,315
Raw,206,767,315
Raw,222,768,315
Raw,254,769,315
Raw,58,770,315
Raw,200,771,315
Raw,225,772,315
Raw,215,773,315
Raw,241,774,315
Raw,266,775,315
Raw,187,777,315
Raw,182,778,315
Raw,243,779,315
Raw,145,780,315
Raw,224,781,315
Raw,245,782,315
Raw,203,783,315
Raw,184,784,315
Raw,96,785,315
Raw,158,786,315
Raw,105,787,315
Raw,240,788,315
Raw,204,789,315
Raw,228,790,315
Raw,172,791,315
Raw,349,792,315
Raw,194,792,315
Raw,269,792,315
Raw,392,793,315
Raw,161,794,315
Raw,206,795,315
Raw,235,796,315
Raw,102,797,315
Raw,224,798,315
Raw,189,799,315
Raw,281,800,315
Raw,200,801,315
Raw,225,802,315
Raw,243,803,315
Raw,106,804,315
Raw,244,805,315
Raw,241,806,315
Raw,234,808,315
Raw,232,809,315
Raw,156,810,315
Raw,171,811,315
Raw,265,812,315
Raw,182,813,315
Raw,167,814,315
Raw,194,815,315
Raw,110,816,315
Raw,125,817,315
Raw,41,817,315
Raw,93,819,315
Raw,221,820,315
Raw,220,821,315
Raw,187,822,315
Raw,208,823,315
Raw,92,824,315
Raw,60,825,315
Raw,90,826,315
Raw,256,827,315
Raw,186,828,315
Raw,373,829,315
Raw,232,830,315
Raw,335,831,315
Raw,76,832,315
Raw,223,833,315
Raw,287,835,315
Raw,232,837,315
Raw,116,838,315
Raw,188,839,315
Raw,128,840,315
Raw,330,841,315
Raw,99,842,315
Raw,231,843,315
Raw,249,844,315
Raw,202,846,315
Raw,227,847,315
Raw,209,848,315
Raw,128,849,315
Raw,230,850,315
Raw,217,851,315
Raw,83,852,315
Raw,227,853,315
Raw,224,854,315
Raw,350,855,315
Raw,40,856,315
Raw,239,857,315
Raw,117,858,315
Raw,172,859,315
Raw,323,860,315
Raw,221,861,315
Raw,236,862,315
Raw,155,863,315
Raw,226,865,315
Raw,168,866,315
Raw,456,867,315
Raw,178,870,315
Raw,181,871,315
Raw,219,872,315
Raw,265,873,315
Raw,171,874,315
Raw,250,875,315
Raw,112,876,315
Raw,203,877,315
Raw,307,878,315
Raw,115,879,315
Raw,188,880,315
Raw,182,881,315
Raw,210,882,315
Raw,146,883,315
Raw,249,884,315
Raw,119,885,315
Raw,128,886,315
Raw,253,887,315
Raw,172,888,315
Raw,286,889,315
Raw,166,890,315
Raw,169,891,315
Raw,202,892,315
Raw,204,893,315
Raw,146,894,315
Raw,102,895,315
Raw,231,896,315
Raw,244,897,315
Raw,223,899,315
Raw,153,900,315
Raw,207,901,315
Raw,82,902,315
Raw,128,904,315
Raw,239,905,315
Raw,194,906,315
Raw,243,907,315
Raw,76,908,315
Raw,233,909,315
Raw,190,910,315
Raw,213,911,315
Raw,251,913,315
Raw,102,914,315
Raw,212,915,315
Raw,231,916,315
Raw,198,917,315
Raw,265,918,315
Raw,207,919,315
Raw,182,920,315
Raw,185,921,315
Raw,233,922,315
Raw,249,923,315
Raw,221,924,315
Raw,227,925,315
Raw,238,926,315
Raw,224,927,315
Raw,265,928,315
Raw,218,929,315
Raw,235,930,315
Raw,203,931,315
Raw,111,932,315
Raw,334,933,315
Raw,416,934,315
Raw,196,935,315
Raw,139,936,315
Raw,47,937,315
Raw,113,938,315
Raw,50,938,315
Raw,59,939,315
Raw,236,940,315
Raw,209,941,315
Raw,203,942,315
Raw,42,942,315
Raw,253,943,315
Raw,107,944,315
Raw,247,945,315
Raw,152,946,315
Raw,189,948,315
Raw,142,949,315
Raw,284,950,315
Raw,385,951,315
Raw,191,952,315
Raw,48,953,315
Raw,118,954,315
Raw,226,954,315
Raw,251,955,315
Raw,123,956,315
Raw,147,957,315
Raw,168,958,315
Raw,191,959,315
Raw,242,961,315
Raw,224,962,315
Raw,197,963,315
Raw,205,964,315
Raw,238,965,315
Raw,239,966,315
Raw,241,967,315
Raw,201,968,315
Raw,199,969,315
Raw,223,970,315
Raw,165,971,315
Raw,196,972,315
Raw,277,973,315
Raw,254,974,315
Raw,88,975,315
Raw,232,976,315
Raw,38,977,315
Raw,206,978,315
Raw,151,979,315
Raw,85,980,315
Raw,200,981,315
Raw,272,984,315
Raw,257,985,315
Raw,242,988,315
Raw,136,989,315
Raw,194,990,315
Raw,239,991,315
Raw,21,991,315
Raw,99,992,315
Raw,347,993,315
Raw,224,994,315
Raw,333,995,315
Raw,173,996,315
Raw,156,997,315
Raw,235,998,315
Raw,189,999,315
Raw,243,1000,315
Raw,85,1001,315
Raw,231,1002,315
Raw,217,1003,315
Raw,175,1004,315
Raw,263,1005,315
Raw,61,1006,315
Raw,114,1007,315
Raw,223,1008,315
Raw,227,1009,315
Raw,395,1011,315
Raw,131,1012,315
Raw,117,1013,315
Raw,232,1014,315
Raw,224,1015,315
Raw,118,1016,315
Raw,66,1017,315
Raw,204,1018,315
Raw,218,1019,315
Raw,236,1020,315
Raw,249,1021,315
Raw,129,1022,315
Raw,170,1023,315
Raw,215,1024,315
Raw,111,1025,315
Raw,193,1026,315
Raw,48,1027,315
Raw,227,1028,315
Raw,218,1029,315
Raw,214,1030,315
Raw,150,1031,315
Raw,207,1032,315
Raw,251,1033,315
Raw,184,1034,315
Raw,240,1035,315
Raw,192,1036,315
Raw,252,1037,315
Raw,211,1038,315
Raw,247,1040,315
Raw,224,1041,315
Raw,242,1042,315
Raw,73,1043,315
Raw,204,1044,315
Raw,223,1045,315
Raw,227,1046,315
Raw,175,1047,315
Raw,144,1048,315
Raw,125,1049,315
Raw,293,1050,315
Raw,109,1051,315
Raw,219,1052,315
Raw,144,1053,315
Raw,252,1054,315
Raw,190,1055,315
Raw,96,1056,315
Raw,215,1057,315
Raw,200,1058,315
Raw,214,1059,315
Raw,189,1060,315
Raw,189,1061,315
Raw,221,1062,315
Raw,119,1063,315
Raw,245,1064,315
Raw,100,1065,315
Raw,233,1066,315
Raw,235,1067,315
Raw,62,1068,315
Raw,216,1070,315
Raw,199,1071,315
Raw,415,1072,315
Raw,80,1073,315
Raw,251,1074,315
Raw,167,1075,315
Raw,124,1076,315
Raw,168,1077,315
Raw,181,1078,315
Raw,134,1079,315
Raw,103,1080,315
Raw,251,1081,315
Raw,242,1082,315
Raw,192,1083,315
Raw,183,1084,315
Raw,162,1085,315
Raw,159,1086,315
Raw,203,1087,315
Raw,165,1088,315
Raw,218,1089,315
Raw,163,1090,315
Raw,179,1091,315
Raw,150,1092,315
Raw,103,1093,315
Raw,116,1094,315
Raw,148,1095,315
Raw,128,1096,315
Raw,239,1097,315
Raw,234,1098,315
Raw,235,1099,315
Raw,333,1100,315
Raw,84,1101,315
Raw,258,1102,315
Raw,80,1103,315
Raw,177,1104,315
Raw,115,1105,315
Raw,234,1106,315
Raw,119,1107,315
Raw,182,1108,315
Raw,289,1109,315
Raw,283,1110,315
Raw,187,1111,315
Raw,248,1111,315
Raw,218,1112,315
Raw,227,1113,315
Raw,130,1114,315
Raw,220,1115,315
Raw,204,1116,315
Raw,235,1117,315
Raw,209,1118,315
Raw,208,1119,315
Raw,52,1120,315
Raw,236,1121,315
Raw,248,1122,315
Raw,195,1123,315
Raw,254,1124,315
Raw,190,1126,315
Raw,177,1127,315
Raw,202,1129,315
Raw,238,1130,315
Raw,185,1131,315
Raw,176,1132,315
Raw,208,1133,315
Raw,69,1134,315
Raw,15,1134,315
Raw,181,1135,315
Raw,189,1136,315
Raw,130,1137,315
Raw,248,1138,315
Raw,33,1139,315
Raw,139,1140,315
Raw,128,1141,315
Raw,174,1142,315
Raw,231,1143,315
Raw,223,1144,315
Raw,224,1145,315
Raw,386,1146,315
Raw,195,1147,315
Raw,202,1149,315
Raw,49,1150,315
Raw,236,1151,315
Raw,113,1152,315
Raw,210,1153,315
Raw,226,1154,315
Raw,270,1155,315
Raw,122,1156,315
Raw,231,1157,315
Raw,195,1158,315
Raw,115,1159,315
Raw,217,1160,315
Raw,218,1161,315
Raw,101,1162,315
Raw,233,1163,315
Raw,138,1164,315
Raw,174,1165,315
Raw,154,1166,315
Raw,120,1167,315
Raw,112,1167,315
Raw,252,1168,315
Raw,107,1169,315
Raw,23,1169,315
Raw,232,1170,315
Raw,271,1171,315
Raw,184,1172,315
Raw,189,1174,315
Raw,230,1175,315
Raw,202,1176,315
Raw,140,1177,315
Raw,167,1178,315
Raw,229,1179,315
Raw,204,1180,315
Raw,133,1181,315
Raw,183,1182,315
Raw,144,1183,315
Raw,223,1185,315
Raw,202,1186,315
Raw,89,1187,315
Raw,146,1188,315
Raw,209,1189,315
Raw,245,1190,315
Raw,251,1191,315
Raw,173,1192,315
Raw,230,1193,315
Raw,91,1194,315
Raw,275,1195,315
Raw,210,1196,315
Raw,181,1197,315
Raw,227,1198,315
Raw,169,1199,315
Raw,178,1200,315
Raw,373,1201,315
Raw,265,1203,315
Raw,253,1204,315
Raw,208,1205,315
Raw,187,1206,315
Raw,298,1207,315
Raw,184,1208,315
Raw,226,1209,315
Raw,247,1210,315
Raw,112,1211,315
Raw,123,1212,315
Raw,160,1213,315
Raw,168,1214,315
Raw,255,1215,315
Raw,227,1216,315
Raw,186,1217,315
Raw,48,1218,315
Raw,196,1219,315
Raw,339,1220,315
Raw,47,1220,315
Raw,211,1221,315
Raw,162,1222,315
Raw,85,1223,315
Raw,245,1224,315
Raw,396,1225,315
Raw,68,1226,315
Raw,224,1227,315
Raw,170,1228,315
Raw,205,1230,315
Raw,207,1231,315
Raw,164,1232,315
Raw,201,1233,315
Raw,249,1234,315
Raw,238,1235,315
Raw,367,1236,315
Raw,181,1237,315
Raw,161,1238,315
Raw,232,1239,315
Raw,219,1240,315
Raw,160,1241,315
Raw,179,1242,315
Raw,201,1243,315
Raw,148,1244,315
Raw,177,1245,315
Raw,260,1246,315
Raw,73,1247,315
Raw,219,1248,315
Raw,307,1249,315
Raw,209,1250,315
Raw,193,1251,315
Raw,218,1252,315
Raw,245,1253,315
Raw,226,1254,315
Raw,224,1255,315
Raw,73,1256,315
Raw,119,1257,315
Raw,244,1258,315
Raw,108,1259,315
Raw,206,1260,315
Raw,232,1261,315
Raw,238,1262,315
Raw,245,1263,315
Raw,164,1264,315
Raw,196,1265,315
Raw,212,1266,315
Raw,217,1267,315
Raw,329,1268,315
Raw,185,1269,315
Raw,204,1270,315
Raw,203,1271,315
Raw,216,1272,315
Raw,223,1273,315
Raw,204,1274,315
Raw,284,1276,315
Raw,85,1277,315
Raw,45,1279,315
Raw,155,1280,315
Raw,209,1281,315
Raw,179,1282,315
Raw,167,1283,315
Raw,239,1285,315
Raw,214,1286,315
Raw,171,1287,315
Raw,250,1288,315
Raw,217,1289,315
Raw,86,1290,315
Raw,254,1291,315
Raw,116,1292,315
Raw,102,1293,315
Raw,276,1294,315
Raw,329,1295,315
Raw,160,1296,315
Raw,193,1297,315
Raw,247,1298,315
Raw,243,1299,315
Raw,103,1301,315
Raw,223,1302,315
Raw,128,1303,315
Raw,391,1304,315
Raw,120,1305,315
Raw,178,1306,315
Raw,237,1307,315
Raw,247,1308,315
Raw,74,1309,315
Raw,307,1310,315
Raw,105,1311,315
Raw,210,1312,315
Raw,127,1313,315
Raw,86,1314,315
Raw,165,1315,315
Raw,223,1316,315
Raw,191,1317,315
Raw,225,1318,315
Raw,200,1319,315
Raw,211,1320,315
Raw,163,1321,315
Raw,221,1322,315
Raw,175,1323,315
Raw,95,1324,315
Raw,238,1325,315
Raw,209,1326,315
Raw,211,1327,315
Raw,246,1328,315
Raw,158,1329,315
Raw,158,1330,315
Raw,118,1332,315
Raw,165,1333,315
Raw,195,1335,315
Raw,119,1336,315
Raw,231,1337,315
Raw,210,1338,315
Raw,71,1339,315
Raw,189,1340,315
Raw,168,1341,315
Raw,78,1342,315
Raw,262,1343,315
Raw,169,1344,315
Raw,197,1345,315
Raw,347,1346,315
Raw,151,1348,315
Raw,71,1349,315
Raw,212,1350,315
Raw,184,1351,315
Raw,300,1352,315
Raw,212,1353,315
Raw,225,1354,315
Raw,142,1355,315
Raw,210,1356,315
Raw,246,1357,315
Raw,236,1358,315
Raw,79,1359,315
Raw,211,1360,315
Raw,179,1361,315
Raw,246,1362,315
Raw,214,1363,315
Raw,245,1364,315
Raw,44,1364,315
Raw,223,1365,315
Raw,258,1366,315
Raw,231,1367,315
Raw,218,1368,315
Raw,198,1369,315
Raw,72,1370,315
Raw,177,1371,315
Raw,319,1373,315
Raw,43,1374,315
Raw,238,1375,315
Raw,231,1376,315
Raw,235,1377,315
Raw,99,1379,315
Raw,202,1380,315
Raw,124,1381,315
Raw,169,1382,315
Raw,231,1383,315
Raw,224,1384,315
Raw,224,1385,315
Raw,248,1386,315
Raw,183,1387,315
Raw,107,1388,315
Raw,182,1389,315
Raw,214,1390,315
Raw,178,1391,315
Raw,318,1392,315
Raw,107,1393,315
Raw,182,1394,315
Raw,397,1395,315
Raw,211,1396,315
Raw,195,1397,315
Raw,136,1398,315
Raw,247,1399,315
Raw,403,1400,315
Raw,132,1401,315
Raw,205,1402,315
Raw,116,1403,315
Raw,157,1404,315
Raw,219,1405,315
Raw,154,1406,315
Raw,224,1407,315
Raw,176,1408,315
Raw,50,1409,315
Raw,143,1410,315
Raw,237,1411,315
Raw,237,1412,315
Raw,169,1413,315
Raw,223,1414,315
Raw,233,1415,315
Raw,232,1416,315
Raw,228,1417,315
Raw,179,1418,315
Raw,184,1419,315
Raw,189,1420,315
Raw,231,1421,315
Raw,101,1422,315
Raw,205,1423,315
Raw,211,1424,315
Raw,65,1425,315
Raw,194,1426,315
Raw,248,1427,315
Raw,213,1428,315
Raw,323,1429,315
Raw,306,1430,315
Raw,176,1431,315
Raw,211,1432,315
Raw,425,1433,315
Raw,168,1434,315
Raw,64,1435,315
Raw,45,1436,315
Raw,116,1437,315
Raw,233,1438,315
Raw,345,1439,315
Raw,210,1440,315
Raw,225,1441,315
Raw,221,1442,315
Raw,212,1443,315
Raw,234,1444,315
Raw,125,1445,315
Raw,203,1446,315
Raw,185,1447,315
Raw,149,1448,315
Raw,233,1449,315
Raw,70,1450,315
Raw,145,1451,315
Raw,430,1452,315
Raw,358,1453,315
Raw,241,1454,315
Raw,218,1455,315
Raw,262,1456,315
Raw,310,1457,315
Raw,180,1458,315
Raw,179,1459,315
Raw,143,1460,315
Raw,235,1461,315
Raw,228,1462,315
Raw,114,1463,315
Raw,94,1463,315
Raw,229,1464,315
Raw,65,1465,315
Raw,209,1466,315
Raw,186,1467,315
Raw,245,1468,315
Raw,100,1469,315
Raw,48,1470,315
Raw,195,1471,315
Raw,222,1472,315
Raw,193,1473,315
Raw,169,1474,315
Raw,231,1475,315
Raw,96,1476,315
Raw,191,1477,315
Raw,37,1479,315
Raw,216,1480,315
Raw,253,1481,315
Raw,187,1482,315
Raw,208,1483,315
Raw,238,1484,315
Raw,178,1485,315
Raw,88,1486,315
Raw,216,1487,315
Raw,216,1488,315
Raw,40,1489,315
Raw,244,1490,315
Raw,231,1491,315
Raw,227,1492,315
Raw,196,1493,315
Raw,411,1494,315
Raw,142,1495,315
Raw,233,1496,315
Raw,182,1497,315
Raw,237,1498,315
Raw,229,1499,315
Raw,186,1500,315
Raw,104,1501,315
Raw,210,1502,315
Raw,221,1503,315
Raw,215,1504,315
Raw,227,1505,315
Raw,162,1506,315
Raw,71,1507,315
Raw,67,1508,315
Raw,212,1509,315
Raw,220,1510,315
Raw,152,1511,315
Raw,63,1512,315
Raw,186,1513,315
Raw,215,1514,315
Raw,219,1515,315
Raw,220,1516,315
Raw,188,1517,315
Raw,151,1518,315
Raw,145,1519,315
Raw,309,1520,315
Raw,218,1522,315
Raw,184,1523,315
Raw,195,1524,315
Raw,220,1525,315
Raw,124,1526,315
Raw,208,1527,315
Raw,220,1528,315
Raw,75,1529,315
Raw,234,1530,315
Raw,216,1531,315
Raw,219,1532,315
Raw,210,1533,315
Raw,214,1534,315
Raw,257,1535,315
Raw,235,1536,315
Raw,59,1537,315
Raw,264,1538,315
Raw,225,1539,315
Raw,151,1540,315
Raw,216,1542,315
Raw,160,1543,315
Raw,180,1544,315
Raw,207,1545,315
Raw,346,1546,315
Raw,207,1547,315
Raw,212,1548,315
Raw,164,1549,315
Raw,236,1550,315
Raw,314,1551,315
Raw,248,1552,315
Raw,182,1553,315
Raw,183,1554,315
Raw,161,1555,315
Raw,42,1556,315
Raw,227,1557,315
Raw,184,1558,315
Raw,153,1559,315
Raw,152,1560,315
Raw,207,1561,315
Raw,209,1562,315
Raw,214,1563,315
Raw,166,1564,315
Raw,244,1565,315
Raw,115,1566,315
Raw,172,1567,315
Raw,152,1568,315
Raw,200,1569,315
Raw,116,1570,315
Raw,224,1571,315
Raw,344,1572,315
Raw,220,1573,315
Raw,228,1574,315
Raw,206,1575,315
Raw,231,1576,315
Raw,226,1577,315
Raw,239,1578,315
Raw,144,1579,315
Raw,420,1580,315
Raw,72,1581,315
Raw,201,1582,315
Raw,153,1583,315
Raw,94,1584,315
Raw,244,1585,315
Raw,230,1586,315
Raw,217,1587,315
Raw,163,1588,315
Raw,229,1589,315
Raw,200,1590,315
Raw,214,1592,315
Raw,200,1593,315
Raw,141,1594,315
Raw,66,1595,315
Raw,220,1596,315
Raw,225,1597,315
Raw,250,1598,315
Raw,215,1599,315
Raw,229,1600,315
Raw,215,1601,315
Raw,227,1602,315
Raw,141,1603,315
Raw,218,1604,315
Raw,169,1605,315
Raw,205,1606,315
Raw,188,1607,315
Raw,217,1608,315
Raw,138,1609,315
Raw,238,1610,315
Raw,123,1611,315
Raw,73,1612,315
Raw,160,1613,315
Raw,176,1614,315
Raw,127,1615,315
Raw,255,1616,315
Raw,224,1617,315
Raw,111,1618,315
Raw,162,1619,315
Raw,153,1620,315
Raw,243,1621,315
Raw,177,1622,315
Raw,182,1623,315
Raw,56,1624,315
Raw,190,1625,315
Raw,247,1626,315
Raw,194,1627,315
Raw,225,1628,315
Raw,235,1629,315
Raw,158,1630,315
Raw,228,1631,315
Raw,151,1632,315
Raw,204,1633,315
Raw,92,1634,315
Raw,183,1635,315
Raw,198,1636,315
Raw,234,1637,315
Raw,244,1638,315
Raw,124,1639,315
Raw,212,1640,315
Raw,192,1641,315
Raw,82,1643,315
Raw,56,1644,315
Raw,161,1645,315
Raw,222,1646,315
Raw,224,1647,315
Raw,200,1648,315
Raw,232,1649,315
Raw,138,1650,315
Raw,240,1651,315
Raw,177,1652,315
Raw,236,1653,315
Raw,233,1654,315
Raw,140,1655,315
Raw,302,1656,315
Raw,184,1657,315
Raw,323,1658,315
Raw,236,1660,315
Raw,211,1662,315
Raw,260,1663,315
Raw,131,1664,315
Raw,278,1665,315
Raw,108,1666,315
Raw,179,1667,315
Raw,180,1668,315
Raw,68,1669,315
Raw,218,1670,315
Raw,170,1671,315
Raw,251,1672,315
Raw,201,1673,315
Raw,244,1674,315
Raw,65,1675,315
Raw,204,1676,315
Raw,278,1677,315
Raw,215,1678,315
Raw,128,1679,315
Raw,122,1679,315
Raw,134,1680,315
Raw,361,1681,315
Raw,204,1682,315
Raw,191,1683,315
Raw,151,1684,315
Raw,154,1685,315
Raw,42,1686,315
Raw,51,1687,315
Raw,160,1688,315
Raw,346,1689,315
Raw,199,1690,315
Raw,223,1691,315
Raw,176,1692,315
Raw,235,1693,315
Raw,200,1694,315
Raw,229,1696,315
Raw,228,1697,315
Raw,179,1698,315
Raw,234,1699,315
Raw,184,1700,315
Raw,115,1701,315
Raw,124,1702,315
Raw,237,1703,315
Raw,226,1704,315
Raw,233,1705,315
Raw,161,1706,315
Raw,109,1707,315
Raw,168,1708,315
Raw,137,1709,315
Raw,245,1710,315
Raw,226,1711,315
Raw,197,1712,315
Raw,233,1713,315
Raw,130,1714,315
Raw,235,1715,315
Raw,59,1716,315
Raw,52,1717,315
Raw,217,1719,315
Raw,256,1720,315
Raw,261,1721,315
Raw,212,1722,315
Raw,248,1723,315
Raw,213,1724,315
Raw,191,1725,315
Raw,225,1726,315
Raw,89,1727,315
Raw,230,1728,315
Raw,182,1729,315
Raw,284,1730,315
Raw,102,1731,315
Raw,223,1732,315
Raw,357,1733,315
Raw,242,1734,315
Raw,306,1735,315
Raw,229,1736,315
Raw,199,1737,315
Raw,259,1738,315
Raw,139,1739,315
Raw,156,1740,315
Raw,311,1741,315
Raw,137,1742,315
Raw,212,1743,315
Raw,211,1744,315
Raw,220,1745,315
Raw,224,1746,315
Raw,115,1747,315
Raw,50,1748,315
Raw,242,1749,315
Raw,226,1750,315
Raw,230,1751,315
Raw,176,1752,315
Raw,148,1753,315
Raw,155,1756,315
Raw,203,1757,315
Raw,180,1758,315
Raw,188,1759,315
Raw,167,1760,315
Raw,280,1761,315
Raw,373,1762,315
Raw,173,1763,315
Raw,97,1764,315
Raw,230,1765,315
Raw,196,1766,315
Raw,163,1767,315
Raw,207,1768,315
Raw,112,1769,315
Raw,75,1770,315
Raw,161,1771,315
Raw,213,1772,315
Raw,420,1773,315
Raw,230,1774,315
Raw,111,1775,315
Raw,225,1776,315
Raw,200,1777,315
Raw,233,1778,315
Raw,40,1779,315
Raw,247,1780,315
Raw,253,1781,315
Raw,244,1782,315
Raw,197,1783,315
Raw,221,1784,315
Raw,198,1785,315
Raw,103,1786,315
Raw,232,1787,315
Raw,223,1788,315
Raw,203,1789,315
Raw,209,1790,315
Raw,37,1790,315
Raw,246,1791,315
Raw,214,1792,315
Raw,246,1793,315
Raw,223,1794,315
Raw,61,1795,315
Raw,194,1797,315
Raw,164,1798,315
Raw,93,1799,315
Raw,182,1800,315
Raw,188,1801,315
Raw,327,1802,315
Raw,167,1803,315
Raw,222,1804,315
Raw,250,1805,315
Raw,238,1806,315
Raw,156,1807,315
Raw,229,1809,315
Raw,466,1810,315
Raw,169,1811,315
Raw,177,1812,315
Raw,243,1813,315
Raw,174,1814,315
Raw,182,1815,315
Raw,172,1816,315
Raw,166,1818,315
Raw,228,1819,315
Raw,194,1820,315
Raw,180,1821,315
Raw,199,1822,315
Raw,236,1823,315
Raw,70,1825,315
Raw,228,1826,315
Raw,130,1828,315
Raw,245,1829,315
Raw,83,1830,315
Raw,173,1831,315
Raw,178,1832,315
Raw,147,1833,315
Raw,117,1834,315
Raw,243,1835,315
Raw,232,1836,315
Raw,223,1837,315
Raw,284,1838,315
Raw,113,1839,315
Raw,184,1840,315
Raw,145,1841,315
Raw,108,1842,315
Raw,205,1843,315
Raw,214,1844,315
Raw,200,1845,315
Raw,217,1846,315
Raw,180,1847,315
Raw,188,1848,315
Raw,418,1849,315
Raw,126,1850,315
Raw,255,1851,315
Raw,312,1852,315
Raw,141,1853,315
Raw,148,1854,315
Raw,264,1856,315
Raw,69,1857,315
Raw,128,1858,315
Raw,44,1859,315
Raw,107,1860,315
Raw,164,1862,315
Raw,135,1863,315
Raw,200,1864,315
Raw,157,1866,315
Raw,306,1867,315
Raw,118,1868,315
Raw,197,1869,315
Raw,235,1870,315
Raw,314,1871,315
Raw,58,1872,315
Raw,27,1873,315
Raw,129,1873,315
Raw,197,1874,315
Raw,250,1875,315
Raw,170,1876,315
Raw,32,1876,315
Raw,248,1877,315
Raw,214,1878,315
Raw,200,1879,315
Raw,108,1880,315
Raw,224,1881,315
Raw,213,1882,315
Raw,69,1883,315
Raw,116,1884,315
Raw,136,1885,315
Raw,142,1886,315
Raw,184,1887,315
Raw,235,1889,315
Raw,220,1890,315
Raw,75,1891,315
Raw,60,1892,315
Raw,121,1893,315
Raw,121,1894,315
Raw,172,1895,315
Raw,228,1896,315
Raw,241,1897,315
Raw,90,1898,315
Raw,256,1899,315
Raw,227,1900,315
Raw,171,1901,315
Raw,235,1902,315
Raw,171,1903,315
Raw,233,1905,315
Raw,127,1906,315
Raw,119,1906,315
Raw,214,1907,315
Raw,322,1908,315
Raw,233,1909,315
Raw,39,1910,315
Raw,241,1911,315
Raw,142,1912,315
Raw,215,1913,315
Raw,35,1913,315
Raw,163,1914,315
Raw,214,1915,315
Raw,77,1916,315
Raw,222,1917,315
Raw,166,1918,315
Raw,199,1919,315
Raw,139,1920,315
Raw,168,1921,315
Raw,230,1922,315
Raw,205,1923,315
Raw,163,1924,315
Raw,232,1925,315
Raw,111,1927,315
Raw,232,1928,315
Raw,165,1929,315
Raw,56,1930,315
Raw,238,1931,315
Raw,229,1932,315
Raw,183,1933,315
Raw,126,1934,315
Raw,230,1935,315
Raw,230,1936,315
Raw,151,1937,315
Raw,189,1938,315
Raw,93,1939,315
Raw,231,1940,315
Raw,41,1941,315
Raw,130,1941,315
Raw,320,1942,315
Raw,413,1943,315
Raw,170,1944,315
Raw,131,1945,315
Raw,30,1945,315
Raw,41,1946,315
Raw,198,1947,315
Raw,258,1948,315
Raw,344,1949,315
Raw,232,1950,315
Raw,327,1951,315
Raw,212,1952,315
Raw,70,1953,315
Raw,229,1954,315
Raw,216,1955,315
Raw,222,1956,315
Raw,240,1957,315
Raw,138,1958,315
Raw,229,1959,315
Raw,231,1960,315
Raw,164,1961,315
Raw,90,1962,315
Raw,211,1963,315
Raw,245,1964,315
Raw,234,1965,315
Raw,166,1966,315
Raw,206,1967,315
Raw,211,1968,315
Raw,136,1969,315
Raw,197,1970,315
Raw,203,1971,315
Raw,256,1972,315
Raw,201,1973,315
Raw,61,1974,315
Raw,72,1975,315
Raw,194,1976,315
Raw,237,1977,315
Raw,157,1978,315
Raw,178,1979,315
Raw,183,1980,315
Raw,216,1981,315
Raw,188,1982,315
Raw,216,1983,315
Raw,99,1984,315
Raw,250,1985,315
Raw,71,1986,315
Raw,176,1987,315
Raw,393,1988,315
Raw,240,1989,315
Raw,189,1990,315
Raw,59,1991,315
Raw,209,1992,315
Raw,92,1994,315
Raw,225,1995,315
Raw,234,1997,315
Raw,119,1998,315
Raw,316,1999,315
Raw,168,2000,315
Raw,222,2001,315
Raw,183,2002,315
Raw,167,2003,315
Raw,236,2004,315
Raw,67,2005,315
Raw,123,2006,315
Raw,224,2007,315
Raw,240,2008,315
Raw,204,2009,315
Raw,225,2010,315
Raw,244,2011,315
Raw,200,2012,315
Raw,216,2013,315
Raw,248,2014,315
Raw,137,2015,315
Raw,217,2016,315
Raw,106,2018,315
Raw,219,2019,315
Raw,23,2019,315
Raw,399,2020,315
Raw,212,2021,315
Raw,238,2022,315
Raw,89,2023,315
Raw,223,2026,315
Raw,126,2027,315
Raw,243,2028,315
Raw,154,2029,315
Raw,144,2030,315
Raw,127,2031,315
Raw,164,2032,315
Raw,227,2033,315
Raw,208,2034,315
Raw,207,2035,315
Raw,145,2036,315
Raw,233,2037,315
Raw,127,2038,315
Raw,263,2039,315
Raw,150,2040,315
Raw,232,2041,315
Raw,218,2042,315
Raw,234,2043,315
Raw,84,2044,315
Raw,47,2045,315
Raw,109,2045,315
Raw,338,2046,315
Raw,113,2047,315
Raw,210,2048,315
Raw,115,2049,315
Raw,47,2050,315
Raw,235,2051,315
Raw,244,2053,315
Raw,167,2053,315
Raw,216,2054,315
Raw,237,2055,315
Raw,156,2056,315
Raw,363,2058,315
Raw,219,2059,315
Raw,154,2060,315
Raw,75,2061,315
Raw,219,2062,315
Raw,160,2063,315
Raw,195,2064,315
Raw,95,2065,315
Raw,199,2066,315
Raw,221,2067,315
Raw,185,2068,315
Raw,210,2069,315
Raw,61,2070,315
Raw,50,2072,315
Raw,255,2073,315
Raw,161,2075,315
Raw,247,2076,315
Raw,230,2077,315
Raw,99,2078,315
Raw,179,2079,315
Raw,218,2080,315
Raw,217,2081,315
Raw,324,2082,315
Raw,176,2083,315
Raw,196,2084,315
Raw,206,2085,315
Raw,23,2085,315
Raw,197,2086,315
Raw,158,2087,315
Raw,312,2088,315
Raw,154,2089,315
Raw,142,2090,315
Raw,97,2091,315
Raw,169,2092,315
Raw,92,2093,315
Raw,240,2095,315
Raw,232,2096,315
Raw,268,2098,315
Raw,236,2099,315
Raw,316,2101,315
Raw,240,2102,315
Raw,222,2104,315
Raw,325,2105,315
Raw,206,2106,315
Raw,127,2107,315
Raw,211,2108,315
Raw,171,2109,315
Raw,235,2110,315
Raw,205,2111,315
Raw,221,2112,315
Raw,240,2113,315
Raw,233,2114,315
Raw,141,2115,315
Raw,178,2116,315
Raw,227,2117,315
Raw,192,2118,315
Raw,237,2119,315
Raw,314,2120,315
Raw,150,2121,315
Raw,252,2122,315
Raw,248,2124,315
Raw,250,2125,315
Raw,250,2126,315
Raw,211,2127,315
Raw,201,2128,315
Raw,226,2129,315
Raw,217,2130,315
Raw,233,2131,315
Raw,213,2132,315
Raw,219,2133,315
Raw,218,2134,315
Raw,228,2135,315
Raw,60,2136,315
Raw,219,2137,315
Raw,76,2138,315
Raw,293,2139,315
Raw,221,2140,315
Raw,209,2141,315
Raw,223,2142,315
Raw,145,2143,315
Raw,236,2144,315
Raw,95,2145,315
Raw,98,2146,315
Raw,198,2147,315
Raw,224,2148,315
Raw,190,2149,315
Raw,237,2152,315
Raw,213,2153,315
Raw,197,2154,315
Raw,173,2155,315
Raw,194,2156,315
Raw,193,2157,315
Raw,255,2159,315
Raw,105,2160,315
Raw,180,2161,315
Raw,220,2162,315
Raw,135,2163,315
Raw,263,2164,315
Raw,225,2165,315
Raw,199,2166,315
Raw,110,2167,315
Raw,202,2168,315
Raw,112,2169,315
Raw,140,2170,315
Raw,188,2171,315
Raw,228,2172,315
Raw,241,2173,315
Raw,222,2174,315
Raw,112,2175,315
Raw,194,2176,315
Raw,236,2177,315
Raw,241,2178,315
Raw,179,2179,315
Raw,88,2180,315
Raw,186,2181,315
Raw,179,2182,315
Raw,190,2183,315
Raw,91,2184,315
Raw,151,2185,315
Raw,206,2186,315
Raw,156,2187,315
Raw,213,2188,315
Raw,106,2189,315
Raw,312,2190,315
Raw,172,2191,315
Raw,55,2192,315
Raw,234,2193,315
Raw,96,2194,315
Raw,188,2195,315
Raw,252,2196,315
Raw,90,2197,315
Raw,211,2198,315
Raw,244,2199,315
Raw,181,2200,315
Raw,199,2201,315
Raw,199,2202,315
Raw,224,2203,315
Raw,235,2204,315
Raw,217,2205,315
Raw,186,2206,315
Raw,205,2207,315
Raw,248,2208,315
Raw,231,2209,315
Raw,236,2210,315
Raw,261,2211,315
Raw,213,2212,315
Raw,195,2213,315
Raw,122,2214,315
Raw,148,2215,315
Raw,204,2216,315
Raw,130,2217,315
Raw,241,2218,315
Raw,183,2219,315
Raw,69,2220,315
Raw,207,2221,315
Raw,238,2222,315
Raw,27,2222,315
Raw,154,2223,315
Raw,241,2224,315
Raw,236,2225,315
Raw,220,2226,315
Raw,222,2227,315
Raw,167,2228,315
Raw,182,2229,315
Raw,214,2230,315
Raw,120,2231,315
Raw,265,2232,315
Raw,92,2233,315
Raw,84,2234,315
Raw,79,2235,315
Raw,114,2236,315
Raw,241,2237,315
Raw,72,2238,315
Raw,132,2239,315
Raw,184,2240,315
Raw,322,2241,315
Raw,211,2242,315
Raw,166,2243,315
Raw,303,2244,315
Raw,263,2245,315
Raw,325,2246,315
Raw,219,2247,315
Raw,214,2249,315
Raw,228,2250,315
Raw,301,2251,315
Raw,49,2252,315
Raw,112,2253,315
Raw,201,2255,315
Raw,116,2256,315
Raw,216,2257,315
Raw,110,2258,315
Raw,352,2259,315
Raw,363,2260,315
Raw,9,2260,315
Raw,222,2261,315
Raw,226,2262,315
Raw,171,2263,315
Raw,116,2264,315
Raw,217,2265,315
Raw,47,2266,315
Raw,155,2267,315
Raw,103,2268,315
Raw,128,2269,315
Raw,266,2270,315
Raw,294,2271,315
Raw,205,2272,315
Raw,180,2273,315
Raw,281,2274,315
Raw,293,2275,315
Raw,220,2276,315
Raw,220,2277,315
Raw,197,2278,315
Raw,198,2279,315
Raw,203,2280,315
Raw,295,2281,315
Raw,192,2282,315
Raw,334,2283,315
Raw,172,2284,315
Raw,175,2285,315
Raw,192,2286,315
Raw,302,2287,315
Raw,307,2288,315
Raw,88,2289,315
Raw,218,2290,315
Raw,287,2291,315
Raw,218,2292,315
Raw,175,2293,315
Raw,228,2294,315
Raw,286,2295,315
Raw,213,2296,315
Raw,210,2297,315
Raw,176,2298,315
Raw,184,2299,315
Raw,194,2300,315
Raw,234,2301,315
Raw,61,2302,315
Raw,257,2303,315
Raw,202,2304,315
Raw,154,2305,315
Raw,174,2306,315
Raw,191,2307,315
Raw,100,2308,315
Raw,176,2309,315
Raw,172,2310,315
Raw,153,2312,315
Raw,237,2313,315
Raw,253,2314,315
Raw,243,2315,315
Raw,167,2316,315
Raw,200,2317,315
Raw,104,2318,315
Raw,68,2319,315
Raw,200,2320,315
Raw,188,2322,315
Raw,189,2323,315
Raw,200,2324,315
Raw,181,2325,315
Raw,200,2326,315
Raw,195,2327,315
Raw,238,2328,315
Raw,227,2329,315
Raw,150,2330,315
Raw,228,2331,315
Raw,212,2332,315
Raw,232,2333,315
Raw,95,2334,315
Raw,89,2335,315
Raw,202,2336,315
Raw,239,2337,315
Raw,336,2338,315
Raw,231,2339,315
Raw,421,2340,315
Raw,174,2341,315
Raw,137,2342,315
Raw,211,2343,315
Raw,73,2344,315
Raw,236,2345,315
Raw,185,2346,315
Raw,199,2347,315
Raw,9,2347,315
Raw,308,2348,315
Raw,224,2349,315
Raw,225,2350,315
Raw,221,2351,315
Raw,132,2352,315
Raw,165,2353,315
Raw,195,2354,315
Raw,116,2355,315
Raw,172,2356,315
Raw,242,2357,315
Raw,120,2358,315
Raw,203,2359,315
Raw,98,2360,315
Raw,115,2360,315
Raw,197,2361,315
Raw,227,2362,315
Raw,35,2362,315
Raw,244,2363,315
Raw,186,2364,315
Raw,129,2365,315
Raw,210,2366,315
Raw,185,2368,315
Raw,177,2369,315
Raw,87,2370,315
Raw,201,2371,315
Raw,253,2372,315
Raw,263,2373,315
Raw,209,2374,315
Raw,235,2375,315
Raw,241,2376,315
Raw,196,2377,315
Raw,122,2378,315
Raw,116,2379,315
Raw,210,2380,315
Raw,309,2381,315
Raw,229,2382,315
Raw,98,2383,315
Raw,220,2384,315
Raw,216,2385,315
Raw,197,2386,315
Raw,176,2387,315
Raw,197,2388,315
Raw,199,2389,315
Raw,91,2390,315
Raw,181,2391,315
Raw,280,2392,315
Raw,245,2393,315
Raw,325,2394,315
Raw,200,2395,315
Raw,193,2396,315
Raw,203,2397,315
Raw,194,2398,315
Raw,193,2399,315
Raw,243,2400,315
Raw,88,2401,315
Raw,122,2402,315
Raw,240,2403,315
Raw,107,2404,315
Raw,227,2405,315
Raw,185,2407,315
Raw,284,2408,315
Raw,102,2409,315
Raw,262,2410,315
Raw,134,2411,315
Raw,157,2412,315
Raw,156,2413,315
Raw,180,2414,315
Raw,167,2415,315
Raw,595,2416,315
Raw,221,2417,315
Raw,73,2418,315
Raw,332,2419,315
Raw,391,2420,315
Raw,240,2421,315
Raw,213,2424,315
Raw,210,2425,315
Raw,89,2426,315
Raw,151,2427,315
Raw,256,2428,315
Raw,415,2429,315
Raw,216,2431,315
Raw,220,2432,315
Raw,224,2433,315
Raw,204,2434,315
Raw,247,2435,315
Raw,218,2437,315
Raw,193,2438,315
Raw,211,2439,315
Raw,233,2440,315
Raw,215,2441,315
Raw,163,2442,315
Raw,153,2443,315
Raw,220,2444,315
Raw,293,2445,315
Raw,108,2446,315
Raw,235,2447,315
Raw,217,2448,315
Raw,161,2449,315
Raw,216,2450,315
Raw,193,2451,315
Raw,127,2452,315
Raw,181,2453,315
Raw,206,2454,315
Raw,216,2455,315
Raw,204,2457,315
Raw,217,2458,315
Raw,190,2459,315
Raw,393,2460,315
Raw,161,2461,315
Raw,229,2462,315
Raw,207,2464,315
Raw,203,2465,315
Raw,108,2466,315
Raw,196,2467,315
Raw,197,2468,315
Raw,203,2469,315
Raw,97,2470,315
Raw,191,2471,315
Raw,226,2472,315
Raw,244,2473,315
Raw,82,2475,315
Raw,174,2476,315
Raw,174,2477,315
Raw,230,2478,315
Raw,245,2479,315
Raw,429,2480,315
Raw,86,2481,315
Raw,271,2482,315
Raw,132,2483,315
Raw,93,2484,315
Raw,142,2485,315
Raw,286,2486,315
Raw,183,2487,315
Raw,225,2488,315
Raw,244,2489,315
Raw,230,2490,315
Raw,300,2491,315
Raw,183,2492,315
Raw,175,2493,315
Raw,167,2494,315
Raw,248,2495,315
Raw,235,2496,315
Raw,69,2497,315
Raw,361,2498,315
Raw,89,2499,315
Raw,146,2500,315
Raw,55,2501,315
Raw,98,2502,315
Raw,235,2503,315
Raw,212,2504,315
Raw,107,2505,315
Raw,364,2506,315
Raw,171,2509,315
Raw,203,2510,315
Raw,54,2511,315
Raw,233,2512,315
Raw,203,2513,315
Raw,189,2514,315
Raw,115,2515,315
Raw,156,2516,315
Raw,200,2517,315
Raw,334,2518,315
Raw,132,2519,315
Raw,278,2520,315
Raw,429,2521,315
Raw,193,2522,315
Raw,257,2523,315
Raw,197,2525,315
Raw,194,2526,315
Raw,262,2527,315
Raw,236,2528,315
Raw,168,2529,315
Raw,63,2530,315
Raw,198,2531,315
Raw,213,2532,315
Raw,245,2533,315
Raw,105,2534,315
Raw,215,2535,315
Raw,325,2536,315
Raw,213,2537,315
Raw,194,2538,315
Raw,96,2539,315
Raw,213,2540,315
Raw,275,2541,315
Raw,63,2542,315
Raw,176,2543,315
Raw,319,2544,315
Raw,162,2545,315
Raw,107,2546,315
Raw,231,2547,315
Raw,177,2548,315
Raw,195,2549,315
Raw,48,2550,315
Raw,314,2551,315
Raw,212,2552,315
Raw,212,2553,315
Raw,88,2554,315
Raw,195,2555,315
Raw,197,2557,315
Raw,45,2558,315
Raw,207,2559,315
Raw,134,2560,315
Raw,131,2561,315
Raw,205,2562,315
Raw,219,2563,315
Raw,272,2564,315
Raw,82,2565,315
Raw,209,2566,315
Raw,194,2567,315
Raw,189,2568,315
Raw,225,2569,315
Raw,315,2570,315
Raw,175,2571,315
Raw,235,2573,315
Raw,113,2574,315
Raw,62,2575,315
Raw,219,2576,315
Raw,21,2577,315
Raw,228,2578,315
Raw,195,2581,315
Raw,143,2582,315
Raw,212,2584,315
Raw,74,2585,315
Raw,69,2586,315
Raw,78,2587,315
Raw,201,2588,315
Raw,324,2589,315
Raw,194,2591,315
Raw,202,2592,315
Raw,185,2593,315
Raw,66,2595,315
Raw,189,2596,315
Raw,332,2597,315
Raw,233,2598,315
Raw,367,2599,315
Raw,168,2600,315
Raw,32,2600,315
Raw,260,2601,315
Raw,300,2602,315
Raw,224,2603,315
Raw,168,2604,315
Raw,239,2605,315
Raw,107,2606,315
Raw,238,2607,315
Raw,215,2608,315
Raw,84,2609,315
Raw,200,2610,315
Raw,167,2611,315
Raw,184,2612,315
Raw,3,2612,315
Raw,234,2613,315
Raw,142,2614,315
Raw,158,2615,315
Raw,221,2616,315
Raw,192,2617,315
Raw,59,2618,315
Raw,199,2619,315
Raw,318,2620,315
Raw,244,2621,315
Raw,330,2622,315
Raw,134,2623,315
Raw,60,2624,315
Raw,75,2624,315
Raw,168,2625,315
Raw,198,2626,315
Raw,235,2627,315
Raw,238,2628,315
Raw,132,2629,315
Raw,157,2630,315
Raw,219,2631,315
Raw,76,2632,315
Raw,103,2633,315
Raw,178,2635,315
Raw,213,2636,315
Raw,54,2637,315
Raw,240,2638,315
Raw,194,2639,315
Raw,191,2640,315
Raw,210,2641,315
Raw,408,2642,315
Raw,362,2643,315
Raw,68,2644,315
Raw,242,2645,315
Raw,207,2646,315
Raw,188,2647,315
Raw,185,2648,315
Raw,222,2649,315
Raw,177,2651,315
Raw,250,2652,315
Raw,138,2653,315
Raw,205,2654,315
Raw,177,2655,315
Raw,226,2656,315
Raw,185,2657,315
Raw,202,2658,315
Raw,296,2659,315
Raw,151,2660,315
Raw,182,2661,315
Raw,59,2662,315
Raw,253,2663,315
Raw,66,2664,315
Raw,189,2666,315
Raw,102,2667,315
Raw,182,2668,315
Raw,184,2669,315
Raw,397,2670,315
Raw,368,2671,315
Raw,232,2672,315
Raw,197,2673,315
Raw,50,2674,315
Raw,230,2675,315
Raw,170,2676,315
Raw,207,2677,315
Raw,186,2678,315
Raw,172,2679,315
Raw,214,2680,315
Raw,97,2681,315
Raw,123,2681,315
Raw,184,2682,315
Raw,408,2683,315
Raw,184,2684,315
Raw,167,2686,315
Raw,102,2687,315
Raw,241,2688,315
Raw,201,2689,315
Raw,199,2690,315
Raw,212,2691,315
Raw,41,2692,315
Raw,184,2693,315
Raw,188,2694,315
Raw,239,2695,315
Raw,194,2696,315
Raw,238,2697,315
Raw,237,2698,315
Raw,58,2699,315
Raw,95,2700,315
Raw,247,2701,315
Raw,203,2702,315
Raw,213,2703,315
Raw,206,2704,315
Raw,262,2705,315
Raw,209,2706,315
Raw,177,2707,315
Raw,399,2708,315
Raw,91,2709,315
Raw,121,2709,315
Raw,124,2710,315
Raw,219,2711,315
Raw,187,2712,315
Raw,162,2713,315
Raw,293,2715,315
Raw,190,2716,315
Raw,97,2717,315
Raw,106,2718,315
Raw,206,2719,315
Raw,99,2720,315
Raw,229,2721,315
Raw,303,2722,315
Raw,204,2723,315
Raw,99,2724,315
Raw,206,2725,315
Raw,140,2726,315
Raw,280,2727,315
Raw,222,2728,315
Raw,168,2729,315
Raw,173,2729,315
Raw,234,2730,315
Raw,395,2731,315
Raw,180,2732,315
Raw,186,2733,315
Raw,208,2734,315
Raw,206,2735,315
Raw,220,2736,315
Raw,193,2737,315
Raw,198,2738,315
Raw,94,2739,315
Raw,209,2740,315
Raw,229,2741,315
Raw,210,2742,315
Raw,281,2743,315
Raw,45,2744,315
Raw,226,2745,315
Raw,128,2746,315
Raw,167,2747,315
Raw,271,2748,315
Raw,170,2749,315
Raw,212,2750,315
Raw,196,2751,315
Raw,283,2752,315
Raw,244,2753,315
Raw,231,2754,315
Raw,248,2755,315
Raw,207,2756,315
Raw,46,2757,315
Raw,279,2758,315
Raw,206,2759,315
Raw,263,2760,315
Raw,195,2761,315
Raw,229,2762,315
Raw,154,2763,315
Raw,147,2764,315
Raw,201,2765,315
Raw,239,2766,315
Raw,196,2767,315
Raw,170,2768,315
Raw,231,2769,315
Raw,160,2770,315
Raw,104,2771,315
Raw,222,2772,315
Raw,92,2774,315
Raw,377,2775,315
Raw,182,2776,315
Raw,214,2777,315
Raw,212,2778,315
Raw,200,2779,315
Raw,187,2780,315
Raw,240,2781,315
Raw,104,2782,315
Raw,242,2783,315
Raw,148,2784,315
Raw,216,2785,315
Raw,248,2786,315
Raw,180,2787,315
Raw,192,2788,315
Raw,163,2789,315
Raw,303,2790,315
Raw,235,2791,315
Raw,231,2792,315
Raw,213,2793,315
Raw,120,2794,315
Raw,66,2795,315
Raw,186,2796,315
Raw,137,2797,315
Raw,263,2798,315
Raw,199,2799,315
Raw,177,2800,315
Raw,365,2801,315
Raw,314,2802,315
Raw,329,2803,315
Raw,136,2805,315
Raw,81,2806,315
Raw,91,2807,315
Raw,180,2808,315
Raw,223,2809,315
Raw,152,2810,315
Raw,108,2811,315
Raw,148,2812,315
Raw,189,2813,315
Raw,160,2814,315
Raw,328,2815,315
Raw,215,2816,315
Raw,152,2817,315
Raw,178,2818,315
Raw,67,2819,315
Raw,191,2820,315
Raw,204,2821,315
Raw,92,2822,315
Raw,212,2823,315
Raw,218,2824,315
Raw,239,2825,315
Raw,307,2826,315
Raw,170,2827,315
Raw,171,2828,315
Raw,202,2829,315
Raw,171,2830,315
Raw,197,2831,315
Raw,68,2832,315
Raw,71,2833,315
Raw,194,2834,315
Raw,249,2835,315
Raw,180,2836,315
Raw,222,2837,315
Raw,181,2838,315
Raw,228,2839,315
Raw,102,2840,315
Raw,219,2841,315
Raw,243,2842,315
Raw,236,2843,315
Raw,195,2844,315
Raw,182,2845,315
Raw,194,2846,315
Raw,167,2847,315
Raw,226,2848,315
Raw,245,2849,315
Raw,122,2850,315
Raw,221,2851,315
Raw,194,2852,315
Raw,181,2853,315
Raw,177,2854,315
Raw,222,2855,315
Raw,199,2856,315
Raw,194,2857,315
Raw,203,2858,315
Raw,188,2859,315
Raw,197,2860,315
Raw,199,2861,315
Raw,195,2862,315
Raw,208,2863,315
Raw,70,2864,315
Raw,239,2865,315
Raw,101,2866,315
Raw,77,2867,315
Raw,209,2868,315
Raw,21,2868,315
Raw,35,2869,315
Raw,154,2870,315
Raw,329,2871,315
Raw,221,2872,315
Raw,193,2873,315
Raw,198,2874,315
Raw,312,2875,315
Raw,275,2877,315
Raw,317,2878,315
Raw,209,2879,315
Raw,219,2880,315
Raw,31,2880,315
Raw,199,2881,315
Raw,122,2882,315
Raw,353,2883,315
Raw,222,2884,315
Raw,296,2885,315
Raw,220,2886,315
Raw,210,2887,315
Raw,221,2888,315
Raw,218,2889,315
Raw,220,2890,315
Raw,178,2891,315
Raw,187,2892,315
Raw,202,2893,315
Raw,170,2894,315
Raw,158,2895,315
Raw,207,2896,315
Raw,309,2897,315
Raw,377,2898,315
Raw,200,2899,315
Raw,219,2901,315
Raw,226,2902,315
Raw,92,2903,315
Raw,181,2904,315
Raw,238,2906,315
Raw,140,2907,315
Raw,236,2908,315
Raw,87,2909,315
Raw,201,2910,315
Raw,200,2911,315
Raw,250,2912,315
Raw,179,2913,315
Raw,212,2914,315
Raw,381,2915,315
Raw,143,2915,315
Raw,214,2916,315
Raw,185,2917,315
Raw,177,2918,315
Raw,217,2919,315
Raw,142,2920,315
Raw,217,2921,315
Raw,203,2922,315
Raw,234,2923,315
Raw,111,2924,315
Raw,164,2927,315
Raw,248,2928,315
Raw,179,2929,315
Raw,48,2931,315
Raw,194,2932,315
Raw,213,2933,315
Raw,397,2934,315
Raw,174,2935,315
Raw,233,2937,315
Raw,416,2938,315
Raw,182,2939,315
Raw,74,2940,315
Raw,205,2941,315
Raw,223,2942,315
Raw,215,2943,315
Raw,224,2944,315
Raw,240,2945,315
Raw,70,2946,315
Raw,68,2947,315
Raw,203,2948,315
Raw,64,2949,315
Raw,354,2950,315
Raw,177,2951,315
Raw,90,2952,315
Raw,257,2954,315
Raw,202,2955,315
Raw,104,2956,315
Raw,187,2957,315
Raw,307,2958,315
Raw,186,2959,315
Raw,185,2960,315
Raw,226,2961,315
Raw,47,2962,315
Raw,56,2963,315
Raw,197,2964,315
Raw,403,2965,315
Raw,136,2966,315
Raw,212,2967,315
Raw,307,2968,315
Raw,200,2969,315
Raw,237,2970,315
Raw,201,2971,315
Raw,88,2972,315
Raw,242,2973,315
Raw,223,2974,315
Raw,108,2975,315
Raw,58,2976,315
Raw,390,2977,315
Raw,189,2978,315
Raw,94,2979,315
Raw,103,2980,315
Raw,76,2981,315
Raw,123,2981,315
Raw,121,2982,315
Raw,225,2983,315
Raw,101,2985,315
Raw,184,2986,315
Raw,224,2987,315
Raw,171,2988,315
Raw,190,2989,315
Raw,199,2990,315
Raw,304,2991,315
Raw,183,2992,315
Raw,246,2993,315
Raw,246,2994,315
Raw,81,2995,315
Raw,305,2996,315
Raw,389,2997,315
Raw,181,2998,315
Raw,240,2999,315
Raw,196,3000,315
Raw,177,3001,315
Raw,236,3002,315
Raw,187,3003,315
Raw,168,3004,315
Raw,232,3005,315
Raw,163,3006,315
Raw,210,3007,315
Raw,64,3008,315
Raw,225,3008,315
Raw,225,3009,315
Raw,338,3010,315
Raw,165,3012,315
Raw,220,3013,315
Raw,298,3014,315
Raw,200,3015,315
Raw,163,3017,315
Raw,90,3018,315
Raw,90,3019,315
Raw,210,3020,315
Raw,228,3021,315
Raw,92,3022,315
Raw,207,3023,315
Raw,151,3025,315
Raw,191,3026,315
Raw,123,3027,315
Raw,299,3028,315
Raw,129,3029,315
Raw,218,3030,315
Raw,104,3031,315
Raw,102,3032,315
Raw,140,3034,315
Raw,168,3035,315
Raw,172,3036,315
Raw,177,3037,315
Raw,297,3038,315
Raw,187,3039,315
Raw,176,3040,315
Raw,402,3041,315
Raw,261,3042,315
Raw,185,3043,315
Raw,245,3044,315
Raw,210,3045,315
Raw,115,3046,315
Raw,167,3047,315
Raw,202,3048,315
Raw,167,3049,315
Raw,90,3050,315
Raw,242,3052,315
Raw,139,3053,315
Raw,54,3054,315
Raw,321,3055,315
Raw,184,3056,315
Raw,156,3057,315
Raw,323,3058,315
Raw,286,3059,315
Raw,165,3060,315
Raw,199,3061,315
Raw,176,3062,315
Raw,3,3062,315
Raw,105,3066,315
Raw,162,3067,315
Raw,219,3068,315
Raw,62,3069,315
Raw,209,3070,315
Raw,139,3071,315
Raw,238,3072,315
Raw,170,3073,315
Raw,43,3074,315
Raw,278,3075,315
Raw,236,3076,315
Raw,426,3077,315
Raw,94,3078,315
Raw,348,3079,315
Raw,155,3081,315
Raw,188,3082,315
Raw,229,3083,315
Raw,218,3084,315
Raw,227,3085,315
Raw,92,3086,315
Raw,200,3087,315
Raw,109,3088,315
Raw,210,3089,315
Raw,209,3090,315
Raw,71,3091,315
Raw,333,3092,315
Raw,207,3094,315
Raw,372,3095,315
Raw,60,3096,315
Raw,301,3097,315
Raw,396,3098,315
Raw,316,3099,315
Raw,138,3100,315
Raw,173,3101,315
Raw,379,3102,315
Raw,290,3103,315
Raw,177,3104,315
Raw,189,3106,315
Raw,223,3107,315
Raw,319,3108,315
Raw,229,3109,315
Raw,196,3110,315
Raw,175,3111,315
Raw,351,3112,315
Raw,73,3113,315
Raw,43,3114,315
Raw,185,3116,315
Raw,143,3118,315
Raw,350,3119,315
Raw,133,3121,315
Raw,69,3122,315
Raw,225,3123,315
Raw,65,3124,315
Raw,82,3125,315
Raw,225,3126,315
Raw,196,3127,315
Raw,237,3128,315
Raw,438,3129,315
Raw,202,3131,315
Raw,151,3132,315
Raw,86,3133,315
Raw,138,3134,315
Raw,166,3136,315
Raw,198,3137,315
Raw,171,3138,315
Raw,248,3139,315
Raw,170,3140,315
Raw,175,3141,315
Raw,170,3142,315
Raw,201,3143,315
Raw,296,3144,315
Raw,215,3145,315
Raw,184,3146,315
Raw,158,3147,315
Raw,105,3148,315
Raw,155,3149,315
Raw,242,3150,315
Raw,180,3151,315
Raw,182,3152,315
Raw,185,3153,315
Raw,348,3154,315
Raw,225,3155,315
Raw,53,3156,315
Raw,381,3157,315
Raw,207,3158,315
Raw,243,3159,315
Raw,355,3160,315
Raw,198,3161,315
Raw,191,3162,315
Raw,232,3163,315
Raw,220,3164,315
Raw,226,3165,315
Raw,141,3166,315
Raw,173,3168,315
Raw,153,3169,315
Raw,192,3171,315
Raw,251,3172,315
Raw,216,3173,315
Raw,228,3174,315
Raw,176,3175,315
Raw,228,3176,315
Raw,251,3177,315
Raw,408,3178,315
Raw,159,3179,315
Raw,4,3179,315
Raw,211,3180,315
Raw,78,3181,315
Raw,397,3182,315
Raw,179,3183,315
Raw,215,3184,315
Raw,236,3185,315
Raw,179,3186,315
Raw,238,3187,315
Raw,329,3188,315
Raw,140,3189,315
Raw,234,3190,315
Raw,151,3192,315
Raw,218,3193,315
Raw,168,3194,315
Raw,181,3195,315
Raw,172,3196,315
Raw,168,3197,315
Raw,199,3198,315
Raw,192,3199,315
Raw,190,3200,315
Raw,332,3201,315
Raw,258,3202,315
Raw,69,3203,315
Raw,322,3204,315
Raw,205,3205,315
Raw,196,3206,315
Raw,96,3207,315
Raw,42,3208,315
Raw,253,3209,315
Raw,232,3210,315
Raw,212,3211,315
Raw,167,3213,315
Raw,202,3214,315
Raw,39,3215,315
Raw,59,3216,315
Raw,187,3217,315
Raw,124,3218,315
Raw,193,3219,315
Raw,192,3220,315
Raw,295,3221,315
Raw,158,3222,315
Raw,156,3223,315
Raw,67,3224,315
Raw,44,3224,315
Raw,189,3225,315
Raw,216,3226,315
Raw,217,3227,315
Raw,145,3228,315
Raw,236,3229,315
Raw,252,3230,315
Raw,191,3231,315
Raw,191,3232,315
Raw,140,3233,315
Raw,194,3234,315
Raw,170,3235,315
Raw,40,3236,315
Raw,353,3237,315
Raw,216,3238,315
Raw,36,3239,315
Raw,193,3240,315
Raw,316,3241,315
Raw,206,3242,315
Raw,161,3243,315
Raw,232,3244,315
Raw,220,3245,315
Raw,118,3247,315
Raw,31,3247,315
Raw,203,3248,315
Raw,164,3249,315
Raw,100,3250,315
Raw,349,3251,315
Raw,63,3252,315
Raw,346,3253,315
Raw,234,3256,315
Raw,302,3257,315
Raw,162,3258,315
Raw,174,3259,315
Raw,167,3260,315
Raw,181,3261,315
Raw,245,3262,315
Raw,257,3263,315
Raw,164,3264,315
Raw,195,3265,315
Raw,203,3266,315
Raw,61,3267,315
Raw,281,3268,315
Raw,223,3269,315
Raw,238,3270,315
Raw,206,3272,315
Raw,202,3273,315
Raw,265,3274,315
Raw,226,3275,315
Raw,88,3276,315
Raw,219,3277,315
Raw,224,3278,315
Raw,146,3280,315
Raw,84,3281,315
Raw,93,3282,315
Raw,299,3283,315
Raw,199,3284,315
Raw,183,3285,315
Raw,271,3286,315
Raw,172,3287,315
Raw,65,3288,315
Raw,275,3289,315
Raw,476,3290,315
Raw,251,3291,315
Raw,226,3292,315
Raw,236,3293,315
Raw,9,3293,315
Raw,285,3294,315
Raw,238,3295,315
Raw,46,3296,315
Raw,326,3297,315
Raw,233,3298,315
Raw,242,3299,315
Raw,111,3300,315
Raw,272,3301,315
Raw,206,3302,315
Raw,219,3303,315
Raw,313,3304,315
Raw,173,3305,315
Raw,144,3306,315
Raw,288,3307,315
Raw,302,3308,315
Raw,244,3309,315
Raw,36,3309,315
Raw,188,3310,315
Raw,203,3312,315
Raw,240,3314,315
Raw,231,3315,315
Raw,229,3316,315
Raw,205,3317,315
Raw,357,3318,315
Raw,186,3319,315
Raw,123,3321,315
Raw,205,3322,315
Raw,210,3323,315
Raw,81,3324,315
Raw,207,3325,315
Raw,150,3326,315
Raw,181,3327,315
Raw,172,3328,315
Raw,44,3329,315
Raw,100,3330,315
Raw,177,3331,315
Raw,208,3333,315
Raw,217,3334,315
Raw,330,3335,315
Raw,264,3336,315
Raw,220,3337,315
Raw,223,3338,315
Raw,143,3339,315
Raw,196,3340,315
Raw,117,3341,315
Raw,199,3342,315
Raw,233,3343,315
Raw,220,3344,315
Raw,227,3345,315
Raw,226,3346,315
Raw,200,3347,315
Raw,208,3348,315
Raw,196,3349,315
Raw,394,3350,315
Raw,187,3351,315
Raw,163,3352,315
Raw,214,3353,315
Raw,308,3354,315
Raw,80,3355,315
Raw,243,3356,315
Raw,183,3357,315
Raw,210,3358,315
Raw,353,3359,315
Raw,175,3360,315
Raw,96,3361,315
Raw,236,3362,315
Raw,175,3363,315
Raw,9,3363,315
Raw,181,3364,315
Raw,154,3365,315
Raw,244,3366,315
Raw,237,3367,315
Raw,173,3368,315
Raw,122,3369,315
Raw,255,3370,315
Raw,240,3371,315
Raw,154,3372,315
Raw,106,3374,315
Raw,227,3375,315
Raw,324,3376,315
Raw,128,3377,315
Raw,189,3378,315
Raw,204,3379,315
Raw,231,3380,315
Raw,444,3381,315
Raw,258,3382,315
Raw,173,3384,315
Raw,213,3385,315
Raw,169,3386,315
Raw,203,3387,315
Raw,239,3388,315
Raw,206,3389,315
Raw,238,3390,315
Raw,201,3391,315
Raw,83,3393,315
Raw,66,3394,315
Raw,213,3395,315
Raw,207,3396,315
Raw,200,3397,315
Raw,223,3398,315
Raw,307,3399,315
Raw,104,3400,315
Raw,189,3401,315
Raw,153,3402,315
Raw,200,3403,315
Raw,135,3404,315
Raw,220,3405,315
Raw,180,3406,315
Raw,233,3407,315
Raw,230,3408,315
Raw,90,3410,315
Raw,115,3411,315
Raw,202,3412,315
Raw,176,3413,315
Raw,57,3414,315
Raw,159,3415,315
Raw,166,3416,315
Raw,171,3417,315
Raw,231,3418,315
Raw,198,3419,315
Raw,355,3420,315
Raw,222,3421,315
Raw,204,3422,315
Raw,130,3423,315
Raw,38,3423,315
Raw,209,3424,315
Raw,178,3425,315
Raw,220,3426,315
Raw,202,3427,315
Raw,217,3428,315
Raw,119,3429,315
Raw,195,3430,315
Raw,171,3431,315
Raw,109,3432,315
Raw,95,3433,315
Raw,201,3434,315
Raw,150,3435,315
Raw,237,3436,315
Raw,192,3437,315
Raw,206,3438,315
Raw,47,3439,315
Raw,105,3440,315
Raw,232,3441,315
Raw,238,3442,315
Raw,278,3443,315
Raw,363,3444,315
Raw,192,3445,315
Raw,194,3446,315
Raw,205,3447,315
Raw,250,3448,315
Raw,187,3449,315
Raw,160,3454,315
Raw,220,3455,315
Raw,187,3456,315
Raw,106,3459,315
Raw,219,3460,315
Raw,230,3461,315
Raw,211,3462,315
Raw,45,3463,315
Raw,185,3465,315
Raw,135,3466,315
Raw,203,3467,315
Raw,142,3468,315
Raw,237,3469,315
Raw,193,3470,315
Raw,402,3471,315
Raw,236,3472,315
Raw,207,3473,315
Raw,219,3475,315
Raw,324,3476,315
Raw,194,3477,315
Raw,178,3478,315
Raw,165,3479,315
Raw,46,3480,315
Raw,85,3481,315
Raw,183,3482,315
Raw,205,3483,315
Raw,80,3484,315
Raw,233,3485,315
Raw,267,3486,315
Raw,181,3487,315
Raw,214,3488,315
Raw,184,3489,315
Raw,309,3491,315
Raw,93,3492,315
Raw,99,3493,315
Raw,216,3494,315
Raw,222,3496,315
Raw,291,3497,315
Raw,173,3498,315
Raw,206,3499,315
Raw,180,3500,315
Raw,246,3501,315
Raw,332,3502,315
Raw,92,3503,315
Raw,158,3504,315
Raw,219,3505,315
Raw,147,3507,315
Raw,88,3508,315
Raw,178,3509,315
Raw,205,3510,315
Raw,251,3511,315
Raw,183,3512,315
Raw,306,3513,315
Raw,237,3514,315
Raw,4,3514,315
Raw,220,3515,315
Raw,221,3516,315
Raw,209,3517,315
Raw,307,3518,315
Raw,319,3519,315
Raw,183,3520,315
Raw,92,3521,315
Raw,151,3522,315
Raw,180,3524,315
Raw,138,3525,315
Raw,211,3526,315
Raw,144,3527,315
Raw,106,3528,315
Raw,165,3529,315
Raw,232,3530,315
Raw,184,3531,315
Raw,103,3532,315
Raw,63,3533,315
Raw,286,3534,315
Raw,203,3535,315
Raw,181,3536,315
Raw,314,3537,315
Raw,111,3538,315
Raw,102,3539,315
Raw,139,3540,315
Raw,69,3541,315
Raw,342,3542,315
Raw,162,3542,315
Raw,175,3543,315
Raw,228,3544,315
Raw,196,3545,315
Raw,252,3546,315
Raw,225,3547,315
Raw,149,3548,315
Raw,243,3549,315
Raw,197,3550,315
Raw,223,3551,315
Raw,167,3552,315
Raw,121,3553,315
Raw,243,3554,315
Raw,202,3555,315
Raw,280,3556,315
Raw,230,3557,315
Raw,302,3558,315
Raw,248,3559,315
Raw,244,3561,315
Raw,49,3562,315
Raw,114,3563,315
Raw,220,3564,315
Raw,173,3565,315
Raw,170,3567,315
Raw,113,3569,315
Raw,230,3571,315
Raw,154,3572,315
Raw,185,3573,315
Raw,222,3574,315
Raw,103,3575,315
Raw,114,3575,315
Raw,252,3576,315
Raw,273,3577,315
Raw,198,3578,315
Raw,190,3579,315
Raw,213,3580,315
Raw,296,3581,315
Raw,116,3581,315
Raw,306,3582,315
Raw,201,3583,315
Raw,76,3584,315
Raw,215,3585,315
Raw,208,3586,315
Raw,183,3587,315
Raw,53,3588,315
Raw,240,3589,315
Raw,111,3590,315
Raw,199,3591,315
Raw,237,3593,315
Raw,238,3594,315
Raw,13,3595,315
Raw,115,3596,315
Raw,175,3597,315
Raw,226,3599,315
Raw,71,3600,315
Raw,215,3601,315
Raw,198,3602,315
Raw,119,3603,315
Raw,45,3604,315
Raw,106,3605,315
Raw,199,3606,315
Raw,66,3607,315
Raw,277,3608,315
Raw,242,3610,315
Raw,220,3611,315
Raw,224,3612,315
Raw,306,3613,315
Raw,194,3614,315
Raw,272,3615,315
Raw,210,3616,315
Raw,197,3617,315
Raw,242,3618,315
Raw,235,3620,315
Raw,235,3621,315
Raw,217,3622,315
Raw,115,3623,315
Raw,244,3624,315
Raw,208,3625,315
Raw,195,3626,315
Raw,144,3627,315
Raw,99,3628,315
Raw,71,3629,315
Raw,182,3630,315
Raw,239,3631,315
Raw,463,3632,315
Raw,358,3633,315
Raw,155,3634,315
Raw,132,3636,315
Raw,180,3637,315
Raw,164,3638,315
Raw,232,3639,315
Raw,144,3640,315
Raw,238,3642,315
Raw,203,3643,315
Raw,196,3644,315
Raw,223,3645,315
Raw,218,3646,315
Raw,188,3648,315
Raw,169,3649,315
Raw,70,3650,315
Raw,209,3651,315
Raw,212,3653,315
Raw,348,3654,315
Raw,161,3655,315
Raw,201,3656,315
Raw,159,3659,315
Raw,157,3660,315
Raw,402,3661,315
Raw,318,3662,315
Raw,231,3663,315
Raw,191,3664,315
Raw,201,3665,315
Raw,180,3666,315
Raw,237,3667,315
Raw,164,3668,315
Raw,156,3669,315
Raw,237,3670,315
Raw,202,3671,315
Raw,78,3672,315
Raw,209,3673,315
Raw,214,3674,315
Raw,213,3675,315
Raw,152,3676,315
Raw,92,3677,315
Raw,142,3678,315
Raw,181,3679,315
Raw,212,3680,315
Raw,176,3681,315
Raw,215,3682,315
Raw,193,3684,315
Raw,190,3685,315
Raw,224,3686,315
Raw,149,3687,315
Raw,183,3688,315
Raw,213,3689,315
Raw,139,3690,315
Raw,144,3691,315
Raw,312,3692,315
Raw,197,3693,315
Raw,123,3694,315
Raw,161,3695,315
Raw,140,3696,315
Raw,269,3697,315
Raw,61,3698,315
Raw,216,3700,315
Raw,78,3701,315
Raw,205,3702,315
Raw,140,3703,315
Raw,181,3704,315
Raw,244,3705,315
Raw,55,3706,315
Raw,247,3707,315
Raw,201,3708,315
Raw,211,3709,315
Raw,161,3710,315
Raw,176,3711,315
Raw,209,3712,315
Raw,218,3713,315
Raw,244,3714,315
Raw,126,3715,315
Raw,96,3716,315
Raw,217,3719,315
Raw,12,3719,315
Raw,199,3720,315
Raw,221,3721,315
Raw,160,3722,315
Raw,210,3723,315
Raw,89,3724,315
Raw,224,3725,315
Raw,82,3726,315
Raw,185,3727,315
Raw,207,3728,315
Raw,130,3729,315
Raw,195,3730,315
Raw,226,3731,315
Raw,220,3732,315
Raw,186,3733,315
Raw,207,3734,315
Raw,220,3735,315
Raw,84,3736,315
Raw,139,3737,315
Raw,373,3738,315
Raw,334,3739,315
Raw,199,3740,315
Raw,271,3741,315
Raw,75,3742,315
Raw,169,3743,315
Raw,173,3744,315
Raw,93,3745,315
Raw,233,3746,315
Raw,200,3747,315
Raw,168,3748,315
Raw,220,3749,315
Raw,96,3750,315
Raw,215,3751,315
Raw,203,3752,315
Raw,307,3753,315
Raw,247,3754,315
Raw,105,3755,315
Raw,137,3756,315
Raw,94,3757,315
Raw,207,3758,315
Raw,170,3759,315
Raw,180,3760,315
Raw,233,3761,315
Raw,223,3762,315
Raw,212,3763,315
Raw,166,3764,315
Raw,224,3765,315
Raw,212,3766,315
Raw,117,3767,315
Raw,183,3768,315
Raw,206,3769,315
Raw,189,3770,315
Raw,225,3771,315
