Cut?,Counts,eventNumber,runNumber
Raw,5.70368545e+05,2,347
Raw,4.44187165e+05,3,347
Raw,4.60636417e+05,4,347
Raw,4.84099327e+05,8,347
Raw,3.53268549e+05,9,347
Raw,3.98687397e+05,10,347
Raw,4.91884235e+05,11,347
Raw,5.3791634e+05,12,347
Raw,4.59810422e+05,13,347
Raw,4.9607498e+05,14,347
Raw,4.64250202e+05,16,347
Raw,5.012199e+05,17,347
Raw,5.39485326e+05,18,347
Raw,4.40219563e+05,19,347
Raw,5.01817049e+05,20,347
Raw,4.83056156e+05,22,347
Raw,6.24410346e+05,23,347
Raw,4.60648309e+05,24,347
Raw,4.89134875e+05,25,347
Raw,4.31434123e+05,26,347
Raw,4.63988984e+05,28,347
Raw,5.66646323e+05,29,347
Raw,5.53183922e+05,30,347
Raw,4.28854617e+05,31,347
Raw,7.68114159e+05,33,347
Raw,5.46503228e+05,34,347
Raw,5.80380914e+05,35,347
Raw,5.67632853e+05,36,347
Raw,5.05697575e+05,37,347
Raw,3.96682139e+05,39,347
Raw,5.27993082e+05,40,347
Raw,5.17612259e+05,43,347
Raw,4.4532991e+05,44,347
Raw,4.2999022e+05,45,347
Raw,4.9053808e+05,47,347
Raw,8.22282198e+05,48,347
Raw,5.72342031e+05,50,347
Raw,3.78275218e+05,51,347
Raw,5.08101901e+05,53,347
Raw,4.48208208e+05,54,347
Raw,6.48284629e+05,55,347
Raw,4.0672307e+05,56,347
Raw,5.4299076e+05,57,347
Raw,2.17784303e+05,58,347
Raw,4.99113308e+05,59,347
Raw,4.32161323e+05,61,347
Raw,5.69981041e+05,62,347
Raw,4.45302085e+05,63,347
Raw,6.71257987e+05,64,347
Raw,4.69107338e+05,65,347
Raw,4.86744542e+05,66,347
Raw,3.87808384e+05,67,347
Raw,4.55503397e+05,68,347
Raw,4.83951862e+05,69,347
Raw,4.1165595e+05,70,347
Raw,3.95378248e+05,71,347
Raw,5.0948317e+05,73,347
Raw,5.62272598e+05,75,347
Raw,5.85375261e+05,76,347
Raw,3.15720097e+05,77,347
Raw,4.11167302e+05,78,347
Raw,4.55716965e+05,79,347
Raw,5.1983284e+05,80,347
Raw,4.15796476e+05,81,347
Raw,5.8123051e+05,82,347
Raw,2.46185332e+05,83,347
Raw,5.31471822e+05,84,347
Raw,5.11555069e+05,86,347
Raw,5.38297485e+05,87,347
Raw,4.87535624e+05,88,347
Raw,4.7063684e+05,89,347
Raw,7.61412679e+05,90,347
Raw,6.09507688e+05,91,347
Raw,4.51380026e+05,92,347
Raw,5.72443186e+05,93,347
Raw,4.81603649e+05,94,347
Raw,4.33393536e+05,95,347
Raw,5.40352735e+05,96,347
Raw,4.20140711e+05,97,347
Raw,4.09262583e+05,98,347
Raw,5.53259438e+05,99,347
Raw,5.17114215e+05,100,347
Raw,4.37938486e+05,101,347
Raw,2.44479546e+05,102,347
Raw,4.5098592e+05,103,347
Raw,6.73500389e+05,104,347
Raw,6.74410021e+05,105,347
Raw,5.4718775e+05,107,347
Raw,4.2008147e+05,108,347
Raw,5.29280743e+05,109,347
Raw,4.864745e+05,110,347
Raw,2.61152349e+05,111,347
Raw,4.3723833e+05,112,347
Raw,4.529895e+05,113,347
Raw,4.5945745e+05,114,347
Raw,4.69028673e+05,115,347
Raw,4.54939914e+05,116,347
Raw,1.19999815e+05,116,347
Raw,4.85012546e+05,118,347
Raw,3.69235965e+05,120,347
Raw,5.35657306e+05,121,347
Raw,5.13444295e+05,122,347
Raw,3.68904938e+05,123,347
Raw,4.60458347e+05,124,347
Raw,4.5226011e+05,125,347
Raw,3.59012965e+05,127,347
Raw,4.48000051e+05,128,347
Raw,5.06911448e+05,130,347
Raw,4.97501574e+05,132,347
Raw,4.73758759e+05,133,347
Raw,3.52398444e+05,134,347
Raw,4.03896635e+05,135,347
Raw,6.26269155e+05,136,347
Raw,5.27855493e+05,137,347
Raw,6.13875812e+05,137,347
Raw,4.88268399e+05,138,347
Raw,1.15064066e+06,139,347
Raw,4.73965372e+05,140,347
Raw,5.27521066e+05,141,347
Raw,5.47664385e+05,142,347
Raw,5.02698471e+05,145,347
Raw,4.82134902e+05,146,347
Raw,4.85528722e+05,147,347
Raw,4.56282299e+05,148,347
Raw,5.14675677e+05,149,347
Raw,2.78038759e+05,150,347
Raw,2.29936406e+05,151,347
Raw,4.47248777e+05,156,347
Raw,4.94505655e+05,157,347
Raw,5.20625241e+05,158,347
Raw,4.63456563e+05,160,347
Raw,4.64817784e+05,161,347
Raw,5.16198941e+05,163,347
Raw,4.89341152e+05,164,347
Raw,1.39722349e+05,164,347
Raw,5.09398506e+05,165,347
Raw,5.61900241e+05,166,347
Raw,4.61486006e+05,168,347
Raw,2.66046591e+05,171,347
Raw,5.5111995e+05,172,347
Raw,5.00559716e+05,173,347
Raw,1.26347904e+05,173,347
Raw,5.37893451e+05,174,347
Raw,4.33385158e+05,175,347
Raw,5.49291675e+05,176,347
Raw,1.95258378e+05,178,347
Raw,5.64008954e+05,179,347
Raw,4.43422115e+05,180,347
Raw,3.97157347e+05,182,347
Raw,4.02038634e+05,185,347
Raw,4.79938103e+05,186,347
Raw,6.33954247e+05,187,347
Raw,4.43373997e+05,189,347
Raw,3.86752445e+05,190,347
Raw,5.15755341e+05,191,347
Raw,4.91526495e+05,192,347
Raw,1.69659033e+05,192,347
Raw,4.2665567e+05,194,347
Raw,2.86516699e+05,195,347
Raw,1.54255502e+05,195,347
Raw,5.50326336e+05,196,347
Raw,6.32634549e+05,198,347
Raw,3.68411949e+05,199,347
Raw,5.59658875e+05,200,347
Raw,5.81951037e+05,201,347
Raw,2.66639389e+05,202,347
Raw,5.36879588e+05,203,347
Raw,3.45231239e+05,204,347
Raw,5.32439151e+05,205,347
Raw,4.40105285e+05,206,347
Raw,2.69611248e+05,208,347
Raw,4.34318439e+05,209,347
Raw,5.68521404e+05,210,347
Raw,3.58572913e+05,211,347
Raw,3.67982457e+05,212,347
Raw,5.42847835e+05,213,347
Raw,5.50883977e+05,214,347
Raw,3.03970325e+05,216,347
Raw,5.70340113e+05,218,347
Raw,4.39722677e+05,219,347
Raw,3.55810668e+05,220,347
Raw,4.9862481e+05,221,347
Raw,4.73278443e+05,222,347
Raw,2.00642505e+05,223,347
Raw,2.86441861e+05,223,347
Raw,4.98989761e+05,224,347
Raw,5.07081219e+05,225,347
Raw,4.80748525e+05,226,347
Raw,4.12555906e+05,227,347
Raw,4.0725562e+05,228,347
Raw,4.79969945e+05,229,347
Raw,2.48661565e+05,231,347
Raw,2.84953919e+05,232,347
Raw,4.76134762e+05,233,347
Raw,2.29941812e+05,235,347
Raw,3.30658702e+05,236,347
Raw,4.77202685e+05,238,347
Raw,4.93927362e+05,239,347
Raw,3.81661565e+05,240,347
Raw,3.90276188e+05,241,347
Raw,3.90494119e+05,243,347
Raw,1.64886872e+05,243,347
Raw,4.69251699e+05,244,347
Raw,4.39705141e+05,246,347
Raw,3.17809364e+05,247,347
Raw,3.30505304e+05,248,347
Raw,4.62146479e+05,250,347
Raw,4.06263e+05,251,347
Raw,4.86497648e+05,252,347
Raw,3.91796677e+05,253,347
Raw,3.80030214e+05,254,347
Raw,2.56718789e+05,255,347
Raw,2.06034576e+05,256,347
Raw,4.8434773e+05,257,347
Raw,3.55701636e+05,258,347
Raw,4.35450698e+05,259,347
Raw,5.20814638e+05,260,347
Raw,3.69563922e+05,262,347
Raw,3.85350536e+05,266,347
Raw,5.19472379e+05,267,347
Raw,2.97868972e+05,269,347
Raw,5.06848131e+05,270,347
Raw,3.39312038e+05,272,347
Raw,3.97945809e+05,275,347
Raw,4.26530868e+05,276,347
Raw,5.46073419e+05,277,347
Raw,6.25926735e+05,279,347
Raw,3.45392513e+05,280,347
Raw,6.18311276e+05,281,347
Raw,5.93317961e+05,282,347
Raw,5.60791063e+05,283,347
Raw,4.30670418e+05,284,347
Raw,4.67615294e+05,285,347
Raw,5.66959392e+05,286,347
Raw,4.54001428e+05,288,347
Raw,4.70463399e+05,289,347
Raw,5.21878232e+05,290,347
Raw,30852.02,290,347
Raw,7.98958356e+05,291,347
Raw,4.64965367e+05,292,347
Raw,4.43365137e+05,293,347
Raw,2.76396706e+05,294,347
Raw,3.82613053e+05,295,347
Raw,6.28678634e+05,296,347
Raw,3.07826518e+05,297,347
Raw,5.57243578e+05,298,347
Raw,4.25785198e+05,299,347
Raw,4.75955632e+05,300,347
Raw,6.80586289e+05,301,347
Raw,3.85780618e+05,303,347
Raw,2.66810243e+05,304,347
Raw,6.2460684e+05,306,347
Raw,5.36543071e+05,307,347
Raw,3.68306069e+05,309,347
Raw,4.88340295e+05,310,347
Raw,5.24377754e+05,311,347
Raw,4.48471467e+05,312,347
Raw,2.48428036e+05,313,347
Raw,4.99620265e+05,314,347
Raw,4.21529524e+05,315,347
Raw,4.08504481e+05,316,347
Raw,5.81089319e+05,317,347
Raw,5.43618188e+05,319,347
Raw,3.89818e+05,320,347
Raw,5.8256185e+05,321,347
Raw,4.54350944e+05,322,347
Raw,5.28454829e+05,324,347
Raw,4.75295841e+05,325,347
Raw,4.16598611e+05,326,347
Raw,4.80315089e+05,327,347
Raw,4.01937026e+05,328,347
Raw,4.17223993e+05,329,347
Raw,5.87521806e+05,330,347
Raw,4.10138176e+05,331,347
Raw,5.29621983e+05,332,347
Raw,6.37679075e+05,333,347
Raw,5.21595266e+05,334,347
Raw,96977.577,334,347
Raw,4.94941127e+05,335,347
Raw,4.98852631e+05,336,347
Raw,2.74560539e+05,337,347
Raw,4.07144571e+05,339,347
Raw,4.4161239e+05,340,347
Raw,4.93510297e+05,341,347
Raw,4.03802552e+05,342,347
Raw,8.86362598e+05,343,347
Raw,5.88753868e+05,344,347
Raw,4.59215328e+05,345,347
Raw,4.14905649e+05,346,347
Raw,5.10045934e+05,347,347
Raw,2.19172965e+05,349,347
Raw,3.77331594e+05,350,347
Raw,5.11382034e+05,351,347
Raw,4.59005148e+05,352,347
Raw,3.95872086e+05,353,347
Raw,6.67667529e+05,354,347
Raw,6.33547454e+05,356,347
Raw,4.60343182e+05,357,347
Raw,2.28191886e+05,360,347
Raw,4.1670669e+05,361,347
Raw,5.08250622e+05,362,347
Raw,5.10060535e+05,363,347
Raw,2.21297243e+05,364,347
Raw,5.6787767e+05,365,347
Raw,5.14432049e+05,366,347
Raw,5.82750035e+05,368,347
Raw,4.7554538e+05,369,347
Raw,4.32420589e+05,370,347
Raw,2.55233022e+05,372,347
Raw,5.50088576e+05,374,347
Raw,6.24332912e+05,375,347
Raw,5.09532588e+05,376,347
Raw,3.94621474e+05,377,347
Raw,5.97662816e+05,378,347
Raw,5.06315921e+05,379,347
Raw,4.23346059e+05,380,347
Raw,4.54556283e+05,382,347
Raw,4.35212439e+05,383,347
Raw,3.28161661e+05,384,347
Raw,4.09006227e+05,385,347
Raw,3.95421471e+05,386,347
Raw,4.86527946e+05,387,347
Raw,4.75674026e+05,389,347
Raw,5.10543818e+05,390,347
Raw,3.66944221e+05,391,347
Raw,3.91917315e+05,392,347
Raw,5.00309675e+05,393,347
Raw,5.59108181e+05,394,347
Raw,5.52037707e+05,395,347
Raw,5.46929239e+05,396,347
Raw,3.90574913e+05,397,347
Raw,3.39523823e+05,398,347
Raw,4.54683785e+05,399,347
Raw,5.60387651e+05,400,347
Raw,4.12010019e+05,401,347
Raw,3.35024153e+05,404,347
Raw,5.48813171e+05,405,347
Raw,5.98611238e+05,406,347
Raw,4.08974176e+05,407,347
Raw,5.25276992e+05,410,347
Raw,4.54064842e+05,412,347
Raw,5.86855149e+05,413,347
Raw,4.63086318e+05,414,347
Raw,4.42638078e+05,415,347
Raw,4.9989978e+05,416,347
Raw,4.76449653e+05,417,347
Raw,3.8977629e+05,418,347
Raw,3.17093908e+05,421,347
Raw,4.63310399e+05,422,347
Raw,6.03129435e+05,423,347
Raw,4.48339457e+05,424,347
Raw,5.65224504e+05,425,347
Raw,5.49005119e+05,430,347
Raw,3.19987206e+05,431,347
Raw,4.96816005e+05,432,347
Raw,5.12951776e+05,434,347
Raw,4.98675422e+05,435,347
Raw,4.15636166e+05,436,347
Raw,1.31952341e+05,436,347
Raw,3.98919296e+05,438,347
Raw,2.90910539e+05,439,347
Raw,5.66085824e+05,440,347
Raw,5.14197134e+05,442,347
Raw,4.54255079e+05,443,347
Raw,4.93877346e+05,445,347
Raw,3.76164811e+05,446,347
Raw,1.18227852e+06,447,347
Raw,3.54108943e+05,449,347
Raw,5.83568665e+05,451,347
Raw,5.14062439e+05,452,347
Raw,4.03290839e+05,453,347
Raw,2.41229545e+05,454,347
Raw,17672.965,454,347
Raw,5.08905269e+05,456,347
Raw,4.94757325e+05,457,347
Raw,4.44137171e+05,458,347
Raw,2.51002712e+05,460,347
Raw,5.64804034e+05,461,347
Raw,2.11687078e+05,462,347
Raw,5.63214075e+05,463,347
Raw,5.74487461e+05,464,347
Raw,4.27402389e+05,465,347
Raw,4.37598066e+05,466,347
Raw,4.63058624e+05,467,347
Raw,5.45370721e+05,469,347
Raw,5.66999552e+05,470,347
Raw,4.46279935e+05,471,347
Raw,2.46236198e+05,472,347
Raw,3.65164109e+05,474,347
Raw,5.91709233e+05,476,347
Raw,3.91539316e+05,478,347
Raw,4.4336808e+05,479,347
Raw,4.96226345e+05,481,347
Raw,3.72559454e+05,482,347
Raw,2.1109609e+05,483,347
Raw,6.08373533e+05,484,347
Raw,5.42098282e+05,486,347
Raw,6.06736683e+05,487,347
Raw,6.48693169e+05,488,347
Raw,4.20070026e+05,489,347
Raw,7.43799928e+05,490,347
Raw,4.34584587e+05,491,347
Raw,5.60989139e+05,492,347
Raw,4.63411628e+05,494,347
Raw,4.6138412e+05,496,347
Raw,7.46074953e+05,497,347
Raw,5.9470164e+05,498,347
Raw,4.59140751e+05,499,347
Raw,5.11841669e+05,500,347
Raw,2.57489317e+05,502,347
Raw,5.62748566e+05,503,347
Raw,5.24405577e+05,504,347
Raw,2.5378148e+05,505,347
Raw,5.21790475e+05,506,347
Raw,5.29070664e+05,507,347
Raw,3.65152474e+05,508,347
Raw,3.1279059e+05,509,347
Raw,2.98509395e+05,510,347
Raw,2.08126338e+05,511,347
Raw,5.60215915e+05,512,347
Raw,4.51845813e+05,513,347
Raw,2.27135044e+05,514,347
Raw,3.76910797e+05,515,347
Raw,4.49369349e+05,518,347
Raw,6.34858679e+05,520,347
Raw,8.02034108e+05,521,347
Raw,3.78268236e+05,522,347
Raw,4.41843202e+05,523,347
Raw,2.82504955e+05,524,347
Raw,3.53280562e+05,528,347
Raw,5.20800806e+05,529,347
Raw,2.77535983e+05,530,347
Raw,3.29627746e+05,530,347
Raw,3.91402421e+05,531,347
Raw,5.1725238e+05,532,347
Raw,4.83450314e+05,533,347
Raw,3.68827931e+05,534,347
Raw,6.01643361e+05,535,347
Raw,2.56715423e+05,537,347
Raw,4.65832799e+05,538,347
Raw,1.71618703e+05,538,347
Raw,3.60383012e+05,539,347
Raw,4.56642221e+05,540,347
Raw,5.43308847e+05,541,347
Raw,3.35284222e+05,543,347
Raw,8.51012392e+05,545,347
Raw,5.74309118e+05,546,347
Raw,1.16969602e+06,548,347
Raw,4.08828798e+05,549,347
Raw,5.59658019e+05,553,347
Raw,4.42435063e+05,554,347
Raw,6.56100716e+05,556,347
Raw,4.01132223e+05,557,347
Raw,3.33921602e+05,558,347
Raw,5.15873722e+05,560,347
Raw,6.32939261e+05,561,347
Raw,5.28698229e+05,562,347
Raw,3.99677048e+05,563,347
Raw,4.57868478e+05,564,347
Raw,2.6988686e+05,565,347
Raw,5.2672523e+05,567,347
Raw,5.20289754e+05,568,347
Raw,3.85864598e+05,569,347
Raw,4.50288322e+05,570,347
Raw,4.2159297e+05,571,347
Raw,4.54609117e+05,572,347
Raw,4.18497762e+05,573,347
Raw,5.0853447e+05,574,347
Raw,2.37816954e+05,574,347
Raw,2.12146534e+05,575,347
Raw,5.19715163e+05,576,347
Raw,6.02712701e+05,577,347
Raw,5.07301012e+05,578,347
Raw,5.09432304e+05,579,347
Raw,4.38889718e+05,580,347
Raw,4.89910381e+05,581,347
Raw,6.49002404e+05,583,347
Raw,4.87096198e+05,584,347
Raw,3.95729246e+05,585,347
Raw,4.81648205e+05,587,347
Raw,5.59558523e+05,588,347
Raw,4.65541499e+05,589,347
Raw,4.92611406e+05,590,347
Raw,5.20993821e+05,591,347
Raw,4.33119531e+05,592,347
Raw,84970.551,593,347
Raw,2.39338501e+05,593,347
Raw,4.30291732e+05,596,347
Raw,5.25112928e+05,597,347
Raw,2.89017531e+05,598,347
Raw,5.52740457e+05,599,347
Raw,3.22120922e+05,601,347
Raw,5.02550532e+05,602,347
Raw,4.94092004e+05,603,347
Raw,3.44066858e+05,604,347
Raw,3.64903423e+05,605,347
Raw,7.63914552e+05,606,347
Raw,5.80726084e+05,607,347
Raw,4.28701575e+05,608,347
Raw,4.3528269e+05,609,347
Raw,4.4529912e+05,610,347
Raw,4.87778807e+05,611,347
Raw,4.57170673e+05,612,347
Raw,4.94162592e+05,613,347
Raw,2.94226372e+05,614,347
Raw,5.35762213e+05,616,347
Raw,4.66273782e+05,617,347
Raw,2.61480071e+05,618,347
Raw,3.89170866e+05,620,347
Raw,5.25896814e+05,621,347
Raw,6.62542285e+05,622,347
Raw,2.14646645e+05,626,347
Raw,2.25279425e+05,627,347
Raw,4.48621788e+05,628,347
Raw,5.72087932e+05,631,347
Raw,5.53096908e+05,632,347
Raw,5.66266532e+05,633,347
Raw,3.92571024e+05,635,347
Raw,5.4326195e+05,636,347
Raw,3.6088403e+05,639,347
Raw,4.6650897e+05,640,347
Raw,5.30508514e+05,641,347
Raw,5.51121858e+05,642,347
Raw,5.61503481e+05,643,347
Raw,3.83936214e+05,644,347
Raw,3.79682013e+05,645,347
Raw,5.47549005e+05,647,347
Raw,5.24406251e+05,648,347
Raw,2.24824536e+05,650,347
Raw,5.73329767e+05,651,347
Raw,6.36136222e+05,653,347
Raw,2.84676414e+05,653,347
Raw,5.91591289e+05,654,347
Raw,4.6626294e+05,655,347
Raw,5.99382652e+05,656,347
Raw,3.63168502e+05,657,347
Raw,4.97695684e+05,660,347
Raw,3.41238971e+05,661,347
Raw,6.59669281e+05,662,347
Raw,5.13859147e+05,663,347
Raw,2.79940308e+05,664,347
Raw,37471.518,664,347
Raw,5.36515272e+05,665,347
Raw,4.90342564e+05,667,347
Raw,4.76402361e+05,668,347
Raw,2.20783098e+05,669,347
Raw,4.15594635e+05,670,347
Raw,5.29332295e+05,671,347
Raw,2.21648387e+05,672,347
Raw,5.79468573e+05,674,347
Raw,4.53653991e+05,675,347
Raw,5.39264554e+05,676,347
Raw,5.80574384e+05,679,347
Raw,4.4410585e+05,680,347
Raw,3.84215197e+05,681,347
Raw,5.87070875e+05,682,347
Raw,4.13167842e+05,683,347
Raw,6.52651601e+05,684,347
Raw,3.56545482e+05,685,347
Raw,1.05836118e+06,686,347
Raw,4.76561274e+05,687,347
Raw,4.20332557e+05,688,347
Raw,3.83301602e+05,689,347
Raw,1.99114877e+05,691,347
Raw,2.55116292e+05,692,347
Raw,6.11765208e+05,693,347
Raw,4.30738783e+05,694,347
Raw,4.22189688e+05,695,347
Raw,5.22057553e+05,697,347
Raw,4.79193597e+05,698,347
Raw,4.92607159e+05,702,347
Raw,5.51520258e+05,703,347
Raw,5.02944401e+05,704,347
Raw,4.44626038e+05,705,347
Raw,5.21294036e+05,706,347
Raw,4.24663923e+05,708,347
Raw,4.82513166e+05,710,347
Raw,3.93142214e+05,711,347
Raw,1.97584889e+05,712,347
Raw,3.44503378e+05,713,347
Raw,2.50140424e+05,714,347
Raw,1.62659824e+05,714,347
Raw,4.83801317e+05,715,347
Raw,4.43817352e+05,716,347
Raw,4.70724833e+05,717,347
Raw,4.51392012e+05,718,347
Raw,4.46435031e+05,719,347
Raw,8.07604162e+05,720,347
Raw,5.46704666e+05,721,347
Raw,4.68252176e+05,722,347
Raw,6.00366836e+05,724,347
Raw,4.08557814e+05,725,347
Raw,4.64044761e+05,727,347
Raw,4.31380687e+05,728,347
Raw,4.10581543e+05,729,347
Raw,5.85968813e+05,731,347
Raw,8.17337075e+05,732,347
Raw,3.52453251e+05,733,347
Raw,4.07041267e+05,734,347
Raw,4.57487763e+05,735,347
Raw,5.08221708e+05,736,347
Raw,4.32557537e+05,737,347
Raw,4.96510353e+05,738,347
Raw,5.29402497e+05,739,347
Raw,4.93711535e+05,740,347
Raw,2.76892354e+05,741,347
Raw,3.78661237e+05,742,347
Raw,4.01772764e+05,743,347
Raw,1.95812385e+05,743,347
Raw,4.6038913e+05,744,347
Raw,5.71049026e+05,747,347
Raw,1.01932417e+06,748,347
Raw,5.96896475e+05,749,347
Raw,4.21983368e+05,750,347
Raw,4.80165909e+05,751,347
Raw,4.51514064e+05,752,347
Raw,5.25040536e+05,753,347
Raw,2.33711747e+05,754,347
Raw,8.33406215e+05,755,347
Raw,6.14762901e+05,756,347
Raw,3.00782039e+05,758,347
Raw,3.1197693e+05,759,347
Raw,3.97806348e+05,760,347
Raw,5.07004384e+05,761,347
Raw,1.70786865e+05,761,347
Raw,5.44646374e+05,763,347
Raw,4.67435892e+05,764,347
Raw,4.33262997e+05,766,347
Raw,5.8270122e+05,767,347
Raw,4.60161084e+05,768,347
Raw,5.97705053e+05,769,347
Raw,4.80218613e+05,770,347
Raw,6.45761682e+05,771,347
Raw,3.80123142e+05,773,347
Raw,5.5899876e+05,774,347
Raw,4.85791949e+05,775,347
Raw,5.74127175e+05,776,347
Raw,4.19753792e+05,777,347
Raw,5.14800754e+05,778,347
Raw,6.4132369e+05,780,347
Raw,4.96463803e+05,781,347
Raw,2.37889805e+05,783,347
Raw,4.88975526e+05,784,347
Raw,4.98955071e+05,785,347
Raw,5.1820197e+05,786,347
Raw,2.09438489e+05,788,347
Raw,4.49613647e+05,790,347
Raw,4.34501964e+05,791,347
Raw,4.87178264e+05,792,347
Raw,5.68136346e+05,793,347
Raw,5.22222983e+05,794,347
Raw,4.88668297e+05,795,347
Raw,4.98171412e+05,797,347
Raw,5.0989168e+05,798,347
Raw,3.77421546e+05,800,347
Raw,5.4777767e+05,801,347
Raw,3.18436776e+05,802,347
Raw,5.14427266e+05,803,347
Raw,4.15149495e+05,804,347
Raw,5.76215784e+05,805,347
Raw,3.61196059e+05,806,347
Raw,2.47318552e+05,807,347
Raw,4.3846796e+05,808,347
Raw,6.16660457e+05,809,347
Raw,5.46757846e+05,811,347
Raw,5.49720756e+05,812,347
Raw,4.55430515e+05,813,347
Raw,5.12579947e+05,815,347
Raw,4.82397006e+05,816,347
Raw,4.41770042e+05,817,347
Raw,6.48027114e+05,818,347
Raw,1.28464633e+05,818,347
Raw,5.13369262e+05,819,347
Raw,4.60242023e+05,820,347
Raw,4.05691991e+05,821,347
Raw,3.06327461e+05,822,347
Raw,4.46629552e+05,823,347
Raw,3.93460527e+05,824,347
Raw,4.36136035e+05,825,347
Raw,3.93224036e+05,827,347
Raw,5.05766554e+05,828,347
Raw,4.52892694e+05,829,347
Raw,3.00241052e+05,832,347
Raw,4.7152971e+05,833,347
Raw,4.46777613e+05,835,347
Raw,2.67784926e+05,836,347
Raw,2.66114662e+05,839,347
Raw,4.9908101e+05,840,347
Raw,2.4322591e+05,841,347
Raw,4.77078686e+05,842,347
Raw,5.02880723e+05,843,347
Raw,2.68155117e+05,844,347
Raw,6.98862059e+05,846,347
Raw,4.46288424e+05,848,347
Raw,4.2522421e+05,849,347
Raw,4.10343853e+05,850,347
Raw,2.14311294e+05,850,347
Raw,4.76172827e+05,852,347
Raw,3.95845605e+05,853,347
Raw,3.46723269e+05,854,347
Raw,3.50702188e+05,855,347
Raw,4.73960171e+05,858,347
Raw,2.71294311e+05,859,347
Raw,4.88444265e+05,860,347
Raw,2.90103837e+05,861,347
Raw,4.48741871e+05,862,347
Raw,4.16502984e+05,863,347
Raw,5.51202498e+05,864,347
Raw,5.62498774e+05,865,347
Raw,5.13930339e+05,866,347
Raw,4.4755286e+05,867,347
Raw,4.93489752e+05,868,347
Raw,5.87397054e+05,869,347
Raw,5.06547286e+05,870,347
Raw,3.79138639e+05,871,347
Raw,5.2818913e+05,872,347
Raw,6.21497324e+05,873,347
Raw,4.58982068e+05,874,347
Raw,4.92095499e+05,875,347
Raw,4.76364337e+05,876,347
Raw,3.51388267e+05,877,347
Raw,5.03681115e+05,878,347
Raw,4.44780934e+05,879,347
Raw,3.81497868e+05,880,347
Raw,4.62382265e+05,881,347
Raw,3.89525087e+05,882,347
Raw,4.16354537e+05,883,347
Raw,4.90150135e+05,884,347
Raw,1.07355588e+05,884,347
Raw,7.4772183e+05,885,347
Raw,2.98262022e+05,886,347
Raw,5.42736587e+05,888,347
Raw,4.69389295e+05,889,347
Raw,4.98238618e+05,891,347
Raw,4.59369596e+05,894,347
Raw,5.41248114e+05,895,347
Raw,4.93395688e+05,896,347
Raw,1.97894916e+05,897,347
Raw,4.63613293e+05,898,347
Raw,1.87119088e+05,899,347
Raw,2.93601159e+05,901,347
Raw,5.32190329e+05,902,347
Raw,4.38212296e+05,903,347
Raw,5.26796014e+05,904,347
Raw,4.91466978e+05,905,347
Raw,2.02608615e+05,906,347
Raw,3.85943003e+05,907,347
Raw,4.24099039e+05,909,347
Raw,4.65720229e+05,910,347
Raw,4.70413487e+05,911,347
Raw,5.20232995e+05,912,347
Raw,5.18545261e+05,913,347
Raw,5.12945949e+05,915,347
Raw,4.82722983e+05,916,347
Raw,5.0705655e+05,918,347
Raw,4.09601286e+05,919,347
Raw,6.56230055e+05,920,347
Raw,5.52599031e+05,921,347
Raw,3.42102069e+05,924,347
Raw,2.28428604e+05,925,347
Raw,4.75637562e+05,926,347
Raw,5.25722315e+05,927,347
Raw,6.37662899e+05,931,347
Raw,4.53763181e+05,932,347
Raw,5.30599937e+05,933,347
Raw,4.3257743e+05,936,347
Raw,2.58656817e+05,937,347
Raw,4.44189323e+05,938,347
Raw,4.81111629e+05,939,347
Raw,4.78774402e+05,940,347
Raw,4.47194383e+05,941,347
Raw,2.52331271e+05,942,347
Raw,5.01435242e+05,944,347
Raw,2.21351597e+05,945,347
Raw,6.78221751e+05,946,347
Raw,4.32743084e+05,947,347
Raw,3.13932313e+05,948,347
Raw,2.70663351e+05,949,347
Raw,3.89668156e+05,950,347
Raw,2.86840718e+05,951,347
Raw,4.24086655e+05,952,347
Raw,5.08620627e+05,953,347
Raw,5.2211461e+05,955,347
Raw,5.35723264e+05,956,347
Raw,2.3545548e+05,957,347
Raw,2.72151077e+05,959,347
Raw,4.81396008e+05,962,347
Raw,5.45723953e+05,963,347
Raw,6.2972242e+05,964,347
Raw,4.23363773e+05,965,347
Raw,2.74483282e+05,966,347
Raw,5.15862367e+05,967,347
Raw,5.4897407e+05,968,347
Raw,5.76521797e+05,969,347
Raw,3.44109127e+05,970,347
Raw,5.32145602e+05,972,347
Raw,3.48439562e+05,972,347
Raw,4.37907793e+05,973,347
Raw,4.49251186e+05,974,347
Raw,4.23145387e+05,975,347
Raw,5.06318953e+05,976,347
Raw,3.68796207e+05,977,347
Raw,3.97481634e+05,979,347
Raw,7.37667268e+05,980,347
Raw,4.48295077e+05,981,347
Raw,4.47019124e+05,982,347
Raw,3.85465777e+05,983,347
Raw,5.81288201e+05,984,347
Raw,5.24341809e+05,985,347
Raw,4.98503644e+05,986,347
Raw,4.42323053e+05,987,347
Raw,3.62189802e+05,988,347
Raw,85060.229,988,347
Raw,5.67635166e+05,989,347
Raw,5.15270258e+05,990,347
Raw,5.4896515e+05,991,347
Raw,4.10640569e+05,992,347
Raw,5.47783653e+05,993,347
Raw,3.18474564e+05,994,347
Raw,4.15077641e+05,995,347
Raw,5.26042477e+05,998,347
Raw,4.62642867e+05,1000,347
Raw,5.98016588e+05,1002,347
Raw,3.52988872e+05,1003,347
Raw,5.01596108e+05,1004,347
Raw,4.92571188e+05,1005,347
Raw,4.72022869e+05,1006,347
Raw,5.68420025e+05,1007,347
Raw,6.00590684e+05,1008,347
Raw,4.68438326e+05,1009,347
Raw,3.21226236e+05,1010,347
Raw,5.86863324e+05,1012,347
Raw,4.50058596e+05,1013,347
Raw,4.01246325e+05,1015,347
Raw,3.97197288e+05,1016,347
Raw,4.95114558e+05,1017,347
Raw,5.2708584e+05,1018,347
Raw,5.02050768e+05,1021,347
Raw,8.06927862e+05,1023,347
Raw,2.34512305e+05,1023,347
Raw,4.78800581e+05,1025,347
Raw,5.75573331e+05,1026,347
Raw,5.07667766e+05,1027,347
Raw,4.98094301e+05,1029,347
Raw,6.16415702e+05,1030,347
Raw,5.55503773e+05,1031,347
Raw,4.42381673e+05,1032,347
Raw,5.18343281e+05,1033,347
Raw,4.96987559e+05,1034,347
Raw,3.90498629e+05,1035,347
Raw,4.96789595e+05,1037,347
Raw,3.36544578e+05,1037,347
Raw,5.07543917e+05,1038,347
Raw,4.22091065e+05,1039,347
Raw,6.24740383e+05,1040,347
Raw,5.09731294e+05,1041,347
Raw,5.10451343e+05,1042,347
Raw,3.50293997e+05,1043,347
Raw,4.82427062e+05,1044,347
Raw,6.8355128e+05,1046,347
Raw,9.6402674e+05,1047,347
Raw,3.75103498e+05,1049,347
Raw,2.10852127e+05,1050,347
Raw,4.16688385e+05,1053,347
Raw,5.2497916e+05,1055,347
Raw,4.06424042e+05,1056,347
Raw,3.96568421e+05,1057,347
Raw,4.48596109e+05,1058,347
Raw,7.82061739e+05,1059,347
Raw,5.39990695e+05,1061,347
Raw,7.05389149e+05,1063,347
Raw,5.84467017e+05,1064,347
Raw,3.70217078e+05,1065,347
Raw,4.73021321e+05,1066,347
Raw,5.21641689e+05,1067,347
Raw,5.50635719e+05,1068,347
Raw,5.37252522e+05,1069,347
Raw,4.72986497e+05,1070,347
Raw,7.08748955e+05,1071,347
Raw,5.58320143e+05,1072,347
Raw,7.89702838e+05,1074,347
Raw,3.94373929e+05,1076,347
Raw,2.61621366e+05,1077,347
Raw,6.96821698e+05,1078,347
Raw,4.55121232e+05,1079,347
Raw,4.71233847e+05,1080,347
Raw,3.4213915e+05,1081,347
Raw,5.16034044e+05,1082,347
Raw,2.95535219e+05,1083,347
Raw,5.60810318e+05,1084,347
Raw,5.7627342e+05,1086,347
Raw,4.2798593e+05,1087,347
Raw,4.94794894e+05,1088,347
Raw,3.81929821e+05,1089,347
Raw,3.98571807e+05,1090,347
Raw,4.67085017e+05,1091,347
Raw,5.04112891e+05,1092,347
Raw,4.75541225e+05,1094,347
Raw,3.4126594e+05,1095,347
Raw,4.13170549e+05,1097,347
Raw,4.52608348e+05,1098,347
Raw,2.73536079e+05,1099,347
Raw,8.48968547e+05,1100,347
Raw,4.4275441e+05,1101,347
Raw,54673.972,1101,347
Raw,5.27553419e+05,1102,347
Raw,6.85238669e+05,1103,347
Raw,9.92859318e+05,1104,347
Raw,4.47161838e+05,1105,347
Raw,5.62056655e+05,1106,347
Raw,4.25113268e+05,1107,347
Raw,4.96551152e+05,1108,347
Raw,2.79488185e+05,1110,347
Raw,4.8961114e+05,1111,347
Raw,6.78544633e+05,1112,347
Raw,4.8374249e+05,1113,347
Raw,5.43239176e+05,1114,347
Raw,4.35177245e+05,1115,347
Raw,4.78330756e+05,1116,347
Raw,1.23797574e+05,1116,347
Raw,3.61365941e+05,1118,347
Raw,4.16761171e+05,1120,347
Raw,4.47479936e+05,1121,347
Raw,5.68186871e+05,1122,347
Raw,4.1261425e+05,1125,347
Raw,4.50211705e+05,1126,347
Raw,4.08930854e+05,1127,347
Raw,3.17021702e+05,1130,347
Raw,4.5946742e+05,1131,347
Raw,4.45468043e+05,1132,347
Raw,5.16202231e+05,1133,347
Raw,4.9550118e+05,1134,347
Raw,5.12785788e+05,1135,347
Raw,4.19155617e+05,1136,347
Raw,6.79873383e+05,1137,347
Raw,4.43225403e+05,1139,347
Raw,5.76825501e+05,1141,347
Raw,4.27931213e+05,1142,347
Raw,4.83694686e+05,1143,347
Raw,1.36890463e+05,1143,347
Raw,4.02819099e+05,1144,347
Raw,4.85223965e+05,1149,347
Raw,4.68264693e+05,1150,347
Raw,7.96579435e+05,1152,347
Raw,4.7209037e+05,1153,347
Raw,4.19160781e+05,1154,347
Raw,4.14761268e+05,1157,347
Raw,4.66424142e+05,1159,347
Raw,6.21011892e+05,1160,347
Raw,5.24696842e+05,1162,347
Raw,3.8369598e+05,1163,347
Raw,4.81816103e+05,1164,347
Raw,4.83450052e+05,1165,347
Raw,3.99177416e+05,1166,347
Raw,4.81521645e+05,1167,347
Raw,4.6688937e+05,1168,347
Raw,4.4246575e+05,1169,347
Raw,6.19256072e+05,1170,347
Raw,1.19760692e+05,1170,347
Raw,4.67821368e+05,1171,347
Raw,3.75936496e+05,1173,347
Raw,6.02871034e+05,1174,347
Raw,6.18286668e+05,1176,347
Raw,4.40937195e+05,1177,347
Raw,1.23694194e+05,1177,347
Raw,3.36871394e+05,1178,347
Raw,6.06864056e+05,1179,347
Raw,5.4760456e+05,1180,347
Raw,4.68373352e+05,1181,347
Raw,5.23639114e+05,1182,347
Raw,4.44009189e+05,1183,347
Raw,4.16872854e+05,1184,347
Raw,4.55177272e+05,1186,347
Raw,5.62153001e+05,1187,347
Raw,4.58719404e+05,1188,347
Raw,3.84435641e+05,1189,347
Raw,4.72796943e+05,1190,347
Raw,4.53399176e+05,1191,347
Raw,5.4465999e+05,1193,347
Raw,4.78180929e+05,1194,347
Raw,3.84454365e+05,1195,347
Raw,7.75467806e+05,1196,347
Raw,4.75269154e+05,1197,347
Raw,4.21405587e+05,1198,347
Raw,5.47015172e+05,1199,347
Raw,6.02116634e+05,1200,347
Raw,2.32704707e+05,1201,347
Raw,4.05753662e+05,1202,347
Raw,5.19826832e+05,1203,347
Raw,5.11975346e+05,1204,347
Raw,5.02701222e+05,1205,347
Raw,5.58414239e+05,1206,347
Raw,5.08305723e+05,1207,347
Raw,5.08350374e+05,1208,347
Raw,4.26024151e+05,1209,347
Raw,2.24956216e+05,1210,347
Raw,5.9282774e+05,1212,347
Raw,5.91218024e+05,1214,347
Raw,4.31661227e+05,1215,347
Raw,4.0681903e+05,1216,347
Raw,4.67382046e+05,1217,347
Raw,3.83695016e+05,1218,347
Raw,1.26676195e+05,1218,347
Raw,4.5236118e+05,1219,347
Raw,7.54910478e+05,1220,347
Raw,4.66433488e+05,1221,347
Raw,4.91000027e+05,1222,347
Raw,2.13007536e+05,1224,347
Raw,4.58220532e+05,1225,347
Raw,4.16216724e+05,1226,347
Raw,5.38672169e+05,1227,347
Raw,4.56370423e+05,1228,347
Raw,3.26839145e+05,1229,347
Raw,4.38312091e+05,1230,347
Raw,4.82343378e+05,1231,347
Raw,3.68208212e+05,1232,347
Raw,2.29535866e+05,1233,347
Raw,2.84467264e+05,1234,347
Raw,5.94088074e+05,1236,347
Raw,3.74065136e+05,1237,347
Raw,4.92516654e+05,1238,347
Raw,4.27584812e+05,1241,347
Raw,5.4492826e+05,1242,347
Raw,5.48966263e+05,1243,347
Raw,4.22333697e+05,1244,347
Raw,5.43487029e+05,1245,347
Raw,3.00069755e+05,1246,347
Raw,5.226867e+05,1247,347
Raw,4.46511822e+05,1248,347
Raw,5.20826976e+05,1249,347
Raw,4.49441498e+05,1250,347
Raw,1.34642204e+05,1250,347
Raw,5.13459951e+05,1251,347
Raw,5.82585133e+05,1253,347
Raw,5.65539475e+05,1256,347
Raw,3.24859557e+05,1257,347
Raw,2.19064375e+05,1259,347
Raw,6.266575e+05,1260,347
Raw,3.79171906e+05,1261,347
Raw,8.40334647e+05,1262,347
Raw,1.33496545e+05,1262,347
Raw,2.5952047e+05,1265,347
Raw,4.68019489e+05,1266,347
Raw,4.49064184e+05,1267,347
Raw,2.97035728e+05,1268,347
Raw,3.96031672e+05,1269,347
Raw,2.5014756e+05,1270,347
Raw,4.95869609e+05,1271,347
Raw,4.19212856e+05,1272,347
Raw,6.070751e+05,1273,347
Raw,4.41456245e+05,1275,347
Raw,4.31690281e+05,1276,347
Raw,4.06651035e+05,1277,347
Raw,5.5602805e+05,1278,347
Raw,4.71377596e+05,1279,347
Raw,4.46121934e+05,1280,347
Raw,4.50813874e+05,1281,347
Raw,7.79459452e+05,1282,347
Raw,3.96675997e+05,1283,347
Raw,5.48150594e+05,1286,347
Raw,4.40090216e+05,1287,347
Raw,6.41408826e+05,1290,347
Raw,2.79150658e+05,1292,347
Raw,5.00229632e+05,1293,347
Raw,3.70115979e+05,1295,347
Raw,5.37303078e+05,1296,347
Raw,4.43808696e+05,1297,347
Raw,47783.085,1297,347
Raw,4.55984761e+05,1298,347
Raw,5.96870989e+05,1299,347
Raw,4.79415136e+05,1300,347
Raw,8.20793638e+05,1301,347
Raw,5.47052898e+05,1305,347
Raw,4.13810106e+05,1306,347
Raw,4.98455512e+05,1308,347
Raw,4.79662359e+05,1309,347
Raw,6.75364341e+05,1310,347
Raw,5.59232925e+05,1311,347
Raw,5.53081977e+05,1312,347
Raw,5.06622422e+05,1313,347
Raw,3.67457766e+05,1314,347
Raw,5.46302661e+05,1316,347
Raw,4.68869943e+05,1317,347
Raw,5.36805297e+05,1319,347
Raw,5.0018917e+05,1321,347
Raw,5.1044102e+05,1322,347
Raw,4.15230273e+05,1323,347
Raw,5.42424309e+05,1324,347
Raw,2.35607303e+05,1325,347
Raw,4.59178339e+05,1326,347
Raw,5.92410311e+05,1327,347
Raw,4.89329022e+05,1329,347
Raw,4.77280527e+05,1331,347
Raw,6.04130881e+05,1332,347
Raw,4.98327517e+05,1333,347
Raw,5.10520166e+05,1334,347
Raw,4.56537595e+05,1335,347
Raw,4.01517987e+05,1336,347
Raw,4.91331837e+05,1338,347
Raw,2.00973473e+05,1339,347
Raw,4.54031702e+05,1340,347
Raw,5.00613184e+05,1344,347
Raw,1.39094823e+05,1344,347
Raw,3.05319591e+05,1345,347
Raw,4.68342118e+05,1346,347
Raw,5.9310112e+05,1347,347
Raw,4.62753769e+05,1348,347
Raw,5.11660822e+05,1350,347
Raw,3.93654399e+05,1351,347
Raw,3.42720621e+05,1352,347
Raw,5.66273739e+05,1353,347
Raw,5.0097975e+05,1354,347
Raw,5.64513045e+05,1355,347
Raw,87016.108,1355,347
Raw,3.79638192e+05,1357,347
Raw,3.89704563e+05,1359,347
Raw,5.61194619e+05,1361,347
Raw,3.97105531e+05,1363,347
Raw,3.22382897e+05,1365,347
Raw,4.60758335e+05,1366,347
Raw,4.90363811e+05,1367,347
Raw,2.59419926e+05,1368,347
Raw,3.75863978e+05,1370,347
Raw,3.35970281e+05,1371,347
Raw,4.97595418e+05,1372,347
Raw,6.86346887e+05,1373,347
Raw,5.48593931e+05,1375,347
Raw,5.18687432e+05,1376,347
Raw,5.13379879e+05,1377,347
Raw,5.13051438e+05,1378,347
Raw,5.06066086e+05,1379,347
Raw,5.56977761e+05,1380,347
Raw,5.90146196e+05,1381,347
Raw,5.06149379e+05,1382,347
Raw,6.91481451e+05,1383,347
Raw,7.77395691e+05,1384,347
Raw,4.47592778e+05,1386,347
Raw,4.69085976e+05,1387,347
Raw,4.9908909e+05,1389,347
Raw,4.95063922e+05,1390,347
Raw,5.24390608e+05,1391,347
Raw,2.71077943e+05,1393,347
Raw,5.28900655e+05,1394,347
Raw,5.37249418e+05,1395,347
Raw,5.188954e+05,1396,347
Raw,4.388898e+05,1397,347
Raw,4.69597e+05,1398,347
Raw,4.68589208e+05,1399,347
Raw,35529.817,1399,347
Raw,2.78063536e+05,1400,347
Raw,5.27907333e+05,1401,347
Raw,5.02594849e+05,1402,347
Raw,5.52412423e+05,1403,347
Raw,2.65267794e+05,1404,347
Raw,2.90550575e+05,1406,347
Raw,4.09006252e+05,1407,347
Raw,3.26761948e+05,1408,347
Raw,3.8444674e+05,1409,347
Raw,4.71894244e+05,1410,347
Raw,5.4542508e+05,1411,347
Raw,4.25019437e+05,1412,347
Raw,1.63215484e+05,1412,347
Raw,5.1985808e+05,1413,347
Raw,5.41718136e+05,1414,347
Raw,4.29981842e+05,1415,347
Raw,5.6878476e+05,1416,347
Raw,5.55381904e+05,1417,347
Raw,5.91707458e+05,1418,347
Raw,5.07959661e+05,1419,347
Raw,4.34432475e+05,1420,347
Raw,4.99547289e+05,1421,347
Raw,5.76815601e+05,1422,347
Raw,6.04025762e+05,1423,347
Raw,2.00857957e+05,1424,347
Raw,2.57033046e+05,1425,347
Raw,5.90796318e+05,1426,347
Raw,4.0470951e+05,1428,347
Raw,6.62400859e+05,1429,347
Raw,5.2081635e+05,1430,347
Raw,4.21663629e+05,1431,347
Raw,5.55364232e+05,1432,347
Raw,4.44661531e+05,1434,347
Raw,5.39154256e+05,1435,347
Raw,4.22772482e+05,1436,347
Raw,5.05027249e+05,1438,347
Raw,3.61235732e+05,1439,347
Raw,6.6379034e+05,1441,347
Raw,5.32639033e+05,1442,347
Raw,4.34530791e+05,1443,347
Raw,2.28697651e+05,1444,347
Raw,3.31718694e+05,1445,347
Raw,4.06014818e+05,1447,347
Raw,4.33689041e+05,1448,347
Raw,2.36935495e+05,1449,347
Raw,2.10785956e+05,1450,347
Raw,5.10823178e+05,1451,347
Raw,3.41166956e+05,1453,347
Raw,5.79863441e+05,1454,347
Raw,4.95972017e+05,1456,347
Raw,1.9634359e+05,1457,347
Raw,5.03279069e+05,1458,347
Raw,5.5651843e+05,1459,347
Raw,1.41061733e+05,1459,347
Raw,3.92833928e+05,1460,347
Raw,2.54023618e+05,1461,347
Raw,4.67121135e+05,1464,347
Raw,5.13321063e+05,1465,347
Raw,4.733096e+05,1466,347
Raw,4.83200824e+05,1467,347
Raw,4.47326212e+05,1468,347
Raw,5.0254429e+05,1469,347
Raw,2.22556614e+05,1470,347
Raw,5.67059057e+05,1473,347
Raw,3.75800388e+05,1474,347
Raw,1.41146398e+05,1475,347
Raw,5.09647679e+05,1476,347
Raw,4.01574546e+05,1477,347
Raw,5.40943088e+05,1478,347
Raw,5.0205061e+05,1479,347
Raw,2.85844425e+05,1480,347
Raw,3.92886343e+05,1481,347
Raw,4.99982027e+05,1482,347
Raw,6.29008624e+05,1484,347
Raw,4.54069122e+05,1485,347
Raw,5.17004214e+05,1486,347
Raw,5.26730551e+05,1487,347
Raw,6.77485908e+05,1489,347
Raw,3.11277662e+05,1490,347
Raw,4.39084906e+05,1491,347
Raw,5.06154482e+05,1492,347
Raw,1.01948157e+06,1493,347
Raw,6.03617315e+05,1494,347
Raw,2.74984808e+05,1495,347
Raw,6.55371864e+05,1496,347
Raw,2.02739556e+05,1497,347
Raw,3.50794364e+05,1498,347
Raw,5.11442187e+05,1499,347
Raw,4.80431492e+05,1500,347
Raw,4.21561468e+05,1501,347
Raw,3.80419551e+05,1502,347
Raw,5.37349401e+05,1503,347
Raw,4.97327716e+05,1505,347
Raw,5.48202744e+05,1506,347
Raw,5.44022316e+05,1507,347
Raw,5.45904189e+05,1508,347
Raw,5.58144422e+05,1509,347
Raw,4.39618597e+05,1510,347
Raw,2.83460611e+05,1511,347
Raw,4.88244853e+05,1514,347
Raw,5.02575635e+05,1515,347
Raw,5.24506092e+05,1516,347
Raw,5.00534586e+05,1517,347
Raw,2.20971599e+05,1518,347
Raw,5.68295068e+05,1519,347
Raw,4.14093501e+05,1520,347
Raw,7.04943149e+05,1521,347
Raw,3.41621437e+05,1523,347
Raw,4.65888893e+05,1524,347
Raw,5.45073594e+05,1525,347
Raw,6.35907344e+05,1526,347
Raw,2.33200149e+05,1528,347
Raw,3.63002495e+05,1529,347
Raw,4.76171723e+05,1530,347
Raw,8.6238907e+05,1531,347
Raw,5.44350948e+05,1533,347
Raw,5.67980798e+05,1534,347
Raw,5.24094649e+05,1535,347
Raw,5.69312263e+05,1536,347
Raw,5.37558044e+05,1537,347
Raw,5.34075837e+05,1538,347
Raw,2.74502817e+05,1539,347
Raw,5.14878014e+05,1540,347
Raw,6.14343165e+05,1541,347
Raw,4.82684495e+05,1542,347
Raw,4.29516242e+05,1543,347
Raw,5.01503045e+05,1544,347
Raw,3.00406896e+05,1545,347
Raw,4.33169526e+05,1547,347
Raw,4.13999773e+05,1548,347
Raw,4.98076998e+05,1549,347
Raw,3.1618242e+05,1551,347
Raw,3.27792748e+05,1553,347
Raw,4.16979616e+05,1554,347
Raw,4.47589697e+05,1555,347
Raw,4.31847619e+05,1556,347
Raw,5.11292001e+05,1557,347
Raw,5.05688447e+05,1558,347
Raw,3.83891141e+05,1559,347
Raw,4.32070962e+05,1560,347
Raw,4.57939815e+05,1561,347
Raw,2.08271015e+05,1563,347
Raw,5.41955826e+05,1564,347
Raw,5.63185606e+05,1565,347
Raw,3.43362906e+05,1566,347
Raw,3.64670933e+05,1567,347
Raw,5.47861747e+05,1569,347
Raw,5.88573925e+05,1570,347
Raw,3.55677282e+05,1571,347
Raw,5.08723777e+05,1572,347
Raw,5.31030919e+05,1573,347
Raw,3.75919753e+05,1574,347
Raw,5.61833051e+05,1575,347
Raw,6.74783208e+05,1576,347
Raw,2.38403272e+05,1577,347
Raw,5.07642744e+05,1578,347
Raw,2.26719497e+05,1579,347
Raw,5.21072921e+05,1580,347
Raw,4.72899607e+05,1581,347
Raw,6.12480864e+05,1582,347
Raw,3.33332669e+05,1583,347
Raw,3.68968273e+05,1584,347
Raw,4.26943963e+05,1585,347
Raw,5.27035173e+05,1586,347
Raw,6.15900673e+05,1588,347
Raw,4.92624193e+05,1589,347
Raw,4.59038474e+05,1590,347
Raw,3.77492072e+05,1591,347
Raw,3.74257563e+05,1592,347
Raw,2.30989072e+05,1593,347
Raw,5.51967547e+05,1594,347
Raw,2.79633755e+05,1596,347
Raw,4.42600989e+05,1597,347
Raw,4.25582118e+05,1599,347
Raw,7.57433109e+05,1601,347
Raw,4.29659216e+05,1602,347
Raw,4.76214757e+05,1604,347
Raw,5.1722672e+05,1605,347
Raw,4.36368564e+05,1607,347
Raw,4.15734392e+05,1608,347
Raw,3.67006846e+05,1609,347
Raw,5.87937062e+05,1610,347
Raw,2.06891808e+05,1611,347
Raw,5.03839853e+05,1612,347
Raw,4.73321727e+05,1613,347
Raw,5.57661842e+05,1615,347
Raw,4.12197671e+05,1616,347
Raw,5.18702532e+05,1617,347
Raw,2.53853546e+05,1618,347
Raw,5.54279405e+05,1619,347
Raw,5.53237732e+05,1620,347
Raw,4.44354902e+05,1621,347
Raw,4.10186895e+05,1622,347
Raw,3.38551783e+05,1623,347
Raw,4.79924448e+05,1625,347
Raw,2.36376301e+05,1626,347
Raw,2.59834907e+05,1627,347
Raw,4.56920252e+05,1628,347
Raw,6.16462367e+05,1629,347
Raw,4.7721852e+05,1630,347
Raw,2.19805789e+05,1631,347
Raw,5.33427813e+05,1632,347
Raw,3.48008899e+05,1633,347
Raw,4.48045791e+05,1634,347
Raw,2.55075526e+05,1635,347
Raw,5.15843814e+05,1636,347
Raw,5.18968494e+05,1637,347
Raw,6.58051343e+05,1638,347
Raw,5.05258102e+05,1639,347
Raw,4.99608131e+05,1640,347
Raw,3.90432927e+05,1641,347
Raw,4.29440273e+05,1643,347
Raw,1.55311933e+05,1643,347
Raw,4.07448557e+05,1644,347
Raw,4.57835841e+05,1645,347
Raw,1.43656524e+05,1645,347
Raw,5.2897616e+05,1646,347
Raw,4.05875853e+05,1647,347
Raw,1.93472878e+05,1648,347
Raw,2.60997181e+05,1649,347
Raw,5.18146549e+05,1650,347
Raw,6.67186853e+05,1651,347
Raw,4.9791062e+05,1652,347
Raw,5.33919494e+05,1653,347
Raw,6.30245416e+05,1656,347
Raw,4.80369398e+05,1657,347
Raw,2.58838475e+05,1659,347
Raw,4.77470781e+05,1660,347
Raw,5.30971909e+05,1661,347
Raw,3.28161126e+05,1662,347
Raw,5.28253356e+05,1663,347
Raw,4.36483586e+05,1664,347
Raw,5.07143079e+05,1665,347
Raw,5.069192e+05,1666,347
Raw,6.7654496e+05,1667,347
Raw,2.45886395e+05,1668,347
Raw,4.30952681e+05,1669,347
Raw,9078.0908,1669,347
Raw,2.55409562e+05,1670,347
Raw,5.06900773e+05,1671,347
Raw,4.59886506e+05,1672,347
Raw,4.86468792e+05,1673,347
Raw,5.56777271e+05,1674,347
Raw,6.43582445e+05,1675,347
Raw,3.57966128e+05,1677,347
Raw,6.66572064e+05,1679,347
Raw,4.9875996e+05,1680,347
Raw,3.60118899e+05,1681,347
Raw,4.69531128e+05,1682,347
Raw,4.82253189e+05,1683,347
Raw,3.45163184e+05,1686,347
Raw,4.89810308e+05,1687,347
Raw,4.70012417e+05,1688,347
Raw,5.65745103e+05,1689,347
Raw,5.21656125e+05,1691,347
Raw,2.33248512e+05,1692,347
Raw,3.37693006e+05,1693,347
Raw,3.76410927e+05,1694,347
Raw,6.48871138e+05,1695,347
Raw,3.6379944e+05,1698,347
Raw,4.82307845e+05,1699,347
Raw,4.79248301e+05,1700,347
Raw,4.43222563e+05,1701,347
Raw,2.5936328e+05,1702,347
Raw,4.84137585e+05,1703,347
Raw,5.16621383e+05,1704,347
Raw,4.29864264e+05,1705,347
Raw,5.01499662e+05,1706,347
Raw,5.65430446e+05,1707,347
Raw,4.00451582e+05,1708,347
Raw,4.97143617e+05,1709,347
Raw,4.67680097e+05,1710,347
Raw,4.69531433e+05,1711,347
Raw,2.11590589e+05,1713,347
Raw,5.13140458e+05,1714,347
Raw,4.08652332e+05,1715,347
Raw,2.82617752e+05,1716,347
Raw,6.16162169e+05,1717,347
Raw,1.82227313e+05,1717,347
Raw,2.45966053e+05,1718,347
Raw,26432.996,1718,347
Raw,5.21062441e+05,1719,347
Raw,5.61247682e+05,1720,347
Raw,4.95501018e+05,1722,347
Raw,4.54349976e+05,1723,347
Raw,2.72880666e+05,1724,347
Raw,4.38446753e+05,1726,347
Raw,4.10249006e+05,1727,347
Raw,4.58755308e+05,1729,347
Raw,3.24701926e+05,1730,347
Raw,3.74232008e+05,1732,347
Raw,4.48876224e+05,1733,347
Raw,4.80408178e+05,1734,347
Raw,4.31279742e+05,1736,347
Raw,7.11547376e+05,1739,347
Raw,2.35210734e+05,1740,347
Raw,2.83656806e+05,1742,347
Raw,5.73957223e+05,1743,347
Raw,5.54023807e+05,1744,347
Raw,3.48793365e+05,1745,347
Raw,5.77538789e+05,1746,347
Raw,4.86067879e+05,1747,347
Raw,4.91633593e+05,1748,347
Raw,4.87597696e+05,1750,347
Raw,2.59986966e+05,1751,347
Raw,2.21697517e+05,1752,347
Raw,4.41267687e+05,1754,347
Raw,5.44451503e+05,1755,347
Raw,4.73167775e+05,1756,347
Raw,5.53322201e+05,1757,347
Raw,5.70486864e+05,1758,347
Raw,4.83985784e+05,1759,347
Raw,5.13035161e+05,1760,347
Raw,4.10256168e+05,1761,347
Raw,4.86207994e+05,1762,347
Raw,4.59940044e+05,1763,347
Raw,5.35593525e+05,1764,347
Raw,4.90673868e+05,1765,347
Raw,4.55448847e+05,1766,347
Raw,4.02636772e+05,1767,347
Raw,5.79854004e+05,1768,347
Raw,5.5439857e+05,1769,347
Raw,5.78256033e+05,1770,347
Raw,5.07889522e+05,1771,347
Raw,5.7738639e+05,1772,347
Raw,4.56411373e+05,1773,347
Raw,4.72344217e+05,1774,347
Raw,8.37986733e+05,1775,347
Raw,5.15669422e+05,1776,347
Raw,1.58367107e+05,1776,347
Raw,2.26071385e+05,1777,347
Raw,5.04371507e+05,1779,347
Raw,4.51937989e+05,1780,347
Raw,8.52187441e+05,1781,347
Raw,4.94681165e+05,1782,347
Raw,4.97920525e+05,1783,347
Raw,5.89865928e+05,1784,347
Raw,2.56932736e+05,1785,347
Raw,5.60263502e+05,1786,347
Raw,4.44140203e+05,1787,347
Raw,5.58417629e+05,1788,347
Raw,4.67380837e+05,1790,347
Raw,5.22469781e+05,1792,347
Raw,2.64830984e+05,1794,347
Raw,7.62428198e+05,1795,347
Raw,4.3887308e+05,1796,347
Raw,4.92428567e+05,1797,347
Raw,5.44749168e+05,1798,347
Raw,7.34029495e+05,1799,347
Raw,4.76007466e+05,1800,347
Raw,2.56346116e+05,1802,347
Raw,5.56634098e+05,1803,347
Raw,4.33636027e+05,1805,347
Raw,4.84817043e+05,1806,347
Raw,1.88549323e+05,1807,347
Raw,4.67878792e+05,1809,347
Raw,5.49735412e+05,1810,347
Raw,5.25562348e+05,1811,347
Raw,8.42388664e+05,1812,347
Raw,5.21123366e+05,1813,347
Raw,5.13604843e+05,1814,347
Raw,4.95809751e+05,1816,347
Raw,4.79968811e+05,1817,347
Raw,4.76858664e+05,1818,347
Raw,5.67102062e+05,1820,347
Raw,4.45915252e+05,1821,347
Raw,4.90715334e+05,1822,347
Raw,2.23121021e+05,1824,347
Raw,5.56737628e+05,1825,347
Raw,3.96139045e+05,1826,347
Raw,5.38173655e+05,1827,347
Raw,4.6652353e+05,1828,347
Raw,6.50372838e+05,1829,347
Raw,2.64049994e+05,1830,347
Raw,5.62732126e+05,1831,347
Raw,4.78818131e+05,1832,347
Raw,4.80345093e+05,1836,347
Raw,4.80801809e+05,1837,347
Raw,7.05828144e+05,1838,347
Raw,4.91907824e+05,1840,347
Raw,5.3750011e+05,1841,347
Raw,4.84875089e+05,1842,347
Raw,2.39865117e+05,1843,347
Raw,2.65977569e+05,1844,347
Raw,2.3920475e+05,1845,347
Raw,3.02472756e+05,1846,347
Raw,2.65464765e+05,1847,347
Raw,6.18023991e+05,1848,347
Raw,5.47843609e+05,1850,347
Raw,3.00500117e+05,1851,347
Raw,5.27351951e+05,1852,347
Raw,73593.52,1852,347
Raw,5.5776901e+05,1853,347
Raw,6.57480425e+05,1855,347
Raw,4.97538833e+05,1856,347
Raw,3.0259344e+05,1857,347
Raw,3.04671856e+05,1859,347
Raw,3.40077497e+05,1860,347
Raw,4.64606112e+05,1861,347
Raw,5.29095823e+05,1863,347
Raw,4.82253985e+05,1864,347
Raw,4.51961639e+05,1866,347
Raw,4.58821483e+05,1867,347
Raw,5.5141725e+05,1869,347
Raw,5.11296095e+05,1870,347
Raw,4.18322163e+05,1871,347
Raw,2.70777239e+05,1872,347
Raw,2.37006603e+05,1874,347
Raw,5.15154195e+05,1875,347
Raw,2.84362059e+05,1876,347
Raw,5.55811825e+05,1878,347
Raw,2.28046636e+05,1880,347
Raw,3.92247793e+05,1881,347
Raw,4.30816221e+05,1882,347
Raw,5.63991562e+05,1884,347
Raw,4.26214833e+05,1885,347
Raw,3.99115003e+05,1887,347
Raw,5.12567042e+05,1888,347
Raw,5.51114353e+05,1890,347
Raw,4.00239241e+05,1891,347
Raw,4.18009811e+05,1892,347
Raw,5.12611273e+05,1895,347
Raw,4.61858759e+05,1897,347
Raw,3.89899767e+05,1898,347
Raw,4.5217199e+05,1899,347
Raw,1.97811799e+05,1900,347
Raw,4.77318004e+05,1902,347
Raw,4.7984742e+05,1903,347
Raw,4.42404913e+05,1904,347
Raw,2.72713188e+05,1905,347
Raw,5.72190919e+05,1906,347
Raw,5.34735924e+05,1907,347
Raw,1.357756e+05,1907,347
Raw,4.09734211e+05,1908,347
Raw,3.9018961e+05,1909,347
Raw,4.29143333e+05,1910,347
Raw,4.75002204e+05,1911,347
Raw,4.83094598e+05,1913,347
Raw,1.19779591e+05,1913,347
Raw,5.16059334e+05,1915,347
Raw,4.61922052e+05,1916,347
Raw,4.49574588e+05,1917,347
Raw,5.96967392e+05,1919,347
Raw,5.49175624e+05,1920,347
Raw,5.5262035e+05,1921,347
Raw,5.88735739e+05,1922,347
Raw,2.46963329e+05,1923,347
Raw,1.81389245e+05,1923,347
Raw,4.58985957e+05,1925,347
Raw,2.5171865e+05,1927,347
Raw,2.66604726e+05,1928,347
Raw,6.12883134e+05,1929,347
Raw,4.76900156e+05,1930,347
Raw,5.54325828e+05,1931,347
Raw,2.69851259e+05,1932,347
Raw,5.90323047e+05,1933,347
Raw,5.32109763e+05,1934,347
Raw,4.85661309e+05,1935,347
Raw,4.61948619e+05,1936,347
Raw,5.14878675e+05,1937,347
Raw,5.75043932e+05,1938,347
Raw,2.72165042e+05,1939,347
Raw,6.88041894e+05,1940,347
Raw,5.44069207e+05,1941,347
Raw,1.04010699e+06,1942,347
Raw,5.41772335e+05,1943,347
Raw,4.33620225e+05,1946,347
Raw,4.74557678e+05,1947,347
Raw,4.52998512e+05,1948,347
Raw,5.53273387e+05,1949,347
Raw,3.85276148e+05,1950,347
Raw,4.55233662e+05,1951,347
Raw,5.65614374e+05,1952,347
Raw,5.47178387e+05,1953,347
Raw,4.59908019e+05,1954,347
Raw,4.61634719e+05,1955,347
Raw,2.46311885e+05,1956,347
Raw,3.85740097e+05,1957,347
Raw,2.48844994e+05,1959,347
Raw,4.4416763e+05,1960,347
Raw,5.45818663e+05,1961,347
Raw,5.04467655e+05,1962,347
Raw,4.71686843e+05,1963,347
Raw,5.59983583e+05,1964,347
Raw,4.62475233e+05,1965,347
Raw,5.0951428e+05,1966,347
Raw,5.09160945e+05,1967,347
Raw,4.11912339e+05,1968,347
Raw,4.6927179e+05,1969,347
Raw,4.6112296e+05,1970,347
Raw,2.71946574e+05,1972,347
Raw,5.0070413e+05,1973,347
Raw,5.25012693e+05,1976,347
Raw,6.26328483e+05,1977,347
Raw,5.58220114e+05,1980,347
Raw,3.79337918e+05,1981,347
Raw,5.52082149e+05,1982,347
Raw,4.59201334e+05,1983,347
Raw,4.27500326e+05,1984,347
Raw,4.65286389e+05,1986,347
Raw,6.88511302e+05,1987,347
Raw,5.26087858e+05,1988,347
Raw,5.39875477e+05,1989,347
Raw,4.52218647e+05,1990,347
Raw,4.6120454e+05,1991,347
Raw,6.15708745e+05,1993,347
Raw,5.67599342e+05,1995,347
Raw,3.06877254e+05,1996,347
Raw,2.84132785e+05,1996,347
Raw,4.3061933e+05,1997,347
Raw,5.49260158e+05,1998,347
Raw,3.90510895e+05,2000,347
Raw,5.13558894e+05,2003,347
Raw,5.58309944e+05,2004,347
Raw,3.27834931e+05,2005,347
Raw,5.09379217e+05,2006,347
Raw,3.08225529e+05,2007,347
Raw,2.65984209e+05,2008,347
Raw,3.59291363e+05,2009,347
Raw,5.12616805e+05,2010,347
Raw,2.46225034e+05,2011,347
Raw,5.22712637e+05,2012,347
Raw,5.12220582e+05,2013,347
Raw,4.53303616e+05,2014,347
Raw,4.02567597e+05,2015,347
Raw,1.5292051e+05,2015,347
Raw,4.14808083e+05,2016,347
Raw,6.14460248e+05,2017,347
Raw,3.71226552e+05,2018,347
Raw,5.23312426e+05,2019,347
Raw,4.09682446e+05,2020,347
Raw,1.2997705e+06,2021,347
Raw,2.83526562e+05,2022,347
Raw,5.26952462e+05,2025,347
Raw,4.09761635e+05,2026,347
Raw,5.22157436e+05,2027,347
Raw,4.97828329e+05,2028,347
Raw,6.83109938e+05,2030,347
Raw,4.58811226e+05,2031,347
Raw,5.34720821e+05,2033,347
Raw,4.54530748e+05,2034,347
Raw,2.52463073e+05,2035,347
Raw,4.86897864e+05,2036,347
Raw,4.31695721e+05,2037,347
Raw,3.53049964e+05,2039,347
Raw,3.4897722e+05,2040,347
Raw,4.77734161e+05,2041,347
Raw,4.36738816e+05,2042,347
Raw,5.08271448e+05,2044,347
Raw,4.3935172e+05,2046,347
Raw,5.43829999e+05,2047,347
Raw,4.58558784e+05,2047,347
Raw,5.10512853e+05,2048,347
Raw,4.19622751e+05,2049,347
Raw,5.26660364e+05,2050,347
Raw,5.36474498e+05,2051,347
Raw,5.53574659e+05,2052,347
Raw,2.28346582e+05,2053,347
Raw,5.37582122e+05,2054,347
Raw,2.85519982e+05,2055,347
Raw,5.47988208e+05,2056,347
Raw,3.76764666e+05,2058,347
Raw,5.78739007e+05,2059,347
Raw,2.8625831e+05,2061,347
Raw,5.86070489e+05,2062,347
Raw,4.6417362e+05,2064,347
Raw,4.55872863e+05,2065,347
Raw,5.0199299e+05,2066,347
Raw,3.99528119e+05,2067,347
Raw,4.5129575e+05,2068,347
Raw,6.22436154e+05,2069,347
Raw,3.19022496e+05,2070,347
Raw,4.45399146e+05,2071,347
Raw,4.36216488e+05,2072,347
Raw,2.20896857e+05,2073,347
Raw,5.02804236e+05,2075,347
Raw,5.0277396e+05,2076,347
Raw,2.92579633e+05,2079,347
Raw,5.3829099e+05,2080,347
Raw,4.59930705e+05,2081,347
Raw,6.27465111e+05,2082,347
Raw,3.65810824e+05,2083,347
Raw,4.58849914e+05,2086,347
Raw,5.46176674e+05,2087,347
Raw,2.95626518e+05,2088,347
Raw,5.1172604e+05,2089,347
Raw,5.37674564e+05,2091,347
Raw,4.58450269e+05,2093,347
Raw,4.23765868e+05,2094,347
Raw,2.70573591e+05,2095,347
Raw,4.0076656e+05,2096,347
Raw,5.69261435e+05,2097,347
Raw,4.76833563e+05,2098,347
Raw,4.64138489e+05,2099,347
Raw,3.38129229e+05,2100,347
Raw,4.78638569e+05,2101,347
Raw,5.07137592e+05,2102,347
Raw,7.16548405e+05,2103,347
Raw,4.76518898e+05,2104,347
Raw,5.1185365e+05,2105,347
Raw,5.11145107e+05,2106,347
Raw,5.20363617e+05,2107,347
Raw,4.98858056e+05,2108,347
Raw,3.39064222e+05,2109,347
Raw,2.68511689e+05,2110,347
Raw,3.23085588e+05,2111,347
Raw,5.59482321e+05,2112,347
Raw,6.34894708e+05,2113,347
Raw,5.42326411e+05,2114,347
Raw,4.63524539e+05,2115,347
Raw,2.79306813e+05,2116,347
Raw,6.58781991e+05,2118,347
Raw,4.68201103e+05,2119,347
Raw,2.21562393e+05,2120,347
Raw,3.49047556e+05,2121,347
Raw,4.07316496e+05,2122,347
Raw,4.36260497e+05,2124,347
Raw,4.54150147e+05,2125,347
Raw,3.56871924e+05,2126,347
Raw,4.59430486e+05,2128,347
Raw,6.13320856e+05,2129,347
Raw,2.93966975e+05,2131,347
Raw,4.20294978e+05,2132,347
Raw,5.11189767e+05,2133,347
Raw,4.18549143e+05,2134,347
Raw,3.41829378e+05,2135,347
Raw,6.15159673e+05,2137,347
Raw,5.62833538e+05,2139,347
Raw,4.88998706e+05,2140,347
Raw,5.28953871e+05,2141,347
Raw,5.50508516e+05,2143,347
Raw,8.49857429e+05,2144,347
Raw,1.77036109e+05,2144,347
Raw,4.84807839e+05,2147,347
Raw,3.73429156e+05,2149,347
Raw,2.80117226e+05,2151,347
Raw,5.85955238e+05,2153,347
Raw,9.89221075e+05,2154,347
Raw,4.43546399e+05,2155,347
Raw,2.79886586e+05,2157,347
Raw,3.60888119e+05,2158,347
Raw,4.7995472e+05,2159,347
Raw,6.30095053e+05,2160,347
Raw,4.65830746e+05,2162,347
Raw,2.84373742e+05,2163,347
Raw,6.33784314e+05,2165,347
Raw,4.21553615e+05,2166,347
Raw,4.08599138e+05,2167,347
Raw,8.06194845e+05,2168,347
Raw,5.57562884e+05,2169,347
Raw,6.08330328e+05,2171,347
Raw,4.89786657e+05,2172,347
Raw,4.86355338e+05,2173,347
Raw,5.38536054e+05,2174,347
Raw,4.96442112e+05,2175,347
Raw,4.69779912e+05,2176,347
Raw,2.89640524e+05,2177,347
Raw,3.13186296e+05,2178,347
Raw,4.2619681e+05,2179,347
Raw,2.51482869e+05,2180,347
Raw,5.12380613e+05,2182,347
Raw,4.95820101e+05,2183,347
Raw,4.56815781e+05,2184,347
Raw,5.5243037e+05,2185,347
Raw,4.26832534e+05,2186,347
Raw,1.74256331e+05,2186,347
Raw,5.31463871e+05,2187,347
Raw,4.3378768e+05,2188,347
Raw,5.94408567e+05,2190,347
Raw,5.48049728e+05,2191,347
Raw,2.49077284e+05,2192,347
Raw,5.19810044e+05,2193,347
Raw,4.48269082e+05,2194,347
Raw,4.76590576e+05,2195,347
Raw,6.01712484e+05,2196,347
Raw,3.85105796e+05,2197,347
Raw,64652.845,2197,347
Raw,5.01970855e+05,2198,347
Raw,4.35458501e+05,2199,347
Raw,4.22989598e+05,2200,347
Raw,4.62890211e+05,2201,347
Raw,2.79471437e+05,2202,347
Raw,4.19651714e+05,2203,347
Raw,5.81034664e+05,2204,347
Raw,4.12928957e+05,2205,347
Raw,4.90225485e+05,2206,347
Raw,1.42477082e+05,2206,347
Raw,3.83953116e+05,2208,347
Raw,5.25011661e+05,2209,347
Raw,4.96831858e+05,2210,347
Raw,5.55654253e+05,2211,347
Raw,9.03284758e+05,2212,347
Raw,5.07643546e+05,2213,347
Raw,5.63041878e+05,2214,347
Raw,4.65519266e+05,2215,347
Raw,2.52485756e+05,2217,347
Raw,4.97807922e+05,2218,347
Raw,4.51682226e+05,2223,347
Raw,3.9165273e+05,2225,347
Raw,5.52497745e+05,2226,347
Raw,4.00029763e+05,2227,347
Raw,2.97342998e+05,2229,347
Raw,3.36730511e+05,2230,347
Raw,50108.314,2230,347
Raw,3.93205575e+05,2231,347
Raw,5.19011833e+05,2234,347
Raw,4.35887097e+05,2235,347
Raw,6.33763367e+05,2236,347
Raw,2.31950698e+05,2237,347
Raw,2.02495271e+05,2237,347
Raw,2.36302572e+05,2238,347
Raw,5.76740084e+05,2239,347
Raw,6.08671148e+05,2240,347
Raw,2.76434921e+05,2241,347
Raw,2.07610508e+05,2242,347
Raw,5.13972015e+05,2244,347
Raw,4.19065771e+05,2245,347
Raw,4.44524573e+05,2246,347
Raw,5.17467903e+05,2247,347
Raw,4.2502473e+05,2248,347
Raw,5.44077057e+05,2252,347
Raw,3.80326038e+05,2253,347
Raw,4.29063666e+05,2254,347
Raw,5.84492232e+05,2256,347
Raw,4.62663734e+05,2258,347
Raw,5.62817445e+05,2259,347
Raw,5.85269944e+05,2260,347
Raw,5.44061067e+05,2261,347
Raw,5.53157697e+05,2262,347
Raw,3.34027782e+05,2263,347
Raw,3.95531343e+05,2265,347
Raw,5.06420194e+05,2266,347
Raw,2.12301905e+05,2267,347
Raw,4.5603933e+05,2268,347
Raw,4.27424059e+05,2269,347
Raw,5.36267029e+05,2270,347
Raw,4.24457733e+05,2271,347
Raw,4.87969635e+05,2273,347
Raw,5.42477389e+05,2274,347
Raw,4.71514479e+05,2275,347
Raw,3.79781404e+05,2276,347
Raw,5.40621936e+05,2277,347
Raw,4.69846316e+05,2278,347
Raw,1.83534615e+05,2278,347
Raw,4.87490374e+05,2280,347
Raw,8.82781972e+05,2281,347
Raw,2.81992758e+05,2282,347
Raw,5.09428532e+05,2283,347
Raw,4.59999117e+05,2284,347
Raw,3.0668253e+05,2285,347
Raw,2.36986468e+05,2286,347
Raw,6.48348109e+05,2287,347
Raw,3.04669568e+05,2288,347
Raw,4.09442287e+05,2289,347
Raw,5.17606065e+05,2290,347
Raw,4.6549104e+05,2291,347
Raw,1.72174474e+05,2291,347
Raw,5.99797186e+05,2292,347
Raw,4.66548258e+05,2293,347
Raw,5.40817631e+05,2294,347
Raw,5.19847842e+05,2296,347
Raw,4.20515075e+05,2297,347
Raw,5.79313593e+05,2298,347
Raw,2.72411775e+05,2299,347
Raw,5.23724972e+05,2300,347
Raw,4.12172515e+05,2301,347
Raw,5.62290905e+05,2302,347
Raw,5.31406031e+05,2303,347
Raw,3.96970321e+05,2304,347
Raw,2.7920644e+05,2306,347
Raw,6.30263105e+05,2307,347
Raw,5.14819419e+05,2308,347
Raw,4.6213044e+05,2309,347
Raw,5.62837368e+05,2310,347
Raw,2.65080308e+05,2311,347
Raw,5.3724178e+05,2312,347
Raw,4.66100106e+05,2313,347
Raw,7.5997544e+05,2314,347
Raw,5.50794491e+05,2315,347
Raw,2.33396977e+05,2316,347
Raw,4.68010384e+05,2317,347
Raw,3.10083261e+05,2318,347
Raw,5.08413212e+05,2320,347
Raw,78349.417,2320,347
Raw,4.56154628e+05,2321,347
Raw,2.45438008e+05,2322,347
Raw,5.15275618e+05,2323,347
Raw,3.97497875e+05,2324,347
Raw,5.59517712e+05,2326,347
Raw,5.38141702e+05,2327,347
Raw,4.8931272e+05,2328,347
Raw,5.1332617e+05,2329,347
Raw,5.56208541e+05,2330,347
Raw,6.98148814e+05,2331,347
Raw,2.73174755e+05,2332,347
Raw,6.41429194e+05,2333,347
Raw,6.17484962e+05,2334,347
Raw,5.41704108e+05,2338,347
Raw,4.70210197e+05,2339,347
Raw,5.29852382e+05,2341,347
Raw,2.74864184e+05,2342,347
Raw,5.71526631e+05,2343,347
Raw,1.30731626e+05,2343,347
Raw,3.28386681e+05,2345,347
Raw,4.66371368e+05,2347,347
Raw,4.31425715e+05,2348,347
Raw,5.82022202e+05,2349,347
Raw,5.96292076e+05,2350,347
Raw,5.17345145e+05,2352,347
Raw,4.87308505e+05,2353,347
Raw,5.33732674e+05,2355,347
Raw,5.03148012e+05,2356,347
Raw,2.62514755e+05,2357,347
Raw,5.08628891e+05,2358,347
Raw,6.04427803e+05,2359,347
Raw,4.79633441e+05,2360,347
Raw,2.74193151e+05,2361,347
Raw,6206.924,2361,347
Raw,3.80174475e+05,2362,347
Raw,4.645948e+05,2363,347
Raw,4.89281186e+05,2364,347
Raw,6.65834187e+05,2365,347
Raw,2.39016693e+05,2366,347
Raw,5.02592299e+05,2367,347
Raw,4.21227621e+05,2368,347
Raw,4.98816493e+05,2369,347
Raw,66907.872,2369,347
Raw,4.43910704e+05,2370,347
Raw,2.43781097e+05,2371,347
Raw,5.84413028e+05,2372,347
Raw,5.58261532e+05,2374,347
Raw,4.57420789e+05,2375,347
Raw,2.41845181e+05,2376,347
Raw,5.39671107e+05,2377,347
Raw,5.20269828e+05,2378,347
Raw,2.98935471e+05,2380,347
Raw,1.65836271e+05,2380,347
Raw,6.00681072e+05,2381,347
Raw,1.99600133e+05,2381,347
Raw,4.36361672e+05,2382,347
Raw,2.96592046e+05,2383,347
Raw,6.52266713e+05,2384,347
Raw,4.57208824e+05,2385,347
Raw,6.32838621e+05,2386,347
Raw,5.1322908e+05,2387,347
Raw,2.1726597e+05,2388,347
Raw,3.6522657e+05,2389,347
Raw,6.12575525e+05,2390,347
Raw,4.5891019e+05,2391,347
Raw,1.13904784e+05,2391,347
Raw,3.93902441e+05,2392,347
Raw,4.88556742e+05,2393,347
Raw,4.90797098e+05,2394,347
Raw,2.88649659e+05,2395,347
Raw,2.62379308e+05,2396,347
Raw,2.56293077e+05,2397,347
Raw,2.75385842e+05,2398,347
Raw,4.33162086e+05,2399,347
Raw,5.44381824e+05,2401,347
Raw,2.56902116e+05,2402,347
Raw,3.1110462e+05,2403,347
Raw,5.28235819e+05,2405,347
Raw,2.64890049e+05,2407,347
Raw,5.23647499e+05,2408,347
Raw,5.55086546e+05,2409,347
Raw,1.95472421e+05,2409,347
Raw,2.07562508e+05,2410,347
Raw,4.44684808e+05,2411,347
Raw,5.44834307e+05,2412,347
Raw,1.01554152e+06,2414,347
Raw,4.47473229e+05,2415,347
Raw,5.90381374e+05,2416,347
Raw,4.97507214e+05,2419,347
Raw,4.0106327e+05,2421,347
Raw,6.04241313e+05,2422,347
Raw,4.60235213e+05,2423,347
Raw,5.19878464e+05,2424,347
Raw,3.4453475e+05,2425,347
Raw,5.61634874e+05,2426,347
Raw,4.01057109e+05,2428,347
Raw,5.6563424e+05,2429,347
Raw,7.05998812e+05,2430,347
Raw,8.43501819e+05,2431,347
Raw,4.86774032e+05,2432,347
Raw,5.72813645e+05,2433,347
Raw,5.34962014e+05,2435,347
Raw,5.83890704e+05,2436,347
Raw,4.48934442e+05,2437,347
Raw,3.36355833e+05,2438,347
Raw,3.00412679e+05,2439,347
Raw,4.48563724e+05,2440,347
Raw,5.20044217e+05,2441,347
Raw,2.39659345e+05,2442,347
Raw,5.21980704e+05,2443,347
Raw,6.24830598e+05,2444,347
Raw,5.19048807e+05,2445,347
Raw,2.88642044e+05,2446,347
Raw,5.0288646e+05,2447,347
Raw,4.48357915e+05,2449,347
Raw,5.47512699e+05,2450,347
Raw,4.68289022e+05,2452,347
Raw,5.36268765e+05,2453,347
Raw,4.54144973e+05,2454,347
Raw,3.37773404e+05,2455,347
Raw,5.11146768e+05,2456,347
Raw,5.61390537e+05,2460,347
Raw,5.20955694e+05,2461,347
Raw,6.01671591e+05,2462,347
Raw,4.0631596e+05,2463,347
Raw,4.42452709e+05,2464,347
Raw,6.14146284e+05,2465,347
Raw,4.73234456e+05,2466,347
Raw,4.90119732e+05,2467,347
Raw,5.68872937e+05,2468,347
Raw,3.68201868e+05,2469,347
Raw,32289.393,2469,347
Raw,4.72508173e+05,2470,347
Raw,4.79064963e+05,2471,347
Raw,3.1480839e+05,2472,347
Raw,3.56426773e+05,2473,347
Raw,5.06505777e+05,2474,347
Raw,3.75922793e+05,2475,347
Raw,4.32330268e+05,2476,347
Raw,4.15626915e+05,2477,347
Raw,4.30096749e+05,2478,347
Raw,5.30437593e+05,2479,347
Raw,4.40427454e+05,2480,347
Raw,5.29116682e+05,2481,347
Raw,5.81103075e+05,2482,347
Raw,6.37131291e+05,2484,347
Raw,2.99588903e+05,2485,347
Raw,5.87597335e+05,2486,347
Raw,3.69852407e+05,2487,347
Raw,5.12526149e+05,2488,347
Raw,2.67256381e+05,2489,347
Raw,3.46562587e+05,2490,347
Raw,5.25915792e+05,2491,347
Raw,4.11100068e+05,2492,347
Raw,4.8935782e+05,2493,347
Raw,4.95981881e+05,2494,347
Raw,4.20018253e+05,2495,347
Raw,5.67160911e+05,2496,347
Raw,3.26118949e+05,2497,347
Raw,4.18468716e+05,2498,347
Raw,5.0618903e+05,2499,347
Raw,4.84498215e+05,2500,347
Raw,6.21738118e+05,2501,347
Raw,5.8337169e+05,2502,347
Raw,3.24275507e+05,2503,347
Raw,5.07058217e+05,2504,347
Raw,4.26036502e+05,2506,347
Raw,4.90819952e+05,2507,347
Raw,6.2448032e+05,2508,347
Raw,5.30235459e+05,2509,347
Raw,2.12219822e+05,2511,347
Raw,6.55780887e+05,2513,347
Raw,2.6653109e+05,2515,347
Raw,5.05004335e+05,2516,347
Raw,3.51114607e+05,2517,347
Raw,4.93678181e+05,2518,347
Raw,6.64629094e+05,2519,347
Raw,4.59819371e+05,2520,347
Raw,4.51129204e+05,2522,347
Raw,4.32519724e+05,2523,347
Raw,4.66411922e+05,2524,347
Raw,7.107045e+05,2525,347
Raw,5.22339231e+05,2526,347
Raw,5.04578894e+05,2527,347
Raw,3.59228478e+05,2528,347
Raw,6.66042167e+05,2529,347
Raw,5.76708566e+05,2530,347
Raw,4.57344918e+05,2531,347
Raw,4.109078e+05,2532,347
Raw,5.20327005e+05,2533,347
Raw,4.82662154e+05,2534,347
Raw,5.30379687e+05,2536,347
Raw,4.32957694e+05,2537,347
Raw,5.00808816e+05,2538,347
Raw,4.53349259e+05,2539,347
Raw,5.99838681e+05,2541,347
Raw,4.57365427e+05,2542,347
Raw,4.13977134e+05,2544,347
Raw,5.21788843e+05,2545,347
Raw,4.07636194e+05,2546,347
Raw,5.06159727e+05,2547,347
Raw,4.14911737e+05,2549,347
Raw,3.16324223e+05,2550,347
Raw,5.56727024e+05,2551,347
Raw,4.89331207e+05,2552,347
Raw,4.99868781e+05,2553,347
Raw,4.82426981e+05,2554,347
Raw,3.72772117e+05,2555,347
Raw,4.53809402e+05,2556,347
Raw,70143.411,2556,347
Raw,2.57353745e+05,2557,347
Raw,4.96664157e+05,2558,347
Raw,6.67919679e+05,2560,347
Raw,1.8751398e+05,2560,347
Raw,4.73311405e+05,2561,347
Raw,5.5354188e+05,2562,347
Raw,3.68886136e+05,2563,347
Raw,5.42193026e+05,2565,347
Raw,4.19002317e+05,2566,347
Raw,5.16891297e+05,2567,347
Raw,4.59010307e+05,2568,347
Raw,4.82421067e+05,2569,347
Raw,5.03166078e+05,2572,347
Raw,4.4393068e+05,2574,347
Raw,4.82213959e+05,2575,347
Raw,5.61115621e+05,2578,347
Raw,4.43345817e+05,2580,347
Raw,5.8919642e+05,2581,347
Raw,3.31073551e+05,2582,347
Raw,2.04575309e+05,2582,347
Raw,4.206134e+05,2583,347
Raw,2.24998914e+05,2584,347
Raw,5.3689423e+05,2585,347
Raw,3.03287083e+05,2586,347
Raw,5.28220733e+05,2587,347
Raw,4.06961828e+05,2588,347
Raw,6.15660688e+05,2589,347
Raw,5.24943723e+05,2590,347
Raw,6.52221045e+05,2591,347
Raw,5.36377884e+05,2593,347
Raw,5.36575601e+05,2594,347
Raw,5.27552987e+05,2596,347
Raw,5.97846964e+05,2597,347
Raw,4.32797121e+05,2598,347
Raw,6.20128819e+05,2599,347
Raw,5.10325481e+05,2600,347
Raw,4.18764723e+05,2601,347
Raw,2.48381888e+05,2602,347
Raw,4.83549842e+05,2604,347
Raw,3.15322276e+05,2605,347
Raw,4.19146384e+05,2606,347
Raw,2.4941042e+05,2607,347
Raw,4.04014426e+05,2608,347
