Cut?,Counts,eventNumber,runNumber
Raw,188,2,347
Raw,189,3,347
Raw,196,4,347
Raw,186,8,347
Raw,128,9,347
Raw,158,10,347
Raw,198,11,347
Raw,208,12,347
Raw,192,13,347
Raw,221,14,347
Raw,199,16,347
Raw,199,17,347
Raw,209,18,347
Raw,177,19,347
Raw,203,20,347
Raw,205,22,347
Raw,234,23,347
Raw,179,24,347
Raw,199,25,347
Raw,172,26,347
Raw,159,28,347
Raw,184,29,347
Raw,205,30,347
Raw,164,31,347
Raw,275,33,347
Raw,189,34,347
Raw,225,35,347
Raw,219,36,347
Raw,194,37,347
Raw,168,39,347
Raw,208,40,347
Raw,209,43,347
Raw,195,44,347
Raw,178,45,347
Raw,203,47,347
Raw,310,48,347
Raw,215,50,347
Raw,160,51,347
Raw,198,53,347
Raw,192,54,347
Raw,259,55,347
Raw,158,56,347
Raw,217,57,347
Raw,102,58,347
Raw,204,59,347
Raw,195,61,347
Raw,216,62,347
Raw,184,63,347
Raw,282,64,347
Raw,213,65,347
Raw,167,66,347
Raw,178,67,347
Raw,183,68,347
Raw,194,69,347
Raw,175,70,347
Raw,190,71,347
Raw,197,73,347
Raw,199,75,347
Raw,181,76,347
Raw,81,77,347
Raw,162,78,347
Raw,203,79,347
Raw,186,80,347
Raw,189,81,347
Raw,203,82,347
Raw,109,83,347
Raw,208,84,347
Raw,203,86,347
Raw,226,87,347
Raw,205,88,347
Raw,190,89,347
Raw,290,90,347
Raw,264,91,347
Raw,200,92,347
Raw,203,93,347
Raw,197,94,347
Raw,187,95,347
Raw,208,96,347
Raw,179,97,347
Raw,182,98,347
Raw,203,99,347
Raw,201,100,347
Raw,192,101,347
Raw,109,102,347
Raw,192,103,347
Raw,192,104,347
Raw,147,105,347
Raw,203,107,347
Raw,184,108,347
Raw,212,109,347
Raw,192,110,347
Raw,106,111,347
Raw,169,112,347
Raw,187,113,347
Raw,202,114,347
Raw,184,115,347
Raw,183,116,347
Raw,53,116,347
Raw,202,118,347
Raw,131,120,347
Raw,204,121,347
Raw,208,122,347
Raw,156,123,347
Raw,209,124,347
Raw,185,125,347
Raw,150,127,347
Raw,174,128,347
Raw,197,130,347
Raw,201,132,347
Raw,191,133,347
Raw,129,134,347
Raw,171,135,347
Raw,198,136,347
Raw,209,137,347
Raw,204,137,347
Raw,205,138,347
Raw,407,139,347
Raw,205,140,347
Raw,198,141,347
Raw,211,142,347
Raw,211,145,347
Raw,191,146,347
Raw,178,147,347
Raw,174,148,347
Raw,182,149,347
Raw,108,150,347
Raw,107,151,347
Raw,182,156,347
Raw,202,157,347
Raw,216,158,347
Raw,191,160,347
Raw,177,161,347
Raw,191,163,347
Raw,201,164,347
Raw,63,164,347
Raw,207,165,347
Raw,211,166,347
Raw,190,168,347
Raw,121,171,347
Raw,211,172,347
Raw,200,173,347
Raw,60,173,347
Raw,209,174,347
Raw,187,175,347
Raw,221,176,347
Raw,88,178,347
Raw,206,179,347
Raw,184,180,347
Raw,146,182,347
Raw,186,185,347
Raw,171,186,347
Raw,216,187,347
Raw,182,189,347
Raw,168,190,347
Raw,214,191,347
Raw,200,192,347
Raw,75,192,347
Raw,195,194,347
Raw,113,195,347
Raw,67,195,347
Raw,201,196,347
Raw,183,198,347
Raw,150,199,347
Raw,218,200,347
Raw,247,201,347
Raw,103,202,347
Raw,204,203,347
Raw,148,204,347
Raw,217,205,347
Raw,183,206,347
Raw,108,208,347
Raw,182,209,347
Raw,197,210,347
Raw,146,211,347
Raw,158,212,347
Raw,206,213,347
Raw,213,214,347
Raw,127,216,347
Raw,203,218,347
Raw,180,219,347
Raw,139,220,347
Raw,182,221,347
Raw,183,222,347
Raw,77,223,347
Raw,122,223,347
Raw,212,224,347
Raw,201,225,347
Raw,192,226,347
Raw,157,227,347
Raw,162,228,347
Raw,212,229,347
Raw,100,231,347
Raw,121,232,347
Raw,192,233,347
Raw,103,235,347
Raw,127,236,347
Raw,198,238,347
Raw,184,239,347
Raw,158,240,347
Raw,170,241,347
Raw,172,243,347
Raw,67,243,347
Raw,200,244,347
Raw,197,246,347
Raw,144,247,347
Raw,150,248,347
Raw,189,250,347
Raw,171,251,347
Raw,206,252,347
Raw,187,253,347
Raw,174,254,347
Raw,26,255,347
Raw,92,256,347
Raw,202,257,347
Raw,143,258,347
Raw,181,259,347
Raw,203,260,347
Raw,144,262,347
Raw,151,266,347
Raw,208,267,347
Raw,133,269,347
Raw,232,270,347
Raw,143,272,347
Raw,177,275,347
Raw,154,276,347
Raw,177,277,347
Raw,219,279,347
Raw,161,280,347
Raw,219,281,347
Raw,202,282,347
Raw,220,283,347
Raw,192,284,347
Raw,192,285,347
Raw,215,286,347
Raw,198,288,347
Raw,202,289,347
Raw,220,290,347
Raw,17,290,347
Raw,308,291,347
Raw,169,292,347
Raw,193,293,347
Raw,115,294,347
Raw,152,295,347
Raw,259,296,347
Raw,129,297,347
Raw,201,298,347
Raw,195,299,347
Raw,209,300,347
Raw,280,301,347
Raw,179,303,347
Raw,110,304,347
Raw,231,306,347
Raw,210,307,347
Raw,156,309,347
Raw,179,310,347
Raw,172,311,347
Raw,146,312,347
Raw,99,313,347
Raw,162,314,347
Raw,151,315,347
Raw,194,316,347
Raw,219,317,347
Raw,213,319,347
Raw,184,320,347
Raw,207,321,347
Raw,202,322,347
Raw,203,324,347
Raw,205,325,347
Raw,156,326,347
Raw,171,327,347
Raw,163,328,347
Raw,194,329,347
Raw,200,330,347
Raw,179,331,347
Raw,225,332,347
Raw,223,333,347
Raw,192,334,347
Raw,43,334,347
Raw,212,335,347
Raw,191,336,347
Raw,120,337,347
Raw,156,339,347
Raw,158,340,347
Raw,202,341,347
Raw,158,342,347
Raw,323,343,347
Raw,235,344,347
Raw,183,345,347
Raw,178,346,347
Raw,209,347,347
Raw,88,349,347
Raw,145,350,347
Raw,195,351,347
Raw,201,352,347
Raw,161,353,347
Raw,279,354,347
Raw,215,356,347
Raw,187,357,347
Raw,99,360,347
Raw,174,361,347
Raw,205,362,347
Raw,85,363,347
Raw,97,364,347
Raw,210,365,347
Raw,210,366,347
Raw,178,368,347
Raw,194,369,347
Raw,183,370,347
Raw,101,372,347
Raw,214,374,347
Raw,148,375,347
Raw,193,376,347
Raw,161,377,347
Raw,219,378,347
Raw,209,379,347
Raw,183,380,347
Raw,185,382,347
Raw,186,383,347
Raw,69,384,347
Raw,185,385,347
Raw,172,386,347
Raw,190,387,347
Raw,203,389,347
Raw,197,390,347
Raw,157,391,347
Raw,161,392,347
Raw,190,393,347
Raw,210,394,347
Raw,208,395,347
Raw,210,396,347
Raw,160,397,347
Raw,152,398,347
Raw,193,399,347
Raw,217,400,347
Raw,192,401,347
Raw,130,404,347
Raw,221,405,347
Raw,222,406,347
Raw,148,407,347
Raw,223,410,347
Raw,203,412,347
Raw,214,413,347
Raw,189,414,347
Raw,187,415,347
Raw,210,416,347
Raw,191,417,347
Raw,160,418,347
Raw,130,421,347
Raw,183,422,347
Raw,162,423,347
Raw,191,424,347
Raw,220,425,347
Raw,217,430,347
Raw,125,431,347
Raw,202,432,347
Raw,191,434,347
Raw,203,435,347
Raw,171,436,347
Raw,56,436,347
Raw,154,438,347
Raw,130,439,347
Raw,221,440,347
Raw,202,442,347
Raw,183,443,347
Raw,199,445,347
Raw,169,446,347
Raw,219,447,347
Raw,132,449,347
Raw,224,451,347
Raw,210,452,347
Raw,166,453,347
Raw,94,454,347
Raw,10,454,347
Raw,199,456,347
Raw,194,457,347
Raw,186,458,347
Raw,89,460,347
Raw,216,461,347
Raw,90,462,347
Raw,219,463,347
Raw,231,464,347
Raw,186,465,347
Raw,193,466,347
Raw,212,467,347
Raw,206,469,347
Raw,204,470,347
Raw,183,471,347
Raw,109,472,347
Raw,148,474,347
Raw,218,476,347
Raw,159,478,347
Raw,186,479,347
Raw,183,481,347
Raw,154,482,347
Raw,83,483,347
Raw,219,484,347
Raw,211,486,347
Raw,210,487,347
Raw,204,488,347
Raw,108,489,347
Raw,287,490,347
Raw,196,491,347
Raw,203,492,347
Raw,192,494,347
Raw,191,496,347
Raw,310,497,347
Raw,219,498,347
Raw,201,499,347
Raw,212,500,347
Raw,104,502,347
Raw,222,503,347
Raw,198,504,347
Raw,103,505,347
Raw,206,506,347
Raw,208,507,347
Raw,163,508,347
Raw,112,509,347
Raw,116,510,347
Raw,87,511,347
Raw,209,512,347
Raw,169,513,347
Raw,99,514,347
Raw,157,515,347
Raw,203,518,347
Raw,141,520,347
Raw,281,521,347
Raw,178,522,347
Raw,169,523,347
Raw,99,524,347
Raw,129,528,347
Raw,178,529,347
Raw,120,530,347
Raw,136,530,347
Raw,168,531,347
Raw,181,532,347
Raw,189,533,347
Raw,154,534,347
Raw,240,535,347
Raw,116,537,347
Raw,193,538,347
Raw,79,538,347
Raw,153,539,347
Raw,193,540,347
Raw,202,541,347
Raw,135,543,347
Raw,342,545,347
Raw,233,546,347
Raw,418,548,347
Raw,180,549,347
Raw,217,553,347
Raw,184,554,347
Raw,267,556,347
Raw,185,557,347
Raw,139,558,347
Raw,136,560,347
Raw,226,561,347
Raw,226,562,347
Raw,142,563,347
Raw,185,564,347
Raw,103,565,347
Raw,196,567,347
Raw,188,568,347
Raw,153,569,347
Raw,183,570,347
Raw,153,571,347
Raw,197,572,347
Raw,170,573,347
Raw,193,574,347
Raw,95,574,347
Raw,94,575,347
Raw,217,576,347
Raw,164,577,347
Raw,203,578,347
Raw,196,579,347
Raw,182,580,347
Raw,201,581,347
Raw,222,583,347
Raw,199,584,347
Raw,156,585,347
Raw,176,587,347
Raw,206,588,347
Raw,190,589,347
Raw,209,590,347
Raw,209,591,347
Raw,179,592,347
Raw,37,593,347
Raw,108,593,347
Raw,168,596,347
Raw,220,597,347
Raw,127,598,347
Raw,230,599,347
Raw,158,601,347
Raw,211,602,347
Raw,201,603,347
Raw,31,604,347
Raw,165,605,347
Raw,211,606,347
Raw,208,607,347
Raw,184,608,347
Raw,180,609,347
Raw,204,610,347
Raw,193,611,347
Raw,192,612,347
Raw,188,613,347
Raw,110,614,347
Raw,226,616,347
Raw,197,617,347
Raw,114,618,347
Raw,146,620,347
Raw,214,621,347
Raw,258,622,347
Raw,92,626,347
Raw,94,627,347
Raw,193,628,347
Raw,220,631,347
Raw,212,632,347
Raw,214,633,347
Raw,135,635,347
Raw,160,636,347
Raw,149,639,347
Raw,178,640,347
Raw,209,641,347
Raw,210,642,347
Raw,200,643,347
Raw,141,644,347
Raw,160,645,347
Raw,188,647,347
Raw,217,648,347
Raw,90,650,347
Raw,202,651,347
Raw,205,653,347
Raw,113,653,347
Raw,210,654,347
Raw,180,655,347
Raw,222,656,347
Raw,163,657,347
Raw,210,660,347
Raw,130,661,347
Raw,212,662,347
Raw,224,663,347
Raw,106,664,347
Raw,23,664,347
Raw,204,665,347
Raw,185,667,347
Raw,200,668,347
Raw,92,669,347
Raw,175,670,347
Raw,208,671,347
Raw,95,672,347
Raw,177,674,347
Raw,202,675,347
Raw,209,676,347
Raw,198,679,347
Raw,201,680,347
Raw,151,681,347
Raw,204,682,347
Raw,194,683,347
Raw,265,684,347
Raw,149,685,347
Raw,383,686,347
Raw,212,687,347
Raw,184,688,347
Raw,178,689,347
Raw,86,691,347
Raw,120,692,347
Raw,215,693,347
Raw,178,694,347
Raw,166,695,347
Raw,202,697,347
Raw,204,698,347
Raw,190,702,347
Raw,201,703,347
Raw,209,704,347
Raw,203,705,347
Raw,229,706,347
Raw,196,708,347
Raw,210,710,347
Raw,166,711,347
Raw,93,712,347
Raw,145,713,347
Raw,100,714,347
Raw,68,714,347
Raw,203,715,347
Raw,181,716,347
Raw,188,717,347
Raw,190,718,347
Raw,176,719,347
Raw,313,720,347
Raw,197,721,347
Raw,176,722,347
Raw,233,724,347
Raw,179,725,347
Raw,197,727,347
Raw,179,728,347
Raw,170,729,347
Raw,248,731,347
Raw,279,732,347
Raw,147,733,347
Raw,174,734,347
Raw,198,735,347
Raw,200,736,347
Raw,193,737,347
Raw,189,738,347
Raw,201,739,347
Raw,190,740,347
Raw,115,741,347
Raw,166,742,347
Raw,163,743,347
Raw,81,743,347
Raw,190,744,347
Raw,177,747,347
Raw,367,748,347
Raw,213,749,347
Raw,177,750,347
Raw,184,751,347
Raw,186,752,347
Raw,155,753,347
Raw,99,754,347
Raw,203,755,347
Raw,280,756,347
Raw,136,758,347
Raw,112,759,347
Raw,180,760,347
Raw,207,761,347
Raw,77,761,347
Raw,185,763,347
Raw,194,764,347
Raw,179,766,347
Raw,140,767,347
Raw,186,768,347
Raw,226,769,347
Raw,162,770,347
Raw,214,771,347
Raw,165,773,347
Raw,191,774,347
Raw,184,775,347
Raw,253,776,347
Raw,162,777,347
Raw,211,778,347
Raw,203,780,347
Raw,189,781,347
Raw,106,783,347
Raw,187,784,347
Raw,186,785,347
Raw,205,786,347
Raw,95,788,347
Raw,202,790,347
Raw,186,791,347
Raw,203,792,347
Raw,226,793,347
Raw,199,794,347
Raw,202,795,347
Raw,201,797,347
Raw,204,798,347
Raw,160,800,347
Raw,226,801,347
Raw,106,802,347
Raw,127,803,347
Raw,167,804,347
Raw,221,805,347
Raw,164,806,347
Raw,102,807,347
Raw,181,808,347
Raw,151,809,347
Raw,221,811,347
Raw,214,812,347
Raw,189,813,347
Raw,196,815,347
Raw,197,816,347
Raw,187,817,347
Raw,248,818,347
Raw,55,818,347
Raw,198,819,347
Raw,205,820,347
Raw,168,821,347
Raw,138,822,347
Raw,189,823,347
Raw,171,824,347
Raw,191,825,347
Raw,169,827,347
Raw,207,828,347
Raw,191,829,347
Raw,132,832,347
Raw,198,833,347
Raw,188,835,347
Raw,119,836,347
Raw,99,839,347
Raw,198,840,347
Raw,104,841,347
Raw,196,842,347
Raw,200,843,347
Raw,100,844,347
Raw,277,846,347
Raw,190,848,347
Raw,191,849,347
Raw,190,850,347
Raw,88,850,347
Raw,197,852,347
Raw,174,853,347
Raw,135,854,347
Raw,158,855,347
Raw,184,858,347
Raw,115,859,347
Raw,190,860,347
Raw,108,861,347
Raw,194,862,347
Raw,154,863,347
Raw,214,864,347
Raw,166,865,347
Raw,207,866,347
Raw,195,867,347
Raw,204,868,347
Raw,217,869,347
Raw,206,870,347
Raw,180,871,347
Raw,203,872,347
Raw,171,873,347
Raw,199,874,347
Raw,207,875,347
Raw,191,876,347
Raw,159,877,347
Raw,201,878,347
Raw,199,879,347
Raw,144,880,347
Raw,191,881,347
Raw,178,882,347
Raw,180,883,347
Raw,196,884,347
Raw,49,884,347
Raw,132,885,347
Raw,93,886,347
Raw,206,888,347
Raw,191,889,347
Raw,210,891,347
Raw,169,894,347
Raw,213,895,347
Raw,179,896,347
Raw,89,897,347
Raw,195,898,347
Raw,87,899,347
Raw,116,901,347
Raw,192,902,347
Raw,191,903,347
Raw,194,904,347
Raw,161,905,347
Raw,98,906,347
Raw,160,907,347
Raw,167,909,347
Raw,186,910,347
Raw,198,911,347
Raw,224,912,347
Raw,204,913,347
Raw,186,915,347
Raw,170,916,347
Raw,218,918,347
Raw,168,919,347
Raw,200,920,347
Raw,196,921,347
Raw,145,924,347
Raw,102,925,347
Raw,179,926,347
Raw,209,927,347
Raw,256,931,347
Raw,174,932,347
Raw,186,933,347
Raw,182,936,347
Raw,125,937,347
Raw,178,938,347
Raw,199,939,347
Raw,195,940,347
Raw,196,941,347
Raw,122,942,347
Raw,214,944,347
Raw,95,945,347
Raw,266,946,347
Raw,192,947,347
Raw,132,948,347
Raw,131,949,347
Raw,156,950,347
Raw,113,951,347
Raw,191,952,347
Raw,203,953,347
Raw,204,955,347
Raw,206,956,347
Raw,98,957,347
Raw,109,959,347
Raw,199,962,347
Raw,216,963,347
Raw,273,964,347
Raw,167,965,347
Raw,121,966,347
Raw,197,967,347
Raw,230,968,347
Raw,201,969,347
Raw,165,970,347
Raw,200,972,347
Raw,170,972,347
Raw,188,973,347
Raw,181,974,347
Raw,190,975,347
Raw,203,976,347
Raw,147,977,347
Raw,174,979,347
Raw,303,980,347
Raw,195,981,347
Raw,173,982,347
Raw,152,983,347
Raw,227,984,347
Raw,176,985,347
Raw,204,986,347
Raw,193,987,347
Raw,164,988,347
Raw,32,988,347
Raw,207,989,347
Raw,198,990,347
Raw,161,991,347
Raw,180,992,347
Raw,217,993,347
Raw,133,994,347
Raw,170,995,347
Raw,165,998,347
Raw,192,1000,347
Raw,238,1002,347
Raw,152,1003,347
Raw,208,1004,347
Raw,199,1005,347
Raw,181,1006,347
Raw,225,1007,347
Raw,214,1008,347
Raw,181,1009,347
Raw,145,1010,347
Raw,167,1012,347
Raw,194,1013,347
Raw,182,1015,347
Raw,162,1016,347
Raw,185,1017,347
Raw,205,1018,347
Raw,205,1021,347
Raw,201,1023,347
Raw,94,1023,347
Raw,184,1025,347
Raw,216,1026,347
Raw,192,1027,347
Raw,202,1029,347
Raw,287,1030,347
Raw,194,1031,347
Raw,188,1032,347
Raw,198,1033,347
Raw,209,1034,347
Raw,172,1035,347
Raw,196,1037,347
Raw,137,1037,347
Raw,185,1038,347
Raw,178,1039,347
Raw,278,1040,347
Raw,209,1041,347
Raw,186,1042,347
Raw,145,1043,347
Raw,194,1044,347
Raw,90,1046,347
Raw,362,1047,347
Raw,154,1049,347
Raw,96,1050,347
Raw,158,1053,347
Raw,215,1055,347
Raw,191,1056,347
Raw,155,1057,347
Raw,202,1058,347
Raw,305,1059,347
Raw,184,1061,347
Raw,275,1063,347
Raw,222,1064,347
Raw,154,1065,347
Raw,197,1066,347
Raw,187,1067,347
Raw,218,1068,347
Raw,224,1069,347
Raw,205,1070,347
Raw,62,1071,347
Raw,201,1072,347
Raw,275,1074,347
Raw,173,1076,347
Raw,83,1077,347
Raw,237,1078,347
Raw,169,1079,347
Raw,186,1080,347
Raw,136,1081,347
Raw,198,1082,347
Raw,113,1083,347
Raw,191,1084,347
Raw,228,1086,347
Raw,184,1087,347
Raw,211,1088,347
Raw,148,1089,347
Raw,176,1090,347
Raw,194,1091,347
Raw,212,1092,347
Raw,181,1094,347
Raw,125,1095,347
Raw,173,1097,347
Raw,190,1098,347
Raw,115,1099,347
Raw,152,1100,347
Raw,187,1101,347
Raw,21,1101,347
Raw,225,1102,347
Raw,175,1103,347
Raw,287,1104,347
Raw,187,1105,347
Raw,193,1106,347
Raw,180,1107,347
Raw,209,1108,347
Raw,98,1110,347
Raw,199,1111,347
Raw,279,1112,347
Raw,182,1113,347
Raw,217,1114,347
Raw,179,1115,347
Raw,198,1116,347
Raw,62,1116,347
Raw,157,1118,347
Raw,201,1120,347
Raw,192,1121,347
Raw,199,1122,347
Raw,176,1125,347
Raw,193,1126,347
Raw,159,1127,347
Raw,127,1130,347
Raw,179,1131,347
Raw,189,1132,347
Raw,192,1133,347
Raw,205,1134,347
Raw,196,1135,347
Raw,192,1136,347
Raw,128,1137,347
Raw,192,1139,347
Raw,261,1141,347
Raw,188,1142,347
Raw,198,1143,347
Raw,58,1143,347
Raw,195,1144,347
Raw,198,1149,347
Raw,184,1150,347
Raw,306,1152,347
Raw,191,1153,347
Raw,171,1154,347
Raw,188,1157,347
Raw,193,1159,347
Raw,177,1160,347
Raw,192,1162,347
Raw,172,1163,347
Raw,196,1164,347
Raw,193,1165,347
Raw,167,1166,347
Raw,200,1167,347
Raw,172,1168,347
Raw,189,1169,347
Raw,157,1170,347
Raw,52,1170,347
Raw,195,1171,347
Raw,171,1173,347
Raw,207,1174,347
Raw,180,1176,347
Raw,189,1177,347
Raw,58,1177,347
Raw,132,1178,347
Raw,194,1179,347
Raw,240,1180,347
Raw,199,1181,347
Raw,215,1182,347
Raw,191,1183,347
Raw,179,1184,347
Raw,184,1186,347
Raw,211,1187,347
Raw,193,1188,347
Raw,138,1189,347
Raw,202,1190,347
Raw,199,1191,347
Raw,217,1193,347
Raw,183,1194,347
Raw,158,1195,347
Raw,315,1196,347
Raw,196,1197,347
Raw,153,1198,347
Raw,204,1199,347
Raw,163,1200,347
Raw,103,1201,347
Raw,174,1202,347
Raw,205,1203,347
Raw,212,1204,347
Raw,207,1205,347
Raw,207,1206,347
Raw,197,1207,347
Raw,192,1208,347
Raw,160,1209,347
Raw,92,1210,347
Raw,204,1212,347
Raw,213,1214,347
Raw,183,1215,347
Raw,167,1216,347
Raw,195,1217,347
Raw,168,1218,347
Raw,56,1218,347
Raw,189,1219,347
Raw,300,1220,347
Raw,179,1221,347
Raw,200,1222,347
Raw,100,1224,347
Raw,189,1225,347
Raw,156,1226,347
Raw,210,1227,347
Raw,194,1228,347
Raw,126,1229,347
Raw,196,1230,347
Raw,199,1231,347
Raw,136,1232,347
Raw,88,1233,347
Raw,109,1234,347
Raw,192,1236,347
Raw,138,1237,347
Raw,202,1238,347
Raw,190,1241,347
Raw,196,1242,347
Raw,207,1243,347
Raw,171,1244,347
Raw,226,1245,347
Raw,116,1246,347
Raw,208,1247,347
Raw,192,1248,347
Raw,214,1249,347
Raw,173,1250,347
Raw,62,1250,347
Raw,200,1251,347
Raw,228,1253,347
Raw,210,1256,347
Raw,123,1257,347
Raw,96,1259,347
Raw,132,1260,347
Raw,155,1261,347
Raw,291,1262,347
Raw,62,1262,347
Raw,124,1265,347
Raw,159,1266,347
Raw,170,1267,347
Raw,145,1268,347
Raw,173,1269,347
Raw,102,1270,347
Raw,195,1271,347
Raw,177,1272,347
Raw,187,1273,347
Raw,180,1275,347
Raw,161,1276,347
Raw,177,1277,347
Raw,186,1278,347
Raw,192,1279,347
Raw,192,1280,347
Raw,176,1281,347
Raw,310,1282,347
Raw,159,1283,347
Raw,219,1286,347
Raw,177,1287,347
Raw,170,1290,347
Raw,107,1292,347
Raw,211,1293,347
Raw,142,1295,347
Raw,209,1296,347
Raw,171,1297,347
Raw,22,1297,347
Raw,178,1298,347
Raw,179,1299,347
Raw,176,1300,347
Raw,295,1301,347
Raw,219,1305,347
Raw,164,1306,347
Raw,212,1308,347
Raw,201,1309,347
Raw,198,1310,347
Raw,210,1311,347
Raw,209,1312,347
Raw,205,1313,347
Raw,166,1314,347
Raw,210,1316,347
Raw,168,1317,347
Raw,174,1319,347
Raw,194,1321,347
Raw,207,1322,347
Raw,174,1323,347
Raw,224,1324,347
Raw,101,1325,347
Raw,194,1326,347
Raw,232,1327,347
Raw,189,1329,347
Raw,197,1331,347
Raw,231,1332,347
Raw,201,1333,347
Raw,178,1334,347
Raw,182,1335,347
Raw,170,1336,347
Raw,195,1338,347
Raw,93,1339,347
Raw,201,1340,347
Raw,203,1344,347
Raw,61,1344,347
Raw,122,1345,347
Raw,200,1346,347
Raw,230,1347,347
Raw,164,1348,347
Raw,203,1350,347
Raw,164,1351,347
Raw,154,1352,347
Raw,198,1353,347
Raw,144,1354,347
Raw,236,1355,347
Raw,35,1355,347
Raw,149,1357,347
Raw,178,1359,347
Raw,224,1361,347
Raw,173,1363,347
Raw,139,1365,347
Raw,173,1366,347
Raw,195,1367,347
Raw,97,1368,347
Raw,156,1370,347
Raw,149,1371,347
Raw,178,1372,347
Raw,307,1373,347
Raw,202,1375,347
Raw,223,1376,347
Raw,203,1377,347
Raw,204,1378,347
Raw,194,1379,347
Raw,213,1380,347
Raw,207,1381,347
Raw,210,1382,347
Raw,260,1383,347
Raw,128,1384,347
Raw,153,1386,347
Raw,206,1387,347
Raw,198,1389,347
Raw,196,1390,347
Raw,208,1391,347
Raw,106,1393,347
Raw,191,1394,347
Raw,213,1395,347
Raw,209,1396,347
Raw,192,1397,347
Raw,180,1398,347
Raw,209,1399,347
Raw,16,1399,347
Raw,124,1400,347
Raw,170,1401,347
Raw,209,1402,347
Raw,207,1403,347
Raw,107,1404,347
Raw,125,1406,347
Raw,181,1407,347
Raw,117,1408,347
Raw,157,1409,347
Raw,186,1410,347
Raw,220,1411,347
Raw,195,1412,347
Raw,72,1412,347
Raw,200,1413,347
Raw,234,1414,347
Raw,191,1415,347
Raw,198,1416,347
Raw,214,1417,347
Raw,216,1418,347
Raw,209,1419,347
Raw,178,1420,347
Raw,204,1421,347
Raw,206,1422,347
Raw,216,1423,347
Raw,85,1424,347
Raw,116,1425,347
Raw,212,1426,347
Raw,169,1428,347
Raw,233,1429,347
Raw,196,1430,347
Raw,175,1431,347
Raw,185,1432,347
Raw,180,1434,347
Raw,207,1435,347
Raw,174,1436,347
Raw,204,1438,347
Raw,161,1439,347
Raw,212,1441,347
Raw,226,1442,347
Raw,186,1443,347
Raw,101,1444,347
Raw,114,1445,347
Raw,154,1447,347
Raw,182,1448,347
Raw,83,1449,347
Raw,93,1450,347
Raw,203,1451,347
Raw,138,1453,347
Raw,178,1454,347
Raw,204,1456,347
Raw,86,1457,347
Raw,189,1458,347
Raw,126,1459,347
Raw,55,1459,347
Raw,169,1460,347
Raw,106,1461,347
Raw,182,1464,347
Raw,204,1465,347
Raw,210,1466,347
Raw,204,1467,347
Raw,184,1468,347
Raw,208,1469,347
Raw,93,1470,347
Raw,219,1473,347
Raw,177,1474,347
Raw,58,1475,347
Raw,206,1476,347
Raw,171,1477,347
Raw,205,1478,347
Raw,202,1479,347
Raw,116,1480,347
Raw,175,1481,347
Raw,196,1482,347
Raw,228,1484,347
Raw,197,1485,347
Raw,213,1486,347
Raw,202,1487,347
Raw,263,1489,347
Raw,129,1490,347
Raw,174,1491,347
Raw,212,1492,347
Raw,351,1493,347
Raw,175,1494,347
Raw,98,1495,347
Raw,78,1496,347
Raw,84,1497,347
Raw,153,1498,347
Raw,187,1499,347
Raw,211,1500,347
Raw,183,1501,347
Raw,168,1502,347
Raw,224,1503,347
Raw,209,1505,347
Raw,165,1506,347
Raw,211,1507,347
Raw,212,1508,347
Raw,222,1509,347
Raw,179,1510,347
Raw,101,1511,347
Raw,208,1514,347
Raw,195,1515,347
Raw,197,1516,347
Raw,206,1517,347
Raw,94,1518,347
Raw,202,1519,347
Raw,188,1520,347
Raw,122,1521,347
Raw,150,1523,347
Raw,192,1524,347
Raw,199,1525,347
Raw,247,1526,347
Raw,108,1528,347
Raw,140,1529,347
Raw,196,1530,347
Raw,321,1531,347
Raw,162,1533,347
Raw,213,1534,347
Raw,212,1535,347
Raw,226,1536,347
Raw,216,1537,347
Raw,220,1538,347
Raw,92,1539,347
Raw,211,1540,347
Raw,231,1541,347
Raw,188,1542,347
Raw,184,1543,347
Raw,191,1544,347
Raw,96,1545,347
Raw,192,1547,347
Raw,157,1548,347
Raw,211,1549,347
Raw,159,1551,347
Raw,136,1553,347
Raw,170,1554,347
Raw,167,1555,347
Raw,182,1556,347
Raw,194,1557,347
Raw,217,1558,347
Raw,165,1559,347
Raw,195,1560,347
Raw,196,1561,347
Raw,84,1563,347
Raw,212,1564,347
Raw,209,1565,347
Raw,149,1566,347
Raw,161,1567,347
Raw,224,1569,347
Raw,192,1570,347
Raw,164,1571,347
Raw,214,1572,347
Raw,175,1573,347
Raw,150,1574,347
Raw,200,1575,347
Raw,293,1576,347
Raw,101,1577,347
Raw,194,1578,347
Raw,97,1579,347
Raw,200,1580,347
Raw,177,1581,347
Raw,190,1582,347
Raw,119,1583,347
Raw,170,1584,347
Raw,181,1585,347
Raw,203,1586,347
Raw,234,1588,347
Raw,201,1589,347
Raw,178,1590,347
Raw,165,1591,347
Raw,156,1592,347
Raw,93,1593,347
Raw,219,1594,347
Raw,114,1596,347
Raw,192,1597,347
Raw,189,1599,347
Raw,137,1601,347
Raw,171,1602,347
Raw,171,1604,347
Raw,201,1605,347
Raw,184,1607,347
Raw,166,1608,347
Raw,148,1609,347
Raw,188,1610,347
Raw,89,1611,347
Raw,200,1612,347
Raw,198,1613,347
Raw,191,1615,347
Raw,149,1616,347
Raw,198,1617,347
Raw,94,1618,347
Raw,204,1619,347
Raw,231,1620,347
Raw,187,1621,347
Raw,156,1622,347
Raw,116,1623,347
Raw,213,1625,347
Raw,86,1626,347
Raw,107,1627,347
Raw,196,1628,347
Raw,235,1629,347
Raw,197,1630,347
Raw,99,1631,347
Raw,204,1632,347
Raw,162,1633,347
Raw,172,1634,347
Raw,112,1635,347
Raw,203,1636,347
Raw,195,1637,347
Raw,167,1638,347
Raw,203,1639,347
Raw,197,1640,347
Raw,143,1641,347
Raw,185,1643,347
Raw,61,1643,347
Raw,177,1644,347
Raw,190,1645,347
Raw,62,1645,347
Raw,218,1646,347
Raw,165,1647,347
Raw,86,1648,347
Raw,123,1649,347
Raw,205,1650,347
Raw,252,1651,347
Raw,220,1652,347
Raw,212,1653,347
Raw,208,1656,347
Raw,208,1657,347
Raw,111,1659,347
Raw,191,1660,347
Raw,205,1661,347
Raw,114,1662,347
Raw,214,1663,347
Raw,168,1664,347
Raw,197,1665,347
Raw,201,1666,347
Raw,279,1667,347
Raw,98,1668,347
Raw,182,1669,347
Raw,4,1669,347
Raw,110,1670,347
Raw,186,1671,347
Raw,193,1672,347
Raw,202,1673,347
Raw,218,1674,347
Raw,88,1675,347
Raw,148,1677,347
Raw,270,1679,347
Raw,207,1680,347
Raw,151,1681,347
Raw,198,1682,347
Raw,180,1683,347
Raw,142,1686,347
Raw,160,1687,347
Raw,202,1688,347
Raw,201,1689,347
Raw,216,1691,347
Raw,96,1692,347
Raw,125,1693,347
Raw,151,1694,347
Raw,214,1695,347
Raw,139,1698,347
Raw,195,1699,347
Raw,203,1700,347
Raw,186,1701,347
Raw,118,1702,347
Raw,204,1703,347
Raw,205,1704,347
Raw,164,1705,347
Raw,204,1706,347
Raw,213,1707,347
Raw,169,1708,347
Raw,188,1709,347
Raw,189,1710,347
Raw,183,1711,347
Raw,93,1713,347
Raw,205,1714,347
Raw,175,1715,347
Raw,121,1716,347
Raw,231,1717,347
Raw,71,1717,347
Raw,115,1718,347
Raw,13,1718,347
Raw,199,1719,347
Raw,209,1720,347
Raw,208,1722,347
Raw,178,1723,347
Raw,100,1724,347
Raw,184,1726,347
Raw,160,1727,347
Raw,190,1729,347
Raw,97,1730,347
Raw,140,1732,347
Raw,179,1733,347
Raw,198,1734,347
Raw,183,1736,347
Raw,213,1739,347
Raw,94,1740,347
Raw,107,1742,347
Raw,157,1743,347
Raw,197,1744,347
Raw,153,1745,347
Raw,208,1746,347
Raw,199,1747,347
Raw,192,1748,347
Raw,194,1750,347
Raw,111,1751,347
Raw,101,1752,347
Raw,192,1754,347
Raw,224,1755,347
Raw,192,1756,347
Raw,212,1757,347
Raw,191,1758,347
Raw,206,1759,347
Raw,205,1760,347
Raw,155,1761,347
Raw,196,1762,347
Raw,189,1763,347
Raw,195,1764,347
Raw,203,1765,347
Raw,188,1766,347
Raw,165,1767,347
Raw,211,1768,347
Raw,229,1769,347
Raw,197,1770,347
Raw,201,1771,347
Raw,203,1772,347
Raw,190,1773,347
Raw,194,1774,347
Raw,116,1775,347
Raw,222,1776,347
Raw,76,1776,347
Raw,95,1777,347
Raw,212,1779,347
Raw,166,1780,347
Raw,321,1781,347
Raw,198,1782,347
Raw,205,1783,347
Raw,219,1784,347
Raw,111,1785,347
Raw,213,1786,347
Raw,202,1787,347
Raw,209,1788,347
Raw,193,1790,347
Raw,200,1792,347
Raw,113,1794,347
Raw,226,1795,347
Raw,190,1796,347
Raw,185,1797,347
Raw,203,1798,347
Raw,281,1799,347
Raw,185,1800,347
Raw,106,1802,347
Raw,206,1803,347
Raw,178,1805,347
Raw,206,1806,347
Raw,93,1807,347
Raw,196,1809,347
Raw,200,1810,347
Raw,206,1811,347
Raw,366,1812,347
Raw,205,1813,347
Raw,211,1814,347
Raw,207,1816,347
Raw,190,1817,347
Raw,208,1818,347
Raw,223,1820,347
Raw,194,1821,347
Raw,190,1822,347
Raw,90,1824,347
Raw,219,1825,347
Raw,155,1826,347
Raw,196,1827,347
Raw,193,1828,347
Raw,289,1829,347
Raw,104,1830,347
Raw,208,1831,347
Raw,192,1832,347
Raw,198,1836,347
Raw,207,1837,347
Raw,126,1838,347
Raw,180,1840,347
Raw,206,1841,347
Raw,181,1842,347
Raw,100,1843,347
Raw,116,1844,347
Raw,96,1845,347
Raw,134,1846,347
Raw,105,1847,347
Raw,266,1848,347
Raw,206,1850,347
Raw,102,1851,347
Raw,204,1852,347
Raw,42,1852,347
Raw,222,1853,347
Raw,149,1855,347
Raw,204,1856,347
Raw,97,1857,347
Raw,132,1859,347
Raw,115,1860,347
Raw,206,1861,347
Raw,200,1863,347
Raw,203,1864,347
Raw,192,1866,347
Raw,192,1867,347
Raw,246,1869,347
Raw,178,1870,347
Raw,171,1871,347
Raw,97,1872,347
Raw,98,1874,347
Raw,194,1875,347
Raw,109,1876,347
Raw,209,1878,347
Raw,87,1880,347
Raw,175,1881,347
Raw,174,1882,347
Raw,204,1884,347
Raw,180,1885,347
Raw,159,1887,347
Raw,211,1888,347
Raw,215,1890,347
Raw,163,1891,347
Raw,174,1892,347
Raw,200,1895,347
Raw,197,1897,347
Raw,171,1898,347
Raw,155,1899,347
Raw,91,1900,347
Raw,165,1902,347
Raw,201,1903,347
Raw,160,1904,347
Raw,117,1905,347
Raw,211,1906,347
Raw,173,1907,347
Raw,61,1907,347
Raw,159,1908,347
Raw,167,1909,347
Raw,195,1910,347
Raw,198,1911,347
Raw,202,1913,347
Raw,57,1913,347
Raw,208,1915,347
Raw,194,1916,347
Raw,210,1917,347
Raw,200,1919,347
Raw,213,1920,347
Raw,207,1921,347
Raw,177,1922,347
Raw,101,1923,347
Raw,74,1923,347
Raw,190,1925,347
Raw,100,1927,347
Raw,107,1928,347
Raw,210,1929,347
Raw,191,1930,347
Raw,216,1931,347
Raw,106,1932,347
Raw,206,1933,347
Raw,216,1934,347
Raw,197,1935,347
Raw,200,1936,347
Raw,200,1937,347
Raw,215,1938,347
Raw,100,1939,347
Raw,272,1940,347
Raw,215,1941,347
Raw,385,1942,347
Raw,212,1943,347
Raw,186,1946,347
Raw,194,1947,347
Raw,157,1948,347
Raw,227,1949,347
Raw,157,1950,347
Raw,189,1951,347
Raw,254,1952,347
Raw,210,1953,347
Raw,188,1954,347
Raw,183,1955,347
Raw,100,1956,347
Raw,161,1957,347
Raw,95,1959,347
Raw,187,1960,347
Raw,214,1961,347
Raw,211,1962,347
Raw,190,1963,347
Raw,229,1964,347
Raw,190,1965,347
Raw,213,1966,347
Raw,200,1967,347
Raw,174,1968,347
Raw,200,1969,347
Raw,184,1970,347
Raw,103,1972,347
Raw,201,1973,347
Raw,215,1976,347
Raw,166,1977,347
Raw,206,1980,347
Raw,156,1981,347
Raw,216,1982,347
Raw,202,1983,347
Raw,183,1984,347
Raw,215,1986,347
Raw,133,1987,347
Raw,217,1988,347
Raw,209,1989,347
Raw,176,1990,347
Raw,188,1991,347
Raw,164,1993,347
Raw,208,1995,347
Raw,122,1996,347
Raw,110,1996,347
Raw,156,1997,347
Raw,207,1998,347
Raw,170,2000,347
Raw,182,2003,347
Raw,213,2004,347
Raw,153,2005,347
Raw,202,2006,347
Raw,138,2007,347
Raw,104,2008,347
Raw,144,2009,347
Raw,195,2010,347
Raw,100,2011,347
Raw,168,2012,347
Raw,212,2013,347
Raw,197,2014,347
Raw,171,2015,347
Raw,53,2015,347
Raw,160,2016,347
Raw,266,2017,347
Raw,153,2018,347
Raw,185,2019,347
Raw,173,2020,347
Raw,125,2021,347
Raw,105,2022,347
Raw,220,2025,347
Raw,182,2026,347
Raw,204,2027,347
Raw,204,2028,347
Raw,295,2030,347
Raw,193,2031,347
Raw,215,2033,347
Raw,193,2034,347
Raw,101,2035,347
Raw,189,2036,347
Raw,188,2037,347
Raw,135,2039,347
Raw,139,2040,347
Raw,197,2041,347
Raw,152,2042,347
Raw,208,2044,347
Raw,165,2046,347
Raw,197,2047,347
Raw,172,2047,347
Raw,185,2048,347
Raw,181,2049,347
Raw,165,2050,347
Raw,210,2051,347
Raw,211,2052,347
Raw,102,2053,347
Raw,209,2054,347
Raw,119,2055,347
Raw,216,2056,347
Raw,156,2058,347
Raw,204,2059,347
Raw,126,2061,347
Raw,221,2062,347
Raw,190,2064,347
Raw,188,2065,347
Raw,213,2066,347
Raw,109,2067,347
Raw,188,2068,347
Raw,139,2069,347
Raw,108,2070,347
Raw,189,2071,347
Raw,193,2072,347
Raw,90,2073,347
Raw,220,2075,347
Raw,194,2076,347
Raw,131,2079,347
Raw,214,2080,347
Raw,198,2081,347
Raw,184,2082,347
Raw,152,2083,347
Raw,203,2086,347
Raw,201,2087,347
Raw,114,2088,347
Raw,197,2089,347
Raw,223,2091,347
Raw,198,2093,347
Raw,189,2094,347
Raw,122,2095,347
Raw,178,2096,347
Raw,225,2097,347
Raw,186,2098,347
Raw,191,2099,347
Raw,142,2100,347
Raw,195,2101,347
Raw,208,2102,347
Raw,194,2103,347
Raw,186,2104,347
Raw,198,2105,347
Raw,199,2106,347
Raw,178,2107,347
Raw,201,2108,347
Raw,160,2109,347
Raw,133,2110,347
Raw,141,2111,347
Raw,208,2112,347
Raw,156,2113,347
Raw,215,2114,347
Raw,188,2115,347
Raw,128,2116,347
Raw,241,2118,347
Raw,197,2119,347
Raw,94,2120,347
Raw,141,2121,347
Raw,166,2122,347
Raw,188,2124,347
Raw,195,2125,347
Raw,167,2126,347
Raw,196,2128,347
Raw,250,2129,347
Raw,129,2131,347
Raw,170,2132,347
Raw,220,2133,347
Raw,162,2134,347
Raw,144,2135,347
Raw,215,2137,347
Raw,188,2139,347
Raw,160,2140,347
Raw,205,2141,347
Raw,217,2143,347
Raw,345,2144,347
Raw,95,2144,347
Raw,197,2147,347
Raw,116,2149,347
Raw,102,2151,347
Raw,217,2153,347
Raw,313,2154,347
Raw,188,2155,347
Raw,130,2157,347
Raw,171,2158,347
Raw,193,2159,347
Raw,218,2160,347
Raw,203,2162,347
Raw,132,2163,347
Raw,230,2165,347
Raw,187,2166,347
Raw,174,2167,347
Raw,113,2168,347
Raw,216,2169,347
Raw,220,2171,347
Raw,209,2172,347
Raw,199,2173,347
Raw,218,2174,347
Raw,209,2175,347
Raw,195,2176,347
Raw,117,2177,347
Raw,143,2178,347
Raw,177,2179,347
Raw,95,2180,347
Raw,210,2182,347
Raw,185,2183,347
Raw,191,2184,347
Raw,198,2185,347
Raw,178,2186,347
Raw,67,2186,347
Raw,225,2187,347
Raw,175,2188,347
Raw,229,2190,347
Raw,209,2191,347
Raw,110,2192,347
Raw,208,2193,347
Raw,182,2194,347
Raw,199,2195,347
Raw,211,2196,347
Raw,170,2197,347
Raw,26,2197,347
Raw,215,2198,347
Raw,178,2199,347
Raw,185,2200,347
Raw,193,2201,347
Raw,107,2202,347
Raw,156,2203,347
Raw,218,2204,347
Raw,180,2205,347
Raw,204,2206,347
Raw,60,2206,347
Raw,172,2208,347
Raw,202,2209,347
Raw,180,2210,347
Raw,196,2211,347
Raw,360,2212,347
Raw,212,2213,347
Raw,210,2214,347
Raw,202,2215,347
Raw,122,2217,347
Raw,212,2218,347
Raw,169,2223,347
Raw,144,2225,347
Raw,215,2226,347
Raw,189,2227,347
Raw,148,2229,347
Raw,141,2230,347
Raw,25,2230,347
Raw,163,2231,347
Raw,202,2234,347
Raw,193,2235,347
Raw,203,2236,347
Raw,105,2237,347
Raw,89,2237,347
Raw,96,2238,347
Raw,209,2239,347
Raw,228,2240,347
Raw,109,2241,347
Raw,94,2242,347
Raw,204,2244,347
Raw,124,2245,347
Raw,187,2246,347
Raw,184,2247,347
Raw,184,2248,347
Raw,155,2252,347
Raw,73,2253,347
Raw,190,2254,347
Raw,193,2256,347
Raw,171,2258,347
Raw,211,2259,347
Raw,236,2260,347
Raw,182,2261,347
Raw,216,2262,347
Raw,137,2263,347
Raw,163,2265,347
Raw,194,2266,347
Raw,87,2267,347
Raw,167,2268,347
Raw,195,2269,347
Raw,202,2270,347
Raw,193,2271,347
Raw,198,2273,347
Raw,217,2274,347
Raw,194,2275,347
Raw,146,2276,347
Raw,194,2277,347
Raw,195,2278,347
Raw,76,2278,347
Raw,189,2280,347
Raw,353,2281,347
Raw,115,2282,347
Raw,177,2283,347
Raw,159,2284,347
Raw,130,2285,347
Raw,88,2286,347
Raw,279,2287,347
Raw,142,2288,347
Raw,181,2289,347
Raw,181,2290,347
Raw,197,2291,347
Raw,69,2291,347
Raw,189,2292,347
Raw,190,2293,347
Raw,223,2294,347
Raw,208,2296,347
Raw,183,2297,347
Raw,214,2298,347
Raw,128,2299,347
Raw,230,2300,347
Raw,184,2301,347
Raw,223,2302,347
Raw,172,2303,347
Raw,155,2304,347
Raw,116,2306,347
Raw,80,2307,347
Raw,184,2308,347
Raw,187,2309,347
Raw,219,2310,347
Raw,125,2311,347
Raw,197,2312,347
Raw,193,2313,347
Raw,296,2314,347
Raw,203,2315,347
Raw,107,2316,347
Raw,192,2317,347
Raw,126,2318,347
Raw,203,2320,347
Raw,34,2320,347
Raw,209,2321,347
Raw,108,2322,347
Raw,215,2323,347
Raw,170,2324,347
Raw,205,2326,347
Raw,190,2327,347
Raw,198,2328,347
Raw,210,2329,347
Raw,206,2330,347
Raw,188,2331,347
Raw,123,2332,347
Raw,288,2333,347
Raw,233,2334,347
Raw,213,2338,347
Raw,193,2339,347
Raw,203,2341,347
Raw,110,2342,347
Raw,217,2343,347
Raw,54,2343,347
Raw,132,2345,347
Raw,197,2347,347
Raw,179,2348,347
Raw,224,2349,347
Raw,201,2350,347
Raw,199,2352,347
Raw,178,2353,347
Raw,210,2355,347
Raw,198,2356,347
Raw,108,2357,347
Raw,194,2358,347
Raw,189,2359,347
Raw,200,2360,347
Raw,121,2361,347
Raw,4,2361,347
Raw,142,2362,347
Raw,200,2363,347
Raw,205,2364,347
Raw,202,2365,347
Raw,93,2366,347
Raw,189,2367,347
Raw,180,2368,347
Raw,201,2369,347
Raw,31,2369,347
Raw,168,2370,347
Raw,114,2371,347
Raw,178,2372,347
Raw,206,2374,347
Raw,188,2375,347
Raw,104,2376,347
Raw,211,2377,347
Raw,204,2378,347
Raw,86,2380,347
Raw,63,2380,347
Raw,179,2381,347
Raw,87,2381,347
Raw,162,2382,347
Raw,121,2383,347
Raw,190,2384,347
Raw,193,2385,347
Raw,231,2386,347
Raw,199,2387,347
Raw,97,2388,347
Raw,162,2389,347
Raw,219,2390,347
Raw,179,2391,347
Raw,45,2391,347
Raw,171,2392,347
Raw,202,2393,347
Raw,192,2394,347
Raw,137,2395,347
Raw,109,2396,347
Raw,101,2397,347
Raw,120,2398,347
Raw,153,2399,347
Raw,213,2401,347
Raw,110,2402,347
Raw,121,2403,347
Raw,221,2405,347
Raw,116,2407,347
Raw,205,2408,347
Raw,223,2409,347
Raw,89,2409,347
Raw,87,2410,347
Raw,188,2411,347
Raw,216,2412,347
Raw,292,2414,347
Raw,195,2415,347
Raw,208,2416,347
Raw,214,2419,347
Raw,167,2421,347
Raw,216,2422,347
Raw,188,2423,347
Raw,208,2424,347
Raw,151,2425,347
Raw,237,2426,347
Raw,179,2428,347
Raw,209,2429,347
Raw,274,2430,347
Raw,318,2431,347
Raw,209,2432,347
Raw,212,2433,347
Raw,218,2435,347
Raw,207,2436,347
Raw,194,2437,347
Raw,152,2438,347
Raw,118,2439,347
Raw,164,2440,347
Raw,192,2441,347
Raw,92,2442,347
Raw,209,2443,347
Raw,219,2444,347
Raw,210,2445,347
Raw,114,2446,347
Raw,172,2447,347
Raw,200,2449,347
Raw,193,2450,347
Raw,197,2452,347
Raw,173,2453,347
Raw,197,2454,347
Raw,150,2455,347
Raw,197,2456,347
Raw,207,2460,347
Raw,190,2461,347
Raw,216,2462,347
Raw,174,2463,347
Raw,170,2464,347
Raw,250,2465,347
Raw,189,2466,347
Raw,201,2467,347
Raw,222,2468,347
Raw,163,2469,347
Raw,15,2469,347
Raw,204,2470,347
Raw,180,2471,347
Raw,145,2472,347
Raw,153,2473,347
Raw,194,2474,347
Raw,155,2475,347
Raw,178,2476,347
Raw,171,2477,347
Raw,188,2478,347
Raw,158,2479,347
Raw,189,2480,347
Raw,198,2481,347
Raw,226,2482,347
Raw,222,2484,347
Raw,116,2485,347
Raw,217,2486,347
Raw,162,2487,347
Raw,218,2488,347
Raw,107,2489,347
Raw,163,2490,347
Raw,183,2491,347
Raw,177,2492,347
Raw,200,2493,347
Raw,202,2494,347
Raw,183,2495,347
Raw,197,2496,347
Raw,138,2497,347
Raw,166,2498,347
Raw,199,2499,347
Raw,182,2500,347
Raw,204,2501,347
Raw,206,2502,347
Raw,134,2503,347
Raw,215,2504,347
Raw,169,2506,347
Raw,195,2507,347
Raw,279,2508,347
Raw,220,2509,347
Raw,91,2511,347
Raw,239,2513,347
Raw,102,2515,347
Raw,225,2516,347
Raw,156,2517,347
Raw,180,2518,347
Raw,237,2519,347
Raw,171,2520,347
Raw,161,2522,347
Raw,190,2523,347
Raw,203,2524,347
Raw,304,2525,347
Raw,196,2526,347
Raw,200,2527,347
Raw,169,2528,347
Raw,287,2529,347
Raw,206,2530,347
Raw,178,2531,347
Raw,186,2532,347
Raw,207,2533,347
Raw,193,2534,347
Raw,228,2536,347
Raw,168,2537,347
Raw,207,2538,347
Raw,187,2539,347
Raw,234,2541,347
Raw,193,2542,347
Raw,155,2544,347
Raw,209,2545,347
Raw,146,2546,347
Raw,219,2547,347
Raw,166,2549,347
Raw,137,2550,347
Raw,210,2551,347
Raw,200,2552,347
Raw,200,2553,347
Raw,183,2554,347
Raw,144,2555,347
Raw,173,2556,347
Raw,33,2556,347
Raw,109,2557,347
Raw,186,2558,347
Raw,174,2560,347
Raw,82,2560,347
Raw,197,2561,347
Raw,208,2562,347
Raw,157,2563,347
Raw,223,2565,347
Raw,181,2566,347
Raw,191,2567,347
Raw,194,2568,347
Raw,193,2569,347
Raw,205,2572,347
Raw,190,2574,347
Raw,179,2575,347
Raw,182,2578,347
Raw,190,2580,347
Raw,222,2581,347
Raw,156,2582,347
Raw,88,2582,347
Raw,161,2583,347
Raw,104,2584,347
Raw,215,2585,347
Raw,112,2586,347
Raw,208,2587,347
Raw,158,2588,347
Raw,66,2589,347
Raw,215,2590,347
Raw,205,2591,347
Raw,213,2593,347
Raw,223,2594,347
Raw,193,2596,347
Raw,233,2597,347
Raw,140,2598,347
Raw,213,2599,347
Raw,192,2600,347
Raw,176,2601,347
Raw,95,2602,347
Raw,184,2604,347
Raw,68,2605,347
Raw,187,2606,347
Raw,99,2607,347
Raw,162,2608,347
Raw,142,2609,347
Raw,192,2610,347
Raw,9,2610,347
Raw,176,2611,347
Raw,194,2612,347
Raw,139,2613,347
Raw,160,2614,347
Raw,42,2614,347
Raw,183,2617,347
Raw,191,2618,347
Raw,204,2619,347
Raw,120,2622,347
Raw,263,2624,347
Raw,90,2625,347
Raw,137,2627,347
Raw,244,2628,347
Raw,152,2629,347
Raw,298,2631,347
Raw,172,2633,347
Raw,160,2634,347
Raw,188,2635,347
Raw,117,2636,347
Raw,260,2637,347
Raw,179,2638,347
Raw,178,2639,347
Raw,204,2640,347
Raw,103,2641,347
Raw,102,2641,347
Raw,195,2642,347
Raw,168,2643,347
Raw,199,2645,347
Raw,137,2646,347
Raw,223,2647,347
Raw,156,2649,347
Raw,180,2650,347
Raw,195,2651,347
Raw,174,2652,347
Raw,227,2653,347
Raw,150,2654,347
Raw,210,2655,347
Raw,170,2656,347
Raw,214,2657,347
Raw,155,2658,347
Raw,159,2659,347
Raw,192,2660,347
Raw,180,2661,347
Raw,208,2662,347
Raw,191,2663,347
Raw,185,2665,347
Raw,201,2666,347
Raw,93,2668,347
Raw,34,2668,347
Raw,126,2669,347
Raw,278,2670,347
Raw,185,2671,347
Raw,172,2673,347
Raw,116,2674,347
Raw,206,2676,347
Raw,190,2677,347
Raw,168,2678,347
Raw,199,2679,347
Raw,110,2681,347
Raw,196,2682,347
Raw,193,2683,347
Raw,203,2684,347
Raw,222,2686,347
Raw,193,2687,347
Raw,196,2688,347
Raw,184,2689,347
Raw,211,2690,347
Raw,194,2691,347
Raw,94,2692,347
Raw,163,2693,347
Raw,166,2695,347
Raw,224,2696,347
Raw,155,2697,347
Raw,202,2701,347
Raw,208,2702,347
Raw,180,2703,347
Raw,126,2705,347
Raw,170,2706,347
Raw,222,2708,347
Raw,185,2710,347
Raw,147,2711,347
Raw,216,2713,347
Raw,197,2714,347
Raw,205,2715,347
Raw,203,2717,347
Raw,165,2718,347
Raw,199,2719,347
Raw,190,2720,347
Raw,203,2721,347
Raw,154,2722,347
Raw,216,2723,347
Raw,99,2724,347
Raw,139,2725,347
Raw,174,2726,347
Raw,67,2727,347
Raw,195,2727,347
Raw,180,2729,347
Raw,182,2731,347
Raw,162,2732,347
Raw,110,2733,347
Raw,203,2735,347
Raw,220,2736,347
Raw,196,2737,347
Raw,200,2738,347
Raw,119,2739,347
Raw,169,2740,347
Raw,101,2741,347
Raw,219,2745,347
Raw,167,2746,347
Raw,156,2747,347
Raw,182,2748,347
Raw,187,2750,347
Raw,122,2751,347
Raw,164,2752,347
Raw,223,2753,347
Raw,161,2754,347
Raw,162,2755,347
Raw,213,2756,347
Raw,142,2758,347
Raw,203,2759,347
Raw,178,2760,347
Raw,206,2761,347
Raw,147,2762,347
Raw,212,2763,347
Raw,205,2764,347
Raw,104,2765,347
Raw,197,2766,347
Raw,209,2767,347
Raw,171,2768,347
Raw,253,2769,347
Raw,222,2770,347
Raw,148,2771,347
Raw,209,2772,347
Raw,196,2773,347
Raw,139,2775,347
Raw,180,2776,347
Raw,224,2777,347
Raw,188,2778,347
Raw,191,2779,347
Raw,187,2780,347
Raw,205,2781,347
Raw,187,2783,347
Raw,82,2783,347
Raw,202,2784,347
Raw,194,2785,347
Raw,198,2786,347
Raw,196,2787,347
Raw,188,2788,347
Raw,167,2789,347
Raw,49,2789,347
Raw,207,2790,347
Raw,193,2793,347
Raw,146,2794,347
Raw,206,2795,347
Raw,133,2797,347
Raw,216,2798,347
Raw,179,2799,347
Raw,85,2800,347
Raw,205,2801,347
Raw,221,2803,347
Raw,219,2804,347
Raw,206,2805,347
Raw,226,2806,347
Raw,208,2807,347
Raw,25,2807,347
Raw,184,2808,347
Raw,55,2808,347
Raw,180,2809,347
Raw,161,2810,347
Raw,212,2812,347
Raw,186,2813,347
Raw,182,2815,347
Raw,209,2816,347
Raw,214,2817,347
Raw,203,2818,347
Raw,175,2819,347
Raw,94,2820,347
Raw,190,2821,347
Raw,151,2822,347
Raw,212,2823,347
Raw,253,2825,347
Raw,167,2826,347
Raw,182,2827,347
Raw,174,2828,347
Raw,217,2829,347
Raw,123,2830,347
Raw,212,2831,347
Raw,192,2832,347
Raw,208,2835,347
Raw,179,2836,347
Raw,194,2837,347
Raw,87,2839,347
Raw,199,2840,347
Raw,168,2842,347
Raw,206,2843,347
Raw,196,2844,347
Raw,204,2846,347
Raw,195,2847,347
Raw,152,2848,347
Raw,184,2849,347
Raw,148,2850,347
Raw,199,2851,347
Raw,210,2852,347
Raw,156,2853,347
Raw,95,2854,347
Raw,276,2855,347
Raw,215,2856,347
Raw,218,2857,347
Raw,177,2858,347
Raw,200,2861,347
Raw,148,2864,347
Raw,213,2866,347
Raw,180,2867,347
Raw,217,2868,347
Raw,226,2869,347
Raw,172,2871,347
Raw,222,2872,347
Raw,183,2873,347
Raw,223,2874,347
Raw,126,2875,347
Raw,62,2875,347
Raw,164,2876,347
Raw,106,2877,347
Raw,198,2879,347
Raw,392,2880,347
Raw,202,2881,347
Raw,199,2882,347
Raw,227,2883,347
Raw,216,2884,347
Raw,193,2885,347
Raw,170,2886,347
Raw,192,2887,347
Raw,61,2887,347
Raw,105,2889,347
Raw,206,2890,347
Raw,138,2891,347
Raw,203,2892,347
Raw,195,2894,347
Raw,108,2895,347
Raw,164,2896,347
Raw,108,2897,347
Raw,187,2899,347
Raw,189,2900,347
Raw,216,2901,347
Raw,205,2902,347
Raw,193,2903,347
Raw,143,2906,347
Raw,206,2907,347
Raw,159,2908,347
Raw,195,2909,347
Raw,214,2910,347
Raw,167,2911,347
Raw,172,2912,347
Raw,211,2913,347
Raw,205,2914,347
Raw,218,2915,347
Raw,209,2916,347
Raw,204,2917,347
Raw,164,2918,347
Raw,187,2920,347
Raw,198,2922,347
Raw,183,2923,347
Raw,57,2923,347
Raw,225,2924,347
Raw,157,2925,347
Raw,113,2926,347
Raw,200,2929,347
Raw,116,2930,347
Raw,126,2931,347
Raw,97,2932,347
Raw,216,2933,347
Raw,216,2934,347
Raw,196,2935,347
Raw,188,2936,347
Raw,206,2937,347
Raw,98,2938,347
Raw,317,2940,347
Raw,138,2941,347
Raw,180,2942,347
Raw,195,2943,347
Raw,133,2944,347
Raw,11,2944,347
Raw,149,2945,347
Raw,171,2946,347
Raw,57,2946,347
Raw,170,2947,347
Raw,146,2948,347
Raw,483,2950,347
Raw,41,2950,347
Raw,167,2952,347
Raw,153,2953,347
Raw,177,2954,347
Raw,197,2955,347
Raw,199,2956,347
Raw,200,2958,347
Raw,199,2959,347
Raw,96,2960,347
Raw,201,2961,347
Raw,96,2962,347
Raw,91,2963,347
Raw,171,2964,347
Raw,196,2965,347
Raw,201,2966,347
Raw,101,2967,347
Raw,196,2968,347
Raw,93,2969,347
Raw,211,2970,347
Raw,164,2971,347
Raw,166,2972,347
Raw,193,2973,347
Raw,194,2975,347
Raw,183,2976,347
Raw,202,2977,347
Raw,170,2978,347
Raw,208,2981,347
Raw,111,2982,347
Raw,145,2983,347
Raw,89,2983,347
Raw,26,2983,347
Raw,195,2984,347
Raw,205,2985,347
Raw,192,2986,347
Raw,188,2987,347
Raw,165,2988,347
Raw,232,2989,347
Raw,169,2990,347
Raw,110,2991,347
Raw,111,2992,347
Raw,189,2993,347
Raw,140,2994,347
Raw,242,2995,347
Raw,184,2996,347
Raw,199,2997,347
Raw,203,2998,347
Raw,215,2999,347
Raw,96,3000,347
Raw,198,3003,347
Raw,191,3004,347
Raw,142,3005,347
Raw,198,3006,347
Raw,222,3007,347
Raw,183,3008,347
Raw,163,3009,347
Raw,110,3010,347
Raw,197,3011,347
Raw,224,3012,347
Raw,206,3014,347
Raw,198,3015,347
Raw,191,3016,347
Raw,204,3017,347
Raw,216,3018,347
Raw,148,3019,347
Raw,155,3020,347
Raw,213,3022,347
Raw,208,3023,347
Raw,208,3025,347
Raw,198,3027,347
Raw,222,3028,347
Raw,296,3029,347
Raw,173,3031,347
Raw,74,3031,347
Raw,149,3032,347
Raw,206,3033,347
Raw,185,3034,347
Raw,197,3035,347
Raw,90,3036,347
Raw,148,3037,347
Raw,166,3038,347
Raw,202,3039,347
Raw,204,3040,347
Raw,191,3041,347
Raw,187,3046,347
Raw,177,3047,347
Raw,198,3048,347
Raw,169,3049,347
Raw,136,3051,347
Raw,207,3052,347
Raw,101,3053,347
Raw,131,3054,347
Raw,102,3055,347
Raw,549,3056,347
Raw,123,3056,347
Raw,208,3057,347
Raw,173,3058,347
Raw,179,3059,347
Raw,209,3060,347
Raw,196,3061,347
Raw,156,3062,347
Raw,194,3063,347
Raw,114,3064,347
Raw,233,3065,347
Raw,76,3067,347
Raw,291,3069,347
Raw,203,3071,347
Raw,204,3072,347
Raw,105,3073,347
Raw,109,3074,347
Raw,179,3075,347
Raw,204,3076,347
Raw,208,3077,347
Raw,96,3078,347
Raw,228,3079,347
Raw,277,3080,347
Raw,164,3084,347
Raw,170,3086,347
Raw,190,3087,347
Raw,247,3088,347
Raw,109,3089,347
Raw,160,3090,347
Raw,207,3094,347
Raw,191,3095,347
Raw,204,3096,347
Raw,216,3097,347
Raw,199,3099,347
Raw,211,3103,347
Raw,93,3104,347
Raw,224,3105,347
Raw,188,3106,347
Raw,88,3107,347
Raw,198,3109,347
Raw,182,3110,347
Raw,189,3111,347
Raw,219,3112,347
Raw,197,3113,347
Raw,140,3114,347
Raw,183,3115,347
Raw,208,3116,347
Raw,208,3117,347
Raw,180,3118,347
Raw,184,3119,347
Raw,183,3120,347
Raw,132,3122,347
Raw,35,3122,347
Raw,194,3125,347
Raw,160,3126,347
Raw,184,3127,347
Raw,128,3128,347
Raw,146,3129,347
Raw,55,3129,347
Raw,194,3131,347
Raw,331,3132,347
Raw,167,3133,347
Raw,119,3134,347
Raw,142,3135,347
Raw,165,3136,347
Raw,122,3137,347
Raw,3,3137,347
Raw,86,3138,347
Raw,125,3139,347
Raw,197,3140,347
Raw,217,3141,347
Raw,211,3142,347
Raw,216,3143,347
Raw,121,3144,347
Raw,312,3145,347
Raw,210,3146,347
Raw,190,3147,347
Raw,213,3149,347
Raw,211,3151,347
Raw,140,3152,347
Raw,198,3153,347
Raw,167,3154,347
Raw,221,3157,347
Raw,191,3158,347
Raw,112,3159,347
Raw,194,3160,347
Raw,154,3162,347
Raw,159,3164,347
Raw,222,3165,347
Raw,194,3166,347
Raw,196,3167,347
Raw,96,3168,347
Raw,219,3170,347
Raw,156,3171,347
Raw,199,3173,347
Raw,206,3175,347
Raw,194,3178,347
Raw,104,3179,347
Raw,110,3181,347
Raw,134,3182,347
Raw,98,3185,347
Raw,184,3186,347
Raw,197,3187,347
Raw,99,3188,347
Raw,162,3189,347
Raw,156,3190,347
Raw,211,3192,347
Raw,199,3193,347
Raw,92,3194,347
Raw,170,3195,347
Raw,176,3197,347
Raw,206,3198,347
Raw,193,3199,347
Raw,202,3201,347
Raw,196,3202,347
Raw,172,3203,347
Raw,194,3204,347
Raw,177,3205,347
Raw,188,3206,347
Raw,106,3207,347
Raw,210,3209,347
Raw,177,3211,347
Raw,86,3212,347
Raw,88,3213,347
Raw,188,3214,347
Raw,198,3215,347
Raw,210,3219,347
Raw,211,3222,347
Raw,178,3223,347
Raw,167,3225,347
Raw,238,3226,347
Raw,284,3227,347
Raw,193,3228,347
Raw,183,3229,347
Raw,89,3230,347
Raw,195,3231,347
Raw,196,3232,347
Raw,207,3233,347
Raw,149,3234,347
Raw,128,3235,347
Raw,219,3236,347
Raw,132,3237,347
Raw,181,3238,347
Raw,190,3239,347
Raw,209,3240,347
Raw,191,3241,347
Raw,203,3242,347
Raw,243,3244,347
Raw,171,3246,347
Raw,184,3247,347
Raw,191,3248,347
Raw,156,3249,347
Raw,150,3250,347
Raw,35,3250,347
Raw,219,3251,347
Raw,184,3252,347
Raw,184,3253,347
Raw,178,3254,347
Raw,217,3255,347
Raw,74,3255,347
Raw,70,3255,347
Raw,187,3256,347
Raw,191,3257,347
Raw,146,3258,347
Raw,177,3260,347
Raw,127,3261,347
Raw,174,3262,347
Raw,193,3263,347
Raw,252,3265,347
Raw,250,3266,347
Raw,165,3267,347
Raw,206,3268,347
Raw,187,3270,347
Raw,207,3271,347
Raw,96,3272,347
Raw,237,3273,347
Raw,161,3274,347
Raw,176,3275,347
Raw,179,3276,347
Raw,195,3277,347
Raw,205,3278,347
Raw,203,3279,347
Raw,209,3280,347
Raw,213,3281,347
Raw,319,3282,347
Raw,226,3285,347
Raw,185,3286,347
Raw,193,3288,347
Raw,193,3289,347
Raw,200,3290,347
Raw,183,3291,347
Raw,208,3292,347
Raw,175,3293,347
Raw,81,3293,347
Raw,217,3294,347
Raw,211,3295,347
Raw,176,3296,347
Raw,402,3297,347
Raw,201,3298,347
Raw,192,3299,347
Raw,182,3301,347
Raw,171,3304,347
Raw,188,3305,347
Raw,186,3307,347
Raw,187,3308,347
Raw,163,3309,347
Raw,208,3310,347
Raw,151,3311,347
Raw,155,3312,347
Raw,195,3313,347
Raw,99,3314,347
Raw,139,3316,347
Raw,165,3317,347
Raw,211,3318,347
Raw,206,3319,347
Raw,114,3320,347
Raw,193,3321,347
Raw,193,3322,347
Raw,184,3323,347
Raw,177,3325,347
Raw,178,3326,347
Raw,171,3328,347
Raw,172,3329,347
Raw,101,3329,347
Raw,140,3330,347
Raw,95,3331,347
Raw,197,3332,347
Raw,224,3333,347
Raw,87,3334,347
Raw,193,3335,347
Raw,202,3337,347
Raw,201,3340,347
Raw,223,3341,347
Raw,174,3342,347
Raw,191,3343,347
Raw,177,3344,347
Raw,200,3345,347
Raw,212,3346,347
Raw,228,3348,347
Raw,209,3349,347
Raw,206,3350,347
Raw,108,3351,347
Raw,171,3352,347
Raw,206,3354,347
Raw,158,3355,347
Raw,192,3357,347
Raw,88,3358,347
Raw,95,3359,347
Raw,182,3360,347
Raw,179,3361,347
Raw,210,3362,347
Raw,194,3363,347
Raw,207,3366,347
Raw,156,3367,347
Raw,169,3368,347
Raw,189,3369,347
Raw,208,3370,347
Raw,208,3371,347
Raw,158,3373,347
Raw,184,3374,347
Raw,189,3375,347
Raw,197,3376,347
Raw,174,3377,347
Raw,191,3378,347
Raw,268,3379,347
Raw,220,3381,347
Raw,153,3382,347
Raw,160,3383,347
Raw,43,3383,347
Raw,51,3383,347
Raw,222,3384,347
Raw,197,3385,347
Raw,187,3386,347
Raw,82,3386,347
Raw,263,3387,347
Raw,194,3388,347
Raw,227,3390,347
Raw,189,3391,347
Raw,62,3391,347
Raw,202,3392,347
Raw,206,3394,347
Raw,158,3395,347
Raw,134,3396,347
Raw,148,3397,347
Raw,306,3398,347
Raw,194,3399,347
Raw,193,3400,347
Raw,266,3402,347
Raw,98,3403,347
Raw,138,3404,347
Raw,176,3405,347
Raw,181,3406,347
Raw,198,3407,347
Raw,190,3408,347
Raw,229,3409,347
Raw,176,3410,347
Raw,211,3411,347
Raw,218,3412,347
Raw,224,3413,347
Raw,176,3414,347
Raw,246,3415,347
Raw,176,3416,347
Raw,194,3417,347
Raw,84,3417,347
Raw,186,3418,347
Raw,205,3419,347
Raw,216,3420,347
Raw,102,3421,347
Raw,173,3422,347
Raw,188,3423,347
Raw,79,3424,347
Raw,112,3424,347
Raw,205,3426,347
Raw,122,3427,347
Raw,99,3428,347
Raw,188,3429,347
Raw,154,3430,347
Raw,197,3432,347
Raw,58,3433,347
Raw,192,3433,347
Raw,218,3434,347
Raw,226,3435,347
Raw,119,3436,347
Raw,211,3437,347
Raw,40,3437,347
Raw,122,3438,347
Raw,185,3439,347
Raw,203,3440,347
Raw,175,3441,347
Raw,130,3442,347
Raw,203,3443,347
Raw,196,3444,347
Raw,174,3446,347
Raw,167,3447,347
Raw,208,3448,347
Raw,184,3449,347
Raw,219,3450,347
Raw,198,3451,347
Raw,179,3452,347
Raw,91,3453,347
Raw,212,3454,347
Raw,214,3455,347
Raw,173,3458,347
Raw,184,3459,347
Raw,160,3460,347
Raw,154,3461,347
Raw,182,3462,347
Raw,224,3463,347
Raw,22,3463,347
Raw,196,3464,347
Raw,205,3465,347
Raw,192,3466,347
Raw,193,3469,347
Raw,154,3470,347
Raw,206,3471,347
Raw,99,3472,347
Raw,203,3473,347
Raw,220,3474,347
Raw,143,3475,347
Raw,187,3476,347
Raw,132,3477,347
Raw,200,3478,347
Raw,164,3479,347
Raw,266,3481,347
Raw,193,3482,347
Raw,212,3483,347
Raw,212,3484,347
Raw,211,3485,347
Raw,202,3486,347
Raw,229,3487,347
Raw,11,3487,347
Raw,151,3488,347
Raw,183,3489,347
Raw,190,3490,347
Raw,204,3491,347
Raw,146,3492,347
Raw,186,3493,347
Raw,202,3494,347
Raw,213,3495,347
Raw,104,3496,347
Raw,206,3499,347
Raw,173,3500,347
Raw,231,3501,347
Raw,208,3502,347
Raw,57,3502,347
Raw,185,3503,347
Raw,199,3505,347
Raw,96,3506,347
Raw,20,3506,347
Raw,148,3507,347
Raw,110,3508,347
Raw,202,3509,347
Raw,225,3510,347
Raw,198,3511,347
Raw,197,3512,347
Raw,191,3513,347
Raw,162,3514,347
Raw,172,3515,347
Raw,146,3518,347
Raw,221,3519,347
Raw,168,3520,347
Raw,103,3521,347
Raw,181,3522,347
Raw,124,3523,347
Raw,190,3524,347
Raw,190,3525,347
Raw,186,3526,347
Raw,201,3528,347
Raw,203,3529,347
Raw,199,3530,347
Raw,72,3530,347
Raw,189,3531,347
Raw,223,3532,347
Raw,214,3533,347
Raw,171,3535,347
Raw,140,3536,347
Raw,222,3538,347
Raw,196,3539,347
Raw,201,3541,347
Raw,170,3542,347
Raw,158,3544,347
Raw,195,3545,347
Raw,196,3546,347
Raw,147,3547,347
Raw,200,3548,347
Raw,172,3549,347
Raw,202,3550,347
Raw,226,3551,347
Raw,42,3551,347
Raw,171,3552,347
Raw,191,3553,347
Raw,187,3554,347
Raw,155,3556,347
Raw,174,3557,347
Raw,196,3558,347
Raw,178,3559,347
Raw,170,3560,347
Raw,197,3561,347
Raw,212,3562,347
Raw,198,3563,347
Raw,196,3564,347
Raw,222,3565,347
Raw,196,3566,347
Raw,175,3567,347
Raw,112,3568,347
Raw,203,3569,347
Raw,203,3570,347
Raw,219,3572,347
Raw,194,3574,347
Raw,155,3575,347
Raw,196,3577,347
Raw,226,3578,347
Raw,170,3579,347
Raw,192,3580,347
Raw,186,3582,347
Raw,199,3583,347
Raw,286,3584,347
Raw,130,3585,347
Raw,195,3586,347
Raw,204,3587,347
Raw,177,3589,347
Raw,58,3589,347
Raw,195,3591,347
Raw,99,3592,347
Raw,105,3593,347
Raw,111,3594,347
Raw,190,3595,347
Raw,184,3597,347
Raw,111,3599,347
Raw,196,3600,347
Raw,202,3601,347
Raw,91,3602,347
Raw,149,3604,347
Raw,167,3605,347
Raw,9,3605,347
Raw,153,3607,347
Raw,192,3608,347
Raw,198,3609,347
Raw,163,3611,347
Raw,215,3613,347
Raw,135,3614,347
Raw,207,3615,347
Raw,206,3616,347
Raw,212,3617,347
Raw,68,3617,347
Raw,63,3617,347
Raw,197,3618,347
Raw,214,3619,347
Raw,210,3620,347
Raw,195,3621,347
Raw,189,3622,347
Raw,94,3623,347
Raw,160,3624,347
Raw,196,3625,347
Raw,208,3626,347
Raw,66,3627,347
Raw,107,3627,347
Raw,104,3628,347
Raw,170,3629,347
Raw,145,3630,347
Raw,151,3631,347
Raw,195,3632,347
Raw,139,3633,347
Raw,220,3634,347
Raw,173,3635,347
Raw,191,3636,347
Raw,185,3637,347
Raw,149,3641,347
Raw,203,3642,347
Raw,189,3643,347
Raw,151,3644,347
Raw,204,3647,347
Raw,199,3648,347
Raw,224,3649,347
Raw,198,3651,347
Raw,100,3652,347
Raw,181,3653,347
Raw,95,3655,347
Raw,187,3656,347
Raw,211,3657,347
Raw,92,3658,347
Raw,56,3658,347
Raw,153,3659,347
Raw,136,3660,347
Raw,194,3662,347
Raw,93,3664,347
Raw,212,3665,347
Raw,199,3667,347
Raw,186,3668,347
Raw,171,3669,347
Raw,196,3670,347
Raw,127,3672,347
Raw,200,3673,347
Raw,212,3674,347
Raw,188,3675,347
Raw,204,3676,347
Raw,186,3677,347
Raw,40,3678,347
Raw,128,3679,347
Raw,192,3681,347
Raw,205,3682,347
Raw,150,3684,347
Raw,204,3685,347
Raw,260,3686,347
Raw,214,3687,347
Raw,219,3688,347
Raw,46,3689,347
Raw,217,3690,347
Raw,138,3692,347
Raw,105,3694,347
Raw,164,3695,347
Raw,189,3696,347
Raw,155,3697,347
Raw,217,3698,347
Raw,205,3699,347
Raw,261,3703,347
Raw,162,3704,347
Raw,72,3704,347
Raw,147,3705,347
Raw,161,3707,347
Raw,186,3708,347
Raw,198,3709,347
Raw,190,3710,347
Raw,93,3711,347
Raw,208,3712,347
Raw,193,3713,347
Raw,225,3714,347
Raw,209,3715,347
Raw,146,3717,347
Raw,183,3721,347
Raw,179,3722,347
Raw,212,3723,347
Raw,173,3726,347
Raw,213,3727,347
Raw,201,3728,347
Raw,193,3729,347
Raw,148,3730,347
Raw,151,3731,347
Raw,108,3732,347
Raw,174,3733,347
Raw,198,3734,347
Raw,201,3735,347
Raw,204,3736,347
Raw,218,3737,347
Raw,204,3738,347
Raw,204,3739,347
Raw,227,3741,347
Raw,201,3742,347
Raw,134,3743,347
Raw,187,3744,347
Raw,209,3745,347
Raw,165,3746,347
Raw,200,3747,347
Raw,158,3748,347
Raw,206,3749,347
Raw,61,3749,347
Raw,229,3750,347
Raw,193,3751,347
Raw,93,3752,347
Raw,195,3753,347
Raw,200,3754,347
Raw,216,3755,347
Raw,192,3756,347
Raw,212,3757,347
Raw,255,3758,347
Raw,219,3759,347
Raw,137,3761,347
Raw,163,3762,347
Raw,168,3763,347
Raw,203,3765,347
Raw,195,3766,347
Raw,223,3767,347
Raw,105,3768,347
Raw,237,3769,347
Raw,198,3771,347
Raw,195,3773,347
Raw,154,3775,347
Raw,194,3776,347
Raw,102,3777,347
Raw,147,3778,347
Raw,191,3780,347
Raw,138,3781,347
Raw,157,3782,347
Raw,200,3783,347
Raw,164,3784,347
Raw,189,3785,347
Raw,201,3786,347
Raw,194,3787,347
Raw,187,3788,347
Raw,129,3790,347
Raw,173,3791,347
Raw,149,3792,347
Raw,283,3793,347
Raw,194,3794,347
Raw,175,3795,347
Raw,151,3797,347
Raw,248,3798,347
Raw,163,3799,347
Raw,88,3799,347
Raw,202,3801,347
Raw,182,3802,347
Raw,176,3803,347
Raw,199,3804,347
Raw,209,3806,347
Raw,196,3807,347
Raw,96,3808,347
Raw,194,3810,347
Raw,199,3812,347
Raw,143,3813,347
Raw,199,3815,347
Raw,277,3816,347
Raw,105,3817,347
Raw,182,3818,347
Raw,180,3819,347
Raw,182,3820,347
Raw,159,3821,347
Raw,218,3822,347
Raw,179,3823,347
Raw,207,3824,347
Raw,172,3826,347
Raw,96,3827,347
Raw,195,3828,347
Raw,185,3829,347
Raw,230,3830,347
Raw,46,3832,347
Raw,222,3833,347
Raw,201,3834,347
Raw,199,3836,347
Raw,90,3837,347
Raw,180,3838,347
Raw,218,3840,347
Raw,301,3842,347
Raw,186,3845,347
Raw,163,3847,347
Raw,195,3848,347
Raw,121,3849,347
Raw,205,3850,347
Raw,99,3852,347
Raw,192,3853,347
Raw,186,3854,347
Raw,173,3855,347
Raw,180,3856,347
Raw,195,3859,347
Raw,217,3862,347
Raw,147,3864,347
Raw,177,3865,347
Raw,199,3867,347
Raw,202,3868,347
Raw,143,3869,347
Raw,211,3870,347
Raw,201,3871,347
Raw,189,3874,347
Raw,220,3875,347
Raw,173,3876,347
Raw,188,3877,347
Raw,164,3879,347
Raw,318,3880,347
Raw,195,3881,347
Raw,148,3882,347
Raw,172,3883,347
Raw,173,3884,347
Raw,174,3885,347
Raw,201,3886,347
Raw,193,3887,347
Raw,205,3889,347
Raw,177,3890,347
Raw,193,3891,347
Raw,127,3892,347
Raw,175,3895,347
Raw,166,3896,347
Raw,171,3897,347
Raw,181,3898,347
Raw,62,3898,347
Raw,206,3901,347
Raw,185,3902,347
Raw,202,3903,347
Raw,208,3904,347
Raw,170,3906,347
Raw,140,3907,347
Raw,164,3909,347
Raw,215,3910,347
Raw,117,3911,347
Raw,188,3912,347
Raw,209,3913,347
Raw,93,3914,347
Raw,190,3915,347
Raw,191,3916,347
Raw,173,3917,347
Raw,100,3918,347
Raw,189,3919,347
Raw,228,3920,347
Raw,48,3920,347
Raw,226,3921,347
Raw,299,3922,347
Raw,201,3923,347
Raw,221,3924,347
Raw,60,3924,347
Raw,228,3925,347
Raw,210,3926,347
Raw,206,3927,347
Raw,191,3930,347
Raw,190,3931,347
Raw,197,3932,347
Raw,221,3933,347
Raw,186,3934,347
Raw,168,3935,347
Raw,168,3937,347
Raw,198,3938,347
Raw,101,3939,347
Raw,202,3940,347
Raw,98,3941,347
Raw,187,3942,347
Raw,199,3943,347
Raw,199,3944,347
Raw,208,3945,347
Raw,89,3946,347
Raw,198,3947,347
Raw,199,3948,347
Raw,136,3949,347
Raw,203,3950,347
Raw,195,3951,347
Raw,94,3952,347
Raw,104,3953,347
Raw,188,3954,347
Raw,217,3955,347
Raw,169,3956,347
Raw,184,3957,347
Raw,192,3958,347
Raw,195,3959,347
Raw,150,3961,347
Raw,188,3961,347
Raw,114,3962,347
Raw,132,3963,347
Raw,174,3965,347
Raw,205,3968,347
Raw,133,3969,347
Raw,137,3970,347
Raw,212,3971,347
Raw,211,3972,347
Raw,121,3973,347
Raw,179,3974,347
Raw,155,3975,347
Raw,215,3976,347
Raw,173,3977,347
Raw,50,3977,347
Raw,195,3978,347
Raw,201,3980,347
Raw,155,3981,347
Raw,146,3982,347
Raw,201,3983,347
Raw,183,3984,347
Raw,176,3986,347
Raw,210,3987,347
Raw,180,3988,347
Raw,156,3989,347
Raw,101,3990,347
Raw,206,3991,347
Raw,244,3992,347
Raw,109,3993,347
Raw,135,3994,347
Raw,65,3994,347
Raw,212,3996,347
Raw,189,3997,347
Raw,225,3998,347
Raw,197,3999,347
Raw,171,4000,347
Raw,75,4000,347
Raw,135,4001,347
Raw,208,4002,347
Raw,201,4003,347
Raw,183,4004,347
Raw,173,4005,347
Raw,191,4006,347
Raw,202,4009,347
Raw,112,4012,347
Raw,197,4013,347
Raw,125,4014,347
Raw,187,4015,347
Raw,163,4016,347
Raw,200,4017,347
Raw,180,4022,347
Raw,163,4023,347
Raw,190,4024,347
Raw,207,4025,347
Raw,178,4026,347
Raw,206,4027,347
Raw,106,4028,347
Raw,84,4029,347
Raw,195,4030,347
Raw,203,4034,347
Raw,189,4035,347
Raw,32,4035,347
Raw,102,4036,347
Raw,167,4037,347
Raw,229,4038,347
Raw,208,4039,347
Raw,167,4040,347
Raw,194,4041,347
Raw,271,4042,347
Raw,187,4043,347
Raw,180,4045,347
Raw,150,4046,347
Raw,215,4047,347
Raw,226,4048,347
Raw,202,4049,347
Raw,162,4050,347
Raw,196,4051,347
Raw,188,4052,347
Raw,146,4057,347
Raw,180,4058,347
Raw,197,4059,347
Raw,196,4061,347
Raw,208,4062,347
Raw,172,4063,347
Raw,200,4064,347
Raw,103,4066,347
Raw,193,4067,347
Raw,223,4068,347
Raw,203,4070,347
Raw,164,4072,347
Raw,281,4073,347
Raw,202,4074,347
Raw,158,4075,347
Raw,157,4077,347
Raw,214,4078,347
Raw,96,4079,347
Raw,195,4080,347
Raw,134,4081,347
Raw,176,4083,347
Raw,191,4087,347
Raw,111,4088,347
Raw,189,4089,347
Raw,205,4090,347
Raw,174,4091,347
Raw,211,4093,347
Raw,190,4094,347
Raw,191,4095,347
Raw,222,4096,347
Raw,198,4097,347
Raw,116,4098,347
Raw,186,4099,347
Raw,187,4100,347
Raw,205,4102,347
Raw,210,4103,347
Raw,299,4104,347
Raw,319,4105,347
Raw,162,4106,347
Raw,213,4107,347
Raw,202,4108,347
Raw,132,4110,347
Raw,204,4111,347
Raw,145,4112,347
Raw,203,4113,347
Raw,195,4114,347
Raw,198,4115,347
Raw,56,4116,347
Raw,170,4119,347
Raw,222,4120,347
Raw,40,4121,347
Raw,102,4121,347
Raw,101,4122,347
Raw,66,4123,347
Raw,202,4124,347
Raw,207,4125,347
Raw,105,4126,347
Raw,167,4127,347
Raw,142,4128,347
Raw,204,4129,347
Raw,203,4130,347
Raw,221,4131,347
Raw,208,4133,347
Raw,192,4134,347
Raw,192,4135,347
Raw,186,4139,347
Raw,192,4140,347
Raw,157,4141,347
Raw,187,4142,347
Raw,206,4143,347
Raw,313,4144,347
Raw,186,4146,347
Raw,202,4147,347
Raw,157,4148,347
Raw,385,4149,347
Raw,207,4150,347
Raw,161,4151,347
Raw,172,4152,347
Raw,176,4153,347
Raw,186,4155,347
Raw,225,4156,347
Raw,220,4157,347
Raw,187,4158,347
Raw,135,4159,347
Raw,112,4160,347
Raw,96,4161,347
Raw,192,4162,347
Raw,187,4163,347
Raw,168,4165,347
Raw,227,4166,347
Raw,204,4167,347
Raw,211,4168,347
Raw,203,4170,347
Raw,162,4171,347
Raw,218,4173,347
Raw,136,4174,347
Raw,190,4175,347
Raw,136,4176,347
Raw,211,4178,347
Raw,203,4180,347
Raw,132,4181,347
Raw,242,4182,347
Raw,132,4183,347
Raw,111,4184,347
Raw,176,4185,347
Raw,191,4186,347
Raw,226,4187,347
Raw,199,4188,347
Raw,190,4190,347
Raw,204,4192,347
Raw,210,4193,347
Raw,132,4194,347
Raw,171,4195,347
Raw,201,4196,347
Raw,57,4196,347
Raw,214,4197,347
Raw,197,4200,347
Raw,184,4201,347
Raw,184,4203,347
Raw,260,4204,347
Raw,206,4205,347
Raw,201,4206,347
Raw,197,4207,347
Raw,154,4208,347
Raw,141,4209,347
Raw,188,4210,347
Raw,197,4211,347
Raw,189,4212,347
Raw,145,4213,347
Raw,212,4215,347
Raw,108,4216,347
Raw,112,4217,347
Raw,203,4218,347
Raw,165,4219,347
Raw,140,4220,347
Raw,160,4221,347
Raw,163,4222,347
Raw,199,4223,347
Raw,106,4224,347
Raw,185,4225,347
Raw,173,4226,347
Raw,189,4227,347
Raw,35,4227,347
Raw,206,4228,347
Raw,212,4229,347
Raw,112,4230,347
Raw,222,4231,347
Raw,188,4233,347
Raw,24,4234,347
Raw,220,4235,347
Raw,161,4237,347
Raw,94,4238,347
Raw,155,4239,347
Raw,210,4242,347
Raw,99,4244,347
Raw,95,4246,347
Raw,247,4247,347
Raw,188,4248,347
Raw,202,4249,347
Raw,188,4250,347
Raw,197,4251,347
Raw,195,4252,347
Raw,181,4253,347
Raw,201,4254,347
Raw,179,4255,347
Raw,218,4256,347
Raw,180,4257,347
Raw,210,4258,347
Raw,198,4260,347
Raw,196,4261,347
Raw,220,4262,347
Raw,177,4263,347
Raw,198,4264,347
Raw,170,4265,347
Raw,148,4267,347
Raw,127,4268,347
Raw,152,4269,347
Raw,199,4270,347
Raw,203,4271,347
Raw,184,4272,347
Raw,215,4273,347
