Cut?,Counts,eventNumber,runNumber
Raw,5.75366073e+05,0,315
Raw,7.51529767e+05,1,315
Raw,6.37497388e+05,2,315
Raw,6.15284677e+05,3,315
Raw,5.53648122e+05,4,315
Raw,4.45738952e+05,5,315
Raw,6.89947662e+05,6,315
Raw,6.2219618e+05,7,315
Raw,5.50501406e+05,9,315
Raw,2.44704449e+05,11,315
Raw,84845.301,11,315
Raw,6.99408466e+05,12,315
Raw,6.39772376e+05,13,315
Raw,8.23560789e+05,14,315
Raw,4.38608924e+05,15,315
Raw,7.06962002e+05,16,315
Raw,6.20670937e+05,17,315
Raw,5.08465195e+05,18,315
Raw,7.16910319e+05,19,315
Raw,6.5935254e+05,20,315
Raw,6.00242644e+05,21,315
Raw,7.297308e+05,22,315
Raw,6.51651228e+05,23,315
Raw,1.32534097e+06,24,315
Raw,6.77568856e+05,25,315
Raw,7.8110213e+05,26,315
Raw,6.71759236e+05,27,315
Raw,2.42867494e+05,28,315
Raw,6.41721728e+05,29,315
Raw,6.15138368e+05,30,315
Raw,5.97010025e+05,31,315
Raw,6.91481075e+05,32,315
Raw,1.32174866e+05,33,315
Raw,7.06842384e+05,34,315
Raw,7.29810013e+05,35,315
Raw,7.48713051e+05,36,315
Raw,5.65713036e+05,37,315
Raw,7.51329261e+05,38,315
Raw,6.69924618e+05,39,315
Raw,7.0632152e+05,40,315
Raw,5.73414497e+05,41,315
Raw,5.16142579e+05,42,315
Raw,5.46318402e+05,43,315
Raw,5.90985789e+05,44,315
Raw,5.40802119e+05,45,315
Raw,6.81081883e+05,46,315
Raw,5.63349274e+05,47,315
Raw,4.82357549e+05,48,315
Raw,6.41558297e+05,49,315
Raw,4.24389188e+05,49,315
Raw,3.80548207e+05,50,315
Raw,2.24900041e+05,51,315
Raw,3.67279391e+05,52,315
Raw,4.21264424e+05,53,315
Raw,6.68821205e+05,54,315
Raw,6.6010788e+05,55,315
Raw,5.032844e+05,56,315
Raw,3.36876575e+05,57,315
Raw,2.74857469e+05,58,315
Raw,1.43570572e+05,59,315
Raw,2.06827532e+05,60,315
Raw,8.15178379e+05,61,315
Raw,6.33743935e+05,62,315
Raw,6.50324722e+05,63,315
Raw,6.15108509e+05,64,315
Raw,1.02195227e+06,66,315
Raw,4.16263678e+05,67,315
Raw,6.88136866e+05,68,315
Raw,6.47594823e+05,69,315
Raw,4.83582422e+05,70,315
Raw,1.43439511e+05,71,315
Raw,4.4132332e+05,72,315
Raw,1.18262665e+06,74,315
Raw,3.94181968e+05,75,315
Raw,5.33299132e+05,76,315
Raw,8.62958319e+05,77,315
Raw,6.06589215e+05,78,315
Raw,4.2103163e+05,79,315
Raw,6.91400029e+05,80,315
Raw,8.08515447e+05,81,315
Raw,3.56442866e+05,82,315
Raw,6.22527068e+05,83,315
Raw,7.16477473e+05,84,315
Raw,2.24390553e+05,85,315
Raw,6.04854624e+05,86,315
Raw,5.64905636e+05,87,315
Raw,5.94582582e+05,88,315
Raw,7.64013038e+05,89,315
Raw,5.72471837e+05,90,315
Raw,4.96706602e+05,91,315
Raw,5.32988781e+05,92,315
Raw,6.34691839e+05,93,315
Raw,4.60359719e+05,94,315
Raw,6.51043793e+05,95,315
Raw,6.07975008e+05,96,315
Raw,5.68330545e+05,97,315
Raw,1.15432336e+06,98,315
Raw,4.23669747e+05,99,315
Raw,1.16272365e+05,100,315
Raw,8.11958293e+05,101,315
Raw,5.82713293e+05,102,315
Raw,2.98717061e+05,103,315
Raw,6.16264906e+05,104,315
Raw,4.9795585e+05,105,315
Raw,6.05502049e+05,106,315
Raw,6.99168688e+05,108,315
Raw,7.74141535e+05,109,315
Raw,3.06705887e+05,110,315
Raw,5.35636081e+05,111,315
Raw,7.40317677e+05,113,315
Raw,5.81197999e+05,114,315
Raw,1.96445003e+05,115,315
Raw,7.10352003e+05,116,315
Raw,6.08273044e+05,117,315
Raw,5.32092898e+05,118,315
Raw,6.4844578e+05,119,315
Raw,6.10261883e+05,120,315
Raw,5.0518377e+05,121,315
Raw,1.92172782e+05,122,315
Raw,5.74834166e+05,123,315
Raw,8.56093633e+05,124,315
Raw,6.70675827e+05,125,315
Raw,4.82614926e+05,126,315
Raw,5.4442061e+05,127,315
Raw,8.30319304e+05,128,315
Raw,6.23821981e+05,129,315
Raw,4.5481687e+05,130,315
Raw,6.18097581e+05,131,315
Raw,9.85229215e+05,132,315
Raw,2.1852525e+05,133,315
Raw,4.48403199e+05,134,315
Raw,1.21602091e+06,135,315
Raw,1.58292002e+05,136,315
Raw,2.68789528e+05,137,315
Raw,2.27430144e+05,138,315
Raw,6.17138982e+05,139,315
Raw,6.83075674e+05,140,315
Raw,7.64238756e+05,141,315
Raw,6.27314016e+05,142,315
Raw,5.3852321e+05,143,315
Raw,1.07418433e+06,144,315
Raw,1.79968344e+05,145,315
Raw,1.71551393e+05,146,315
Raw,6.07325961e+05,147,315
Raw,6.38230941e+05,148,315
Raw,8.21425752e+05,149,315
Raw,5.365034e+05,150,315
Raw,6.6279067e+05,151,315
Raw,7.29873683e+05,152,315
Raw,1.06622746e+06,153,315
Raw,5.60529093e+05,154,315
Raw,5.90090799e+05,155,315
Raw,3.78524325e+05,156,315
Raw,5.81641436e+05,157,315
Raw,5.49934259e+05,158,315
Raw,5.1139996e+05,159,315
Raw,5.49819249e+05,160,315
Raw,3.83762769e+05,161,315
Raw,1.35674927e+05,162,315
Raw,6.87397313e+05,163,315
Raw,5.63555459e+05,164,315
Raw,6.25289447e+05,165,315
Raw,2.223613e+05,166,315
Raw,4.60650202e+05,167,315
Raw,6.96095256e+05,168,315
Raw,1.05472296e+06,169,315
Raw,1.94434397e+05,170,315
Raw,8.25896265e+05,171,315
Raw,5.71658742e+05,173,315
Raw,6.15737297e+05,174,315
Raw,5.59781562e+05,175,315
Raw,4.32799885e+05,176,315
Raw,5.84543075e+05,177,315
Raw,7.90995443e+05,179,315
Raw,6.55096583e+05,180,315
Raw,4.41051356e+05,181,315
Raw,6.55974928e+05,181,315
Raw,3.58270731e+05,182,315
Raw,6.49847897e+05,183,315
Raw,5.91640416e+05,184,315
Raw,1.26628522e+05,185,315
Raw,4.9807397e+05,186,315
Raw,5.95882679e+05,187,315
Raw,5.83201392e+05,188,315
Raw,5.2564292e+05,189,315
Raw,1.03873962e+06,190,315
Raw,5.30413539e+05,191,315
Raw,6.60981457e+05,192,315
Raw,8.87619087e+05,193,315
Raw,4.59898963e+05,194,315
Raw,6.60100965e+05,195,315
Raw,9.11639932e+05,196,315
Raw,9.73184523e+05,198,315
Raw,6.70329663e+05,199,315
Raw,6.07950921e+05,200,315
Raw,7.22022511e+05,201,315
Raw,8.64614229e+05,202,315
Raw,6.60775198e+05,203,315
Raw,5.23683068e+05,204,315
Raw,6.33942503e+05,205,315
Raw,5.99593401e+05,206,315
Raw,2.07675885e+05,207,315
Raw,7.06249046e+05,208,315
Raw,3.34110635e+05,209,315
Raw,5.67893684e+05,210,315
Raw,4.79024541e+05,211,315
Raw,5.61703321e+05,212,315
Raw,1.02079254e+05,213,315
Raw,7.08066936e+05,214,315
Raw,6.51388339e+05,215,315
Raw,26537.986,215,315
Raw,4.72077898e+05,216,315
Raw,1.44344834e+06,217,315
Raw,7.28131678e+05,218,315
Raw,2.24675418e+05,219,315
Raw,6.54824184e+05,220,315
Raw,3.05601756e+05,221,315
Raw,9931.34,221,315
Raw,5.96154272e+05,222,315
Raw,8.8093593e+05,223,315
Raw,18953.936,223,315
Raw,5.92126883e+05,224,315
Raw,8.91758096e+05,225,315
Raw,5.20735132e+05,228,315
Raw,1.42503631e+06,229,315
Raw,5.05388233e+05,230,315
Raw,5.9550655e+05,231,315
Raw,2.12712371e+05,232,315
Raw,5.83758659e+05,233,315
Raw,5.71558119e+05,234,315
Raw,7.60103809e+05,236,315
Raw,6.64203709e+05,237,315
Raw,2.26959051e+05,238,315
Raw,73508.212,238,315
Raw,4.09089986e+05,239,315
Raw,6.52617273e+05,240,315
Raw,2.8971247e+05,241,315
Raw,3.4539204e+05,242,315
Raw,7.00577936e+05,243,315
Raw,5.35442165e+05,244,315
Raw,3.07903177e+05,245,315
Raw,2.86013272e+05,246,315
Raw,5.79515842e+05,247,315
Raw,8.05157228e+05,248,315
Raw,4.02708573e+05,249,315
Raw,2.84842092e+05,250,315
Raw,5.84027008e+05,251,315
Raw,1.16448918e+05,252,315
Raw,6.99938115e+05,253,315
Raw,6.64353704e+05,254,315
Raw,3.33038815e+05,255,315
Raw,5.18636929e+05,256,315
Raw,6.84321331e+05,257,315
Raw,6.17984491e+05,258,315
Raw,7.21778907e+05,259,315
Raw,5.44501441e+05,260,315
Raw,5.44888994e+05,262,315
Raw,3.40839783e+05,263,315
Raw,2.00553349e+05,264,315
Raw,6.57057869e+05,265,315
Raw,7.76261663e+05,266,315
Raw,6.81881497e+05,267,315
Raw,5.26891932e+05,269,315
Raw,5.54747421e+05,270,315
Raw,5.80537234e+05,271,315
Raw,9.31645972e+05,272,315
Raw,75686.185,272,315
Raw,1.0349159e+06,273,315
Raw,1.08819926e+06,274,315
Raw,3.70087422e+05,275,315
Raw,1.4715981e+05,276,315
Raw,6.89077213e+05,277,315
Raw,7.28436825e+05,278,315
Raw,4.60210567e+05,279,315
Raw,9.00398303e+05,280,315
Raw,5.98492528e+05,281,315
Raw,5.93020325e+05,282,315
Raw,6.08609694e+05,283,315
Raw,5.11778568e+05,284,315
Raw,1.03099166e+06,286,315
Raw,6.4411008e+05,287,315
Raw,7.04277595e+05,288,315
Raw,4.33908748e+05,289,315
Raw,5.83718291e+05,290,315
Raw,6.45200732e+05,291,315
Raw,6.82897983e+05,292,315
Raw,9.39404406e+05,293,315
Raw,4.53442807e+05,294,315
Raw,6.60828399e+05,295,315
Raw,3.49362151e+05,296,315
Raw,4.36160935e+05,297,315
Raw,2.88619935e+05,298,315
Raw,5.82988143e+05,299,315
Raw,6.66701427e+05,301,315
Raw,6.66552387e+05,302,315
Raw,4.60154183e+05,303,315
Raw,7.24792584e+05,304,315
Raw,6.19599202e+05,305,315
Raw,2.28142872e+05,306,315
Raw,5.38807417e+05,307,315
Raw,4.68758191e+05,308,315
Raw,6.21038793e+05,309,315
Raw,5.77755585e+05,310,315
Raw,4.77720471e+05,311,315
Raw,6.35785464e+05,312,315
Raw,4.68409131e+05,314,315
Raw,5.52337983e+05,315,315
Raw,6.14649491e+05,316,315
Raw,3.29692955e+05,317,315
Raw,1.03631999e+06,318,315
Raw,7.30899795e+05,319,315
Raw,2.99435926e+05,320,315
Raw,98702.521,320,315
Raw,1.03119612e+06,321,315
Raw,9.24126751e+05,322,315
Raw,6.80204896e+05,323,315
Raw,3.93061211e+05,324,315
Raw,4.73438623e+05,325,315
Raw,4.61402403e+05,326,315
Raw,4.9140318e+05,327,315
Raw,7.01934974e+05,329,315
Raw,5.5122533e+05,330,315
Raw,4.74898039e+05,331,315
Raw,9.43034405e+05,332,315
Raw,5.39083511e+05,333,315
Raw,6.84338317e+05,334,315
Raw,3.53011407e+05,335,315
Raw,6.54236241e+05,336,315
Raw,2.78026591e+05,337,315
Raw,7.2545114e+05,338,315
Raw,6.2416359e+05,339,315
Raw,5.26994432e+05,340,315
Raw,4.39964928e+05,341,315
Raw,4.90774754e+05,342,315
Raw,6.59803741e+05,343,315
Raw,9.04519489e+05,344,315
Raw,6.28660128e+05,345,315
Raw,7.69140031e+05,346,315
Raw,5.73416075e+05,347,315
Raw,4.85855483e+05,348,315
Raw,7.3923097e+05,349,315
Raw,5.89480919e+05,350,315
Raw,7.53515917e+05,351,315
Raw,6.09307692e+05,352,315
Raw,3.38329077e+05,353,315
Raw,1.51338983e+05,354,315
Raw,5.49760336e+05,355,315
Raw,1.38017907e+06,356,315
Raw,8.70487843e+05,357,315
Raw,6.74647294e+05,359,315
Raw,6.91093845e+05,360,315
Raw,5.43429209e+05,361,315
Raw,6.6831041e+05,362,315
Raw,6.60500315e+05,363,315
Raw,5.66869672e+05,364,315
Raw,7.19681672e+05,365,315
Raw,9.17513299e+05,366,315
Raw,6.56329571e+05,367,315
Raw,6.17817538e+05,368,315
Raw,4.70316393e+05,369,315
Raw,4.56568009e+05,370,315
Raw,1.10124374e+06,371,315
Raw,6.48255509e+05,372,315
Raw,7.07399364e+05,374,315
Raw,2.71221208e+05,375,315
Raw,6.74693874e+05,376,315
Raw,5.26656186e+05,378,315
Raw,8.77569447e+05,379,315
Raw,1.07680349e+06,380,315
Raw,4.37665587e+05,381,315
Raw,2.59080754e+05,382,315
Raw,8.54723529e+05,383,315
Raw,1.07806221e+06,384,315
Raw,6.58625173e+05,385,315
Raw,2.87910149e+05,387,315
Raw,9.13335799e+05,388,315
Raw,6.56677114e+05,389,315
Raw,6.34968868e+05,390,315
Raw,8.01789612e+05,391,315
Raw,4.52651894e+05,392,315
Raw,3.17365995e+05,394,315
Raw,5.76336329e+05,395,315
Raw,2.36419442e+05,397,315
Raw,6.83382636e+05,398,315
Raw,6.15484916e+05,399,315
Raw,5.72181342e+05,400,315
Raw,5.81847372e+05,401,315
Raw,6.76951535e+05,402,315
Raw,3.4862352e+05,403,315
Raw,7.93471829e+05,404,315
Raw,6.07820046e+05,404,315
Raw,9.7743288e+05,405,315
Raw,3.08780969e+05,406,315
Raw,6.56335104e+05,407,315
Raw,2.35193922e+05,408,315
Raw,7.22849946e+05,409,315
Raw,8.1763348e+05,410,315
Raw,7.56178222e+05,411,315
Raw,1.4523249e+06,412,315
Raw,6.82499417e+05,413,315
Raw,8.54449326e+05,414,315
Raw,7.11606355e+05,415,315
Raw,9.02193812e+05,416,315
Raw,4.92532997e+05,417,315
Raw,6.58122144e+05,418,315
Raw,6.13546825e+05,419,315
Raw,7.09565136e+05,420,315
Raw,39445.401,420,315
Raw,7.39856233e+05,421,315
Raw,5.62343433e+05,422,315
Raw,6.49413529e+05,423,315
Raw,3.49738806e+05,424,315
Raw,6.73299902e+05,425,315
Raw,6.78615851e+05,426,315
Raw,5.75087882e+05,427,315
Raw,7.7180959e+05,428,315
Raw,5.8382329e+05,429,315
Raw,6.3102679e+05,430,315
Raw,6.76903284e+05,431,315
Raw,62946.612,431,315
Raw,3.89888459e+05,432,315
Raw,6.32086892e+05,433,315
Raw,6.44397554e+05,434,315
Raw,9.20372246e+05,435,315
Raw,3.41180349e+05,436,315
Raw,5.3138888e+05,437,315
Raw,5.80332534e+05,438,315
Raw,6.74362504e+05,439,315
Raw,5.38157628e+05,440,315
Raw,6.24314109e+05,441,315
Raw,7.94094295e+05,442,315
Raw,7.31517154e+05,443,315
Raw,4.79109325e+05,445,315
Raw,1.12558421e+06,446,315
Raw,2.36496788e+05,446,315
Raw,1.04847502e+06,447,315
Raw,6.22738102e+05,448,315
Raw,2.72857958e+05,449,315
Raw,2.69487568e+05,450,315
Raw,2.90485031e+05,451,315
Raw,6.06974167e+05,452,315
Raw,1.04452068e+06,454,315
Raw,5.66418862e+05,455,315
Raw,5.03816582e+05,456,315
Raw,2.06243449e+05,457,315
Raw,1.77004387e+05,458,315
Raw,3.74749111e+05,459,315
Raw,7.00826935e+05,460,315
Raw,4.40110541e+05,461,315
Raw,6.31312048e+05,463,315
Raw,3.27652921e+05,464,315
Raw,2.46013058e+05,465,315
Raw,5.7966315e+05,466,315
Raw,6.81589959e+05,467,315
Raw,2.80065384e+05,468,315
Raw,5.6661262e+05,470,315
Raw,2.31270633e+05,472,315
Raw,6.9479862e+05,473,315
Raw,4.71278909e+05,474,315
Raw,5.90199836e+05,475,315
Raw,4.58982886e+05,476,315
Raw,5.36112237e+05,478,315
Raw,6.79919172e+05,479,315
Raw,6.32582636e+05,480,315
Raw,7.18657823e+05,481,315
Raw,4.51516579e+05,482,315
Raw,8.22433847e+05,483,315
Raw,5.61446889e+05,484,315
Raw,5.22218524e+05,485,315
Raw,2.75649647e+05,486,315
Raw,8.72880431e+05,487,315
Raw,6.10431344e+05,488,315
Raw,2.00466296e+05,489,315
Raw,7.01771004e+05,491,315
Raw,5.58704301e+05,492,315
Raw,5.05474981e+05,493,315
Raw,8.56925312e+05,494,315
Raw,1.11421363e+06,496,315
Raw,6.56721497e+05,498,315
Raw,3.05213008e+05,499,315
Raw,5.85851974e+05,500,315
Raw,4.80239488e+05,501,315
Raw,5.71568953e+05,502,315
Raw,6.92821798e+05,503,315
Raw,5.09520164e+05,504,315
Raw,6.5206138e+05,505,315
Raw,9.38012376e+05,506,315
Raw,4.40876524e+05,507,315
Raw,4.58453167e+05,508,315
Raw,4.88696765e+05,509,315
Raw,7.6764123e+05,510,315
Raw,5.35289872e+05,511,315
Raw,6.52642515e+05,512,315
Raw,4.53653739e+05,514,315
Raw,6.11027189e+05,515,315
Raw,7.03912348e+05,516,315
Raw,7.16346405e+05,517,315
Raw,4.64984758e+05,518,315
Raw,6.70532845e+05,519,315
Raw,7.54173164e+05,520,315
Raw,7.44243267e+05,521,315
Raw,5.70845219e+05,522,315
Raw,6.39775706e+05,523,315
Raw,6.81260169e+05,524,315
Raw,7.02179032e+05,525,315
Raw,7.86860839e+05,526,315
Raw,9.07281928e+05,527,315
Raw,3.05095915e+05,528,315
Raw,7.1035797e+05,529,315
Raw,6.98781021e+05,530,315
Raw,7.19453095e+05,531,315
Raw,1.16590223e+06,532,315
Raw,1.06142611e+06,533,315
Raw,6.58748216e+05,534,315
Raw,5.28699689e+05,535,315
Raw,5.9597068e+05,536,315
Raw,4.1650997e+05,537,315
Raw,4.20683301e+05,538,315
Raw,6.11229068e+05,539,315
Raw,1.63964649e+05,540,315
Raw,6.2774415e+05,541,315
Raw,1.54530359e+06,542,315
Raw,2.95565669e+05,543,315
Raw,4.9844815e+05,544,315
Raw,8.74650357e+05,545,315
Raw,5.58731903e+05,546,315
Raw,6.41266725e+05,547,315
Raw,4.29757191e+05,548,315
Raw,6.8795612e+05,549,315
Raw,7.05575312e+05,550,315
Raw,4.36781625e+05,551,315
Raw,7.58794571e+05,552,315
Raw,5.35206851e+05,553,315
Raw,3.93954264e+05,554,315
Raw,5.85570703e+05,555,315
Raw,4.64646117e+05,556,315
Raw,5.16162949e+05,557,315
Raw,4.72612797e+05,558,315
Raw,3.23247797e+05,559,315
Raw,7.91159397e+05,562,315
Raw,2.73887771e+05,563,315
Raw,1.20741199e+06,564,315
Raw,4.99675607e+05,565,315
Raw,6.85212536e+05,566,315
Raw,7.20386388e+05,567,315
Raw,6.14748323e+05,568,315
Raw,8.3851502e+05,569,315
Raw,1.17761861e+06,570,315
Raw,3.19298723e+05,571,315
Raw,6.83852684e+05,572,315
Raw,6.25076684e+05,573,315
Raw,5.56193604e+05,575,315
Raw,26285.303,575,315
Raw,6.86061215e+05,576,315
Raw,4.26456677e+05,577,315
Raw,6.32426467e+05,579,315
Raw,3.11219119e+05,580,315
Raw,4.65529358e+05,581,315
Raw,5.73880052e+05,582,315
Raw,5.20598826e+05,583,315
Raw,6.0995893e+05,584,315
Raw,5.96263406e+05,586,315
Raw,7.33512238e+05,587,315
Raw,4.31262946e+05,588,315
Raw,5.81111174e+05,589,315
Raw,6.56387072e+05,590,315
Raw,1.40856719e+06,591,315
Raw,5.331434e+05,592,315
Raw,1.08852682e+06,593,315
Raw,1.17761263e+06,594,315
Raw,4.97198631e+05,595,315
Raw,6.89796651e+05,596,315
Raw,7.99194207e+05,597,315
Raw,6.59114883e+05,598,315
Raw,6.54399224e+05,599,315
Raw,2.16215987e+05,600,315
Raw,5.96628089e+05,601,315
Raw,8.00085165e+05,602,315
Raw,1.13853316e+06,603,315
Raw,6.78556423e+05,604,315
Raw,5.18877429e+05,605,315
Raw,9.79706818e+05,606,315
Raw,1.20892075e+05,607,315
Raw,5.01484839e+05,608,315
Raw,2.8720296e+05,609,315
Raw,1.00164972e+05,612,315
Raw,7.05183008e+05,613,315
Raw,3.13416798e+05,614,315
Raw,4.4321344e+05,615,315
Raw,6.18811847e+05,616,315
Raw,8.66097161e+05,617,315
Raw,3.31978529e+05,618,315
Raw,7.95530889e+05,619,315
Raw,3.56112601e+05,620,315
Raw,5.04894156e+05,621,315
Raw,3.35235498e+05,622,315
Raw,1.93413026e+05,623,315
Raw,7.11206446e+05,624,315
Raw,6.65381901e+05,625,315
Raw,2.90489834e+05,626,315
Raw,6.26099338e+05,627,315
Raw,5.39205285e+05,628,315
Raw,7.34833888e+05,629,315
Raw,7.28495974e+05,630,315
Raw,7.32732926e+05,631,315
Raw,6.48194064e+05,632,315
Raw,4.61232942e+05,633,315
Raw,1.72651383e+05,634,315
Raw,7.41739977e+05,635,315
Raw,1.99357431e+05,636,315
Raw,5.79849979e+05,637,315
Raw,4.94647568e+05,638,315
Raw,7.97437067e+05,639,315
Raw,6.57632357e+05,640,315
Raw,7.83761147e+05,641,315
Raw,5.56918956e+05,642,315
Raw,5.28261976e+05,643,315
Raw,1.14225622e+06,644,315
Raw,6.29566291e+05,645,315
Raw,6.85745704e+05,646,315
Raw,5.33378515e+05,647,315
Raw,1.11131022e+06,648,315
Raw,6.9958533e+05,649,315
Raw,1.12797252e+05,650,315
Raw,4.74428292e+05,651,315
Raw,9.23278856e+05,652,315
Raw,5.15564999e+05,653,315
Raw,6.03299936e+05,654,315
Raw,1.3724199e+05,655,315
Raw,6.40811631e+05,656,315
Raw,5.2011718e+05,657,315
Raw,8.91483665e+05,658,315
Raw,1.07199085e+06,659,315
Raw,5.01882302e+05,660,315
Raw,6.71880218e+05,662,315
Raw,6.0151211e+05,663,315
Raw,6.05017863e+05,664,315
Raw,7.05836365e+05,665,315
Raw,8.00091993e+05,666,315
Raw,3.41759818e+05,667,315
Raw,6.16897678e+05,668,315
Raw,6.04048346e+05,669,315
Raw,6.42682949e+05,670,315
Raw,4.55019248e+05,672,315
Raw,6.6228201e+05,673,315
Raw,2.40654182e+05,674,315
Raw,6.24422355e+05,675,315
Raw,7.49775167e+05,676,315
Raw,6.55724494e+05,677,315
Raw,5.91580161e+05,678,315
Raw,4.35010511e+05,679,315
Raw,6.67846148e+05,680,315
Raw,6.57864179e+05,681,315
Raw,6.12276289e+05,682,315
Raw,5.84683815e+05,684,315
Raw,6.22768349e+05,685,315
Raw,1.5976161e+05,686,315
Raw,5.51215673e+05,687,315
Raw,8.20591667e+05,688,315
Raw,5.81153138e+05,690,315
Raw,2.2074875e+05,692,315
Raw,6.42074589e+05,693,315
Raw,6.68474585e+05,694,315
Raw,4.72309223e+05,695,315
Raw,1.92833551e+05,696,315
Raw,5.37152847e+05,697,315
Raw,9.62031892e+05,698,315
Raw,6.84262302e+05,699,315
Raw,1.17924279e+05,699,315
Raw,3.05217391e+05,700,315
Raw,1.07427282e+06,701,315
Raw,3.93230128e+05,702,315
Raw,4.23448724e+05,703,315
Raw,38887.482,703,315
Raw,6.00390677e+05,704,315
Raw,6.44649132e+05,705,315
Raw,3.10281494e+05,706,315
Raw,8.33661256e+05,707,315
Raw,1.12865395e+06,708,315
Raw,7.87720563e+05,709,315
Raw,2.46364895e+05,710,315
Raw,4.74015405e+05,711,315
Raw,6.10867017e+05,712,315
Raw,5.12174233e+05,713,315
Raw,4.75799117e+05,713,315
Raw,6.63813907e+05,714,315
Raw,5.78007633e+05,715,315
Raw,1.06257668e+06,716,315
Raw,1.92471461e+05,717,315
Raw,1.1521601e+05,718,315
Raw,1.15798794e+06,719,315
Raw,6.82902225e+05,720,315
Raw,8.46328107e+05,721,315
Raw,4.9371724e+05,722,315
Raw,4.6398992e+05,723,315
Raw,5.75134539e+05,724,315
Raw,6.20820923e+05,725,315
Raw,7.28051669e+05,726,315
Raw,2.16688861e+05,727,315
Raw,5.70804852e+05,728,315
Raw,1.70055905e+05,729,315
Raw,6.17389904e+05,730,315
Raw,5.51060423e+05,732,315
Raw,5.24095869e+05,733,315
Raw,5.12624761e+05,734,315
Raw,7.1065122e+05,736,315
Raw,6.71610064e+05,737,315
Raw,5.93942495e+05,738,315
Raw,5.1716804e+05,739,315
Raw,5.38035627e+05,740,315
Raw,6.09019828e+05,741,315
Raw,7.29882448e+05,743,315
Raw,5.58665965e+05,744,315
Raw,2.74830318e+05,745,315
Raw,6.04568692e+05,746,315
Raw,4.00212718e+05,747,315
Raw,6.97725641e+05,748,315
Raw,6.8144052e+05,749,315
Raw,2.00451273e+05,750,315
Raw,6.34161674e+05,751,315
Raw,4.38831615e+05,752,315
Raw,9.45081994e+05,753,315
Raw,1.05233481e+06,755,315
Raw,5.99128508e+05,756,315
Raw,1.18836286e+06,757,315
Raw,7.17983442e+05,758,315
Raw,2.26919813e+05,759,315
Raw,5.46644893e+05,760,315
Raw,9.48476616e+05,761,315
Raw,3.92674249e+05,762,315
Raw,6.57897609e+05,764,315
Raw,3.28671111e+05,765,315
Raw,5.48106111e+05,766,315
Raw,5.85356305e+05,767,315
Raw,6.7758199e+05,768,315
Raw,8.04780165e+05,769,315
Raw,1.59273835e+05,770,315
Raw,5.70163526e+05,771,315
Raw,6.55731581e+05,772,315
Raw,6.34578197e+05,773,315
Raw,6.97734403e+05,774,315
Raw,8.34557623e+05,775,315
Raw,5.28927732e+05,777,315
Raw,5.09636159e+05,778,315
Raw,7.16499878e+05,779,315
Raw,4.12235538e+05,780,315
Raw,7.33993556e+05,781,315
Raw,6.88759566e+05,782,315
Raw,5.63467206e+05,783,315
Raw,4.48857506e+05,784,315
Raw,2.47198239e+05,785,315
Raw,4.24924823e+05,786,315
Raw,3.07728444e+05,787,315
Raw,6.50696372e+05,788,315
Raw,6.37985947e+05,789,315
Raw,6.14593981e+05,790,315
Raw,4.75830364e+05,791,315
Raw,9.58220194e+05,792,315
Raw,5.65858905e+05,792,315
Raw,6.80584657e+05,792,315
Raw,1.02392498e+06,793,315
Raw,4.31190188e+05,794,315
Raw,5.71186114e+05,795,315
Raw,7.07188349e+05,796,315
Raw,2.77710861e+05,797,315
Raw,7.27395012e+05,798,315
Raw,5.68823633e+05,799,315
Raw,7.61228704e+05,800,315
Raw,5.75448413e+05,801,315
Raw,6.59309355e+05,802,315
Raw,7.0055832e+05,803,315
Raw,3.06959725e+05,804,315
Raw,7.02181291e+05,805,315
Raw,7.32440431e+05,806,315
Raw,6.56748186e+05,808,315
Raw,6.64709287e+05,809,315
Raw,4.40975357e+05,810,315
Raw,4.56869575e+05,811,315
Raw,7.6652454e+05,812,315
Raw,5.71792188e+05,813,315
Raw,4.67257734e+05,814,315
Raw,4.76504214e+05,815,315
Raw,3.09101235e+05,816,315
Raw,3.39599002e+05,817,315
Raw,91185.178,817,315
Raw,3.00626429e+05,819,315
Raw,6.45578379e+05,820,315
Raw,6.27508205e+05,821,315
Raw,5.75809728e+05,822,315
Raw,5.83483893e+05,823,315
Raw,2.5811432e+05,824,315
Raw,1.90064526e+05,825,315
Raw,2.20892427e+05,826,315
Raw,6.78216309e+05,827,315
Raw,4.68880598e+05,828,315
Raw,1.11658998e+06,829,315
Raw,5.4260716e+05,830,315
Raw,9.58654799e+05,831,315
Raw,1.7935484e+05,832,315
Raw,6.49656624e+05,833,315
Raw,8.08713395e+05,835,315
Raw,6.4380553e+05,837,315
Raw,3.48256844e+05,838,315
Raw,5.99632782e+05,839,315
Raw,3.90673475e+05,840,315
Raw,1.01789675e+06,841,315
Raw,3.27387188e+05,842,315
Raw,6.81134563e+05,843,315
Raw,7.88663976e+05,844,315
Raw,5.93439153e+05,846,315
Raw,6.63511892e+05,847,315
Raw,5.76813394e+05,848,315
Raw,4.05297104e+05,849,315
Raw,6.66397543e+05,850,315
Raw,6.20629222e+05,851,315
Raw,2.18903728e+05,852,315
Raw,5.84470725e+05,853,315
Raw,6.28880587e+05,854,315
Raw,1.21476889e+06,855,315
Raw,1.12669136e+05,856,315
Raw,1.16075158e+06,857,315
Raw,3.45336124e+05,858,315
Raw,5.16846498e+05,859,315
Raw,8.97261106e+05,860,315
Raw,5.50893268e+05,861,315
Raw,6.6991867e+05,862,315
Raw,4.19935199e+05,863,315
Raw,6.81785616e+05,865,315
Raw,4.65638859e+05,866,315
Raw,1.35348826e+06,867,315
Raw,6.04859231e+05,870,315
Raw,5.10167857e+05,871,315
Raw,6.44728999e+05,872,315
Raw,8.50056414e+05,873,315
Raw,4.91869768e+05,874,315
Raw,7.40367602e+05,875,315
Raw,3.33515967e+05,876,315
Raw,5.51873454e+05,877,315
Raw,1.0435732e+06,878,315
Raw,3.58278126e+05,879,315
Raw,5.50113013e+05,880,315
Raw,5.50774006e+05,881,315
Raw,5.8637952e+05,882,315
Raw,4.88699112e+05,883,315
Raw,7.8226648e+05,884,315
Raw,3.67477529e+05,885,315
Raw,4.17182515e+05,886,315
Raw,7.54615421e+05,887,315
Raw,5.25162138e+05,888,315
Raw,8.71395042e+05,889,315
Raw,5.16105611e+05,890,315
Raw,4.59450551e+05,891,315
Raw,5.0903515e+05,892,315
Raw,5.16414787e+05,893,315
Raw,4.95700196e+05,894,315
Raw,3.30360885e+05,895,315
Raw,6.9079544e+05,896,315
Raw,7.04056612e+05,897,315
Raw,6.74644437e+05,899,315
Raw,4.64482988e+05,900,315
Raw,5.50902058e+05,901,315
Raw,2.3723087e+05,902,315
Raw,4.09997116e+05,904,315
Raw,6.91265691e+05,905,315
Raw,6.08205731e+05,906,315
Raw,6.7417312e+05,907,315
Raw,1.81300684e+05,908,315
Raw,6.52320338e+05,909,315
Raw,5.2716811e+05,910,315
Raw,5.90237295e+05,911,315
Raw,7.36119414e+05,913,315
Raw,2.74925323e+05,914,315
Raw,5.75627761e+05,915,315
Raw,6.48034685e+05,916,315
Raw,7.3469665e+05,917,315
Raw,9.51452992e+05,918,315
Raw,5.81700061e+05,919,315
Raw,5.49378987e+05,920,315
Raw,5.30990747e+05,921,315
Raw,6.95468796e+05,922,315
Raw,7.78237514e+05,923,315
Raw,6.00432603e+05,924,315
Raw,6.30908049e+05,925,315
Raw,7.55233104e+05,926,315
Raw,6.81553772e+05,927,315
Raw,7.26860835e+05,928,315
Raw,5.71246915e+05,929,315
Raw,6.47646821e+05,930,315
Raw,5.92828393e+05,931,315
Raw,2.86627034e+05,932,315
Raw,1.00796382e+06,933,315
Raw,1.43259657e+06,934,315
Raw,5.4897994e+05,935,315
Raw,4.41241118e+05,936,315
Raw,1.41531138e+05,937,315
Raw,3.36370727e+05,938,315
Raw,1.26016741e+05,938,315
Raw,1.89414298e+05,939,315
Raw,6.26183002e+05,940,315
Raw,6.7291433e+05,941,315
Raw,6.48025865e+05,942,315
Raw,1.10743876e+05,942,315
Raw,7.57409164e+05,943,315
Raw,2.88036177e+05,944,315
Raw,7.33847208e+05,945,315
Raw,4.14560203e+05,946,315
Raw,5.28256004e+05,948,315
Raw,4.23382152e+05,949,315
Raw,1.02153298e+06,950,315
Raw,1.08371251e+06,951,315
Raw,5.34096275e+05,952,315
Raw,1.4009614e+05,953,315
Raw,5.26677167e+05,954,315
Raw,5.81574412e+05,954,315
Raw,6.93928896e+05,955,315
Raw,3.18698089e+05,956,315
Raw,4.19359967e+05,957,315
Raw,4.82080237e+05,958,315
Raw,5.48235111e+05,959,315
Raw,7.65001022e+05,961,315
Raw,6.70774326e+05,962,315
Raw,5.54423362e+05,963,315
Raw,5.69936338e+05,964,315
Raw,7.54360655e+05,965,315
Raw,6.86932252e+05,966,315
Raw,7.2335879e+05,967,315
Raw,5.97452272e+05,968,315
Raw,5.06608698e+05,969,315
Raw,6.30398743e+05,970,315
Raw,5.01014515e+05,971,315
Raw,5.252703e+05,972,315
Raw,9.96291699e+05,973,315
Raw,7.25571994e+05,974,315
Raw,2.50397782e+05,975,315
Raw,7.29488923e+05,976,315
Raw,94759.87,977,315
Raw,5.26876997e+05,978,315
Raw,4.28379938e+05,979,315
Raw,2.34828371e+05,980,315
Raw,7.82928375e+05,981,315
Raw,7.99075026e+05,984,315
Raw,8.41506765e+05,985,315
Raw,7.34021854e+05,988,315
Raw,9.67048957e+05,989,315
Raw,6.97266145e+05,990,315
Raw,6.68945936e+05,991,315
Raw,52289.66,991,315
Raw,2.69425129e+05,992,315
Raw,9.96602381e+05,993,315
Raw,6.30707144e+05,994,315
Raw,1.01398119e+06,995,315
Raw,4.7953629e+05,996,315
Raw,4.73964796e+05,997,315
Raw,6.38668168e+05,998,315
Raw,5.05314138e+05,999,315
Raw,7.4973506e+05,1000,315
Raw,2.49016617e+05,1001,315
Raw,6.39884739e+05,1002,315
Raw,6.49194155e+05,1003,315
Raw,8.02272186e+05,1004,315
Raw,7.81890194e+05,1005,315
Raw,1.93538575e+05,1006,315
Raw,3.01608122e+05,1007,315
Raw,6.57822843e+05,1008,315
Raw,6.00819772e+05,1009,315
Raw,1.27265163e+06,1011,315
Raw,5.38243856e+05,1012,315
Raw,6.75486946e+05,1013,315
Raw,6.91416873e+05,1014,315
Raw,6.63179598e+05,1015,315
Raw,3.24506959e+05,1016,315
Raw,1.62655842e+05,1017,315
Raw,6.56547376e+05,1018,315
Raw,6.83493375e+05,1019,315
Raw,6.80263459e+05,1020,315
Raw,7.03863294e+05,1021,315
Raw,3.59525081e+05,1022,315
Raw,5.2627722e+05,1023,315
Raw,5.75629864e+05,1024,315
Raw,3.00603494e+05,1025,315
Raw,5.17052759e+05,1026,315
Raw,1.18894948e+05,1027,315
Raw,6.44103663e+05,1028,315
Raw,6.28478441e+05,1029,315
Raw,5.70332455e+05,1030,315
Raw,8.28375138e+05,1031,315
Raw,6.78265933e+05,1032,315
Raw,6.54545068e+05,1033,315
Raw,4.90150513e+05,1034,315
Raw,7.04811303e+05,1035,315
Raw,6.20943024e+05,1036,315
Raw,7.91155142e+05,1037,315
Raw,6.48679006e+05,1038,315
Raw,6.35142217e+05,1040,315
Raw,6.64773074e+05,1041,315
Raw,6.88419434e+05,1042,315
Raw,2.00283532e+05,1043,315
Raw,6.04899685e+05,1044,315
Raw,6.45642876e+05,1045,315
Raw,7.52155321e+05,1046,315
Raw,4.8865233e+05,1047,315
Raw,3.6372147e+05,1048,315
Raw,3.38403658e+05,1049,315
Raw,8.77252184e+05,1050,315
Raw,3.15790762e+05,1051,315
Raw,6.74363343e+05,1052,315
Raw,3.85395752e+05,1053,315
Raw,6.91647381e+05,1054,315
Raw,6.1855837e+05,1055,315
Raw,2.53109645e+05,1056,315
Raw,6.12286319e+05,1057,315
Raw,5.59220714e+05,1058,315
Raw,6.02239148e+05,1059,315
Raw,5.83114573e+05,1060,315
Raw,5.77989283e+05,1061,315
Raw,6.25442524e+05,1062,315
Raw,3.31103559e+05,1063,315
Raw,7.3121459e+05,1064,315
Raw,3.06182602e+05,1065,315
Raw,6.59695902e+05,1066,315
Raw,7.33921762e+05,1067,315
Raw,1.61443378e+05,1068,315
Raw,6.76938225e+05,1070,315
Raw,6.3967358e+05,1071,315
Raw,1.16707015e+06,1072,315
Raw,2.11433578e+05,1073,315
Raw,6.84547268e+05,1074,315
Raw,4.94081721e+05,1075,315
Raw,4.15868672e+05,1076,315
Raw,4.99914408e+05,1077,315
Raw,5.48686377e+05,1078,315
Raw,4.16982132e+05,1079,315
Raw,2.55868613e+05,1080,315
Raw,7.76549806e+05,1081,315
Raw,7.27609065e+05,1082,315
Raw,5.41242648e+05,1083,315
Raw,5.21167767e+05,1084,315
Raw,5.06372724e+05,1085,315
Raw,4.78438694e+05,1086,315
Raw,6.13040174e+05,1087,315
Raw,4.18482532e+05,1088,315
Raw,6.00648344e+05,1089,315
Raw,4.5428088e+05,1090,315
Raw,6.12507552e+05,1091,315
Raw,4.21219651e+05,1092,315
Raw,2.9939378e+05,1093,315
Raw,3.45234674e+05,1094,315
Raw,4.30619856e+05,1095,315
Raw,4.08552189e+05,1096,315
Raw,6.78762558e+05,1097,315
Raw,6.41248961e+05,1098,315
Raw,7.93476122e+05,1099,315
Raw,9.36090217e+05,1100,315
Raw,2.26754102e+05,1101,315
Raw,8.20055465e+05,1102,315
Raw,2.13914045e+05,1103,315
Raw,4.67580198e+05,1104,315
Raw,3.49725809e+05,1105,315
Raw,6.49667204e+05,1106,315
Raw,4.30244919e+05,1107,315
Raw,5.7349899e+05,1108,315
Raw,8.04028808e+05,1109,315
Raw,8.4384295e+05,1110,315
Raw,6.37675145e+05,1111,315
Raw,7.68929589e+05,1111,315
Raw,6.52176117e+05,1112,315
Raw,5.7990786e+05,1113,315
Raw,4.47665357e+05,1114,315
Raw,6.78682651e+05,1115,315
Raw,5.8991461e+05,1116,315
Raw,6.54810111e+05,1117,315
Raw,5.87662037e+05,1118,315
Raw,6.34833183e+05,1119,315
Raw,1.44372945e+05,1120,315
Raw,7.05446642e+05,1121,315
Raw,7.64852778e+05,1122,315
Raw,6.43670532e+05,1123,315
Raw,7.90183112e+05,1124,315
Raw,5.10512806e+05,1126,315
Raw,4.73091687e+05,1127,315
Raw,5.91149216e+05,1129,315
Raw,6.80488167e+05,1130,315
Raw,5.43530421e+05,1131,315
Raw,4.92418816e+05,1132,315
Raw,6.533257e+05,1133,315
Raw,2.2700472e+05,1134,315
Raw,36508.98,1134,315
Raw,5.62772655e+05,1135,315
Raw,5.73431847e+05,1136,315
Raw,3.65263702e+05,1137,315
Raw,6.71313577e+05,1138,315
Raw,1.00906381e+05,1139,315
Raw,6.2505778e+05,1140,315
Raw,3.76649222e+05,1141,315
Raw,7.82909055e+05,1142,315
Raw,7.73516017e+05,1143,315
Raw,6.64433141e+05,1144,315
Raw,6.69542553e+05,1145,315
Raw,1.15468949e+06,1146,315
Raw,5.61550159e+05,1147,315
Raw,5.74837825e+05,1149,315
Raw,1.43201869e+05,1150,315
Raw,7.33798795e+05,1151,315
Raw,3.71592855e+05,1152,315
Raw,5.86543887e+05,1153,315
Raw,7.63749378e+05,1154,315
Raw,7.73812214e+05,1155,315
Raw,3.21445369e+05,1156,315
Raw,6.38942743e+05,1157,315
Raw,5.2418977e+05,1158,315
Raw,3.06122617e+05,1159,315
Raw,6.96768657e+05,1160,315
Raw,5.83890437e+05,1161,315
Raw,2.77049986e+05,1162,315
Raw,7.06292554e+05,1163,315
Raw,3.64344718e+05,1164,315
Raw,5.22297881e+05,1165,315
Raw,4.50098589e+05,1166,315
Raw,3.61644915e+05,1167,315
Raw,2.99509616e+05,1167,315
Raw,8.07217802e+05,1168,315
Raw,3.05146106e+05,1169,315
Raw,61664.673,1169,315
Raw,7.26954796e+05,1170,315
Raw,7.78961738e+05,1171,315
Raw,5.08646235e+05,1172,315
Raw,5.72854524e+05,1174,315
Raw,6.72149535e+05,1175,315
Raw,5.7781291e+05,1176,315
Raw,3.89906046e+05,1177,315
Raw,5.10751489e+05,1178,315
Raw,1.0171812e+06,1179,315
Raw,5.18106368e+05,1180,315
Raw,3.61927082e+05,1181,315
Raw,5.67345143e+05,1182,315
Raw,3.88406533e+05,1183,315
Raw,6.65006271e+05,1185,315
Raw,5.54705665e+05,1186,315
Raw,2.54856428e+05,1187,315
Raw,5.33096702e+05,1188,315
Raw,5.7890164e+05,1189,315
Raw,7.35344257e+05,1190,315
Raw,7.85839179e+05,1191,315
Raw,5.16301501e+05,1192,315
Raw,6.34777914e+05,1193,315
Raw,2.76223461e+05,1194,315
Raw,9.79534582e+05,1195,315
Raw,6.68505224e+05,1196,315
Raw,7.25071069e+05,1197,315
Raw,6.77711943e+05,1198,315
Raw,4.73202025e+05,1199,315
Raw,5.88256031e+05,1200,315
Raw,1.12161407e+06,1201,315
Raw,7.67498862e+05,1203,315
Raw,7.78959904e+05,1204,315
Raw,5.73693535e+05,1205,315
Raw,5.92464027e+05,1206,315
Raw,8.62834125e+05,1207,315
Raw,5.07616575e+05,1208,315
Raw,6.63394161e+05,1209,315
Raw,6.76956868e+05,1210,315
Raw,2.92640486e+05,1211,315
Raw,3.34774759e+05,1212,315
Raw,4.46002135e+05,1213,315
Raw,4.44960096e+05,1214,315
Raw,7.05405932e+05,1215,315
Raw,6.48967618e+05,1216,315
Raw,5.59067817e+05,1217,315
Raw,1.15949186e+05,1218,315
Raw,5.01863849e+05,1219,315
Raw,9.74680373e+05,1220,315
Raw,1.03686929e+05,1220,315
Raw,6.16004404e+05,1221,315
Raw,3.94267625e+05,1222,315
Raw,2.62337872e+05,1223,315
Raw,6.85826138e+05,1224,315
Raw,1.21653376e+06,1225,315
Raw,1.80744579e+05,1226,315
Raw,6.51432373e+05,1227,315
Raw,5.42947668e+05,1228,315
Raw,7.58027466e+05,1230,315
Raw,6.38217649e+05,1231,315
Raw,4.98670625e+05,1232,315
Raw,6.16626391e+05,1233,315
Raw,7.61362097e+05,1234,315
Raw,6.95601185e+05,1235,315
Raw,1.32432194e+06,1236,315
Raw,6.27043417e+05,1237,315
Raw,4.28359431e+05,1238,315
Raw,8.69315474e+05,1239,315
Raw,6.05410352e+05,1240,315
Raw,5.92458167e+05,1241,315
Raw,5.60903199e+05,1242,315
Raw,6.23528483e+05,1243,315
Raw,4.54949744e+05,1244,315
Raw,5.12280152e+05,1245,315
Raw,7.51332769e+05,1246,315
Raw,1.94348923e+05,1247,315
Raw,6.63364915e+05,1248,315
Raw,7.73902659e+05,1249,315
Raw,5.96469177e+05,1250,315
Raw,5.03500039e+05,1251,315
Raw,6.53413591e+05,1252,315
Raw,7.3296345e+05,1253,315
Raw,6.38768859e+05,1254,315
Raw,6.39794972e+05,1255,315
Raw,2.22078145e+05,1256,315
Raw,3.2664133e+05,1257,315
Raw,6.65765934e+05,1258,315
Raw,3.23851395e+05,1259,315
Raw,5.86901815e+05,1260,315
Raw,6.92678618e+05,1261,315
Raw,7.02760478e+05,1262,315
Raw,6.98463019e+05,1263,315
Raw,5.07436309e+05,1264,315
Raw,5.74961512e+05,1265,315
Raw,6.42984931e+05,1266,315
Raw,6.17452152e+05,1267,315
Raw,1.22653628e+06,1268,315
Raw,5.31463079e+05,1269,315
Raw,5.40099418e+05,1270,315
Raw,6.02378028e+05,1271,315
Raw,6.63384628e+05,1272,315
Raw,6.29114258e+05,1273,315
Raw,5.62980139e+05,1274,315
Raw,9.81672968e+05,1276,315
Raw,2.04877993e+05,1277,315
Raw,1.1894227e+05,1279,315
Raw,3.91290347e+05,1280,315
Raw,6.41306755e+05,1281,315
Raw,5.26668773e+05,1282,315
Raw,4.80426881e+05,1283,315
Raw,6.09124124e+05,1285,315
Raw,6.34958915e+05,1286,315
Raw,4.74142251e+05,1287,315
Raw,8.76541387e+05,1288,315
Raw,6.13066077e+05,1289,315
Raw,2.33694296e+05,1290,315
Raw,9.86199985e+05,1291,315
Raw,3.65931766e+05,1292,315
Raw,2.58638008e+05,1293,315
Raw,8.082216e+05,1294,315
Raw,1.01336096e+06,1295,315
Raw,4.68850777e+05,1296,315
Raw,5.24278131e+05,1297,315
Raw,6.99972772e+05,1298,315
Raw,8.0875054e+05,1299,315
Raw,2.65521506e+05,1301,315
Raw,6.8909373e+05,1302,315
Raw,3.62106694e+05,1303,315
Raw,1.44128477e+06,1304,315
Raw,3.45094105e+05,1305,315
Raw,5.33959151e+05,1306,315
Raw,7.13608096e+05,1307,315
Raw,7.03395219e+05,1308,315
Raw,2.32099455e+05,1309,315
Raw,1.06801892e+06,1310,315
Raw,2.87236603e+05,1311,315
Raw,6.13509709e+05,1312,315
Raw,3.59953227e+05,1313,315
Raw,2.51548934e+05,1314,315
Raw,5.11356781e+05,1315,315
Raw,5.87383544e+05,1316,315
Raw,5.53482151e+05,1317,315
Raw,6.70713371e+05,1318,315
Raw,5.62328624e+05,1319,315
Raw,6.52502593e+05,1320,315
Raw,4.60676442e+05,1321,315
Raw,5.97155932e+05,1322,315
Raw,5.62662058e+05,1323,315
Raw,2.40163054e+05,1324,315
Raw,6.74766138e+05,1325,315
Raw,6.49400523e+05,1326,315
Raw,6.90023071e+05,1327,315
Raw,7.42671853e+05,1328,315
Raw,4.4080756e+05,1329,315
Raw,4.27871986e+05,1330,315
Raw,2.97484636e+05,1332,315
Raw,3.97987389e+05,1333,315
Raw,6.24680706e+05,1335,315
Raw,3.21143617e+05,1336,315
Raw,6.63023348e+05,1337,315
Raw,6.51474278e+05,1338,315
Raw,1.92819783e+05,1339,315
Raw,5.1849352e+05,1340,315
Raw,5.38658453e+05,1341,315
Raw,1.9577249e+05,1342,315
Raw,8.01871564e+05,1343,315
Raw,5.13705676e+05,1344,315
Raw,5.01562353e+05,1345,315
Raw,1.02609228e+06,1346,315
Raw,4.0364676e+05,1348,315
Raw,1.60896052e+05,1349,315
Raw,5.55835341e+05,1350,315
Raw,5.5666982e+05,1351,315
Raw,1.33764003e+06,1352,315
Raw,7.6487277e+05,1353,315
Raw,7.72706548e+05,1354,315
Raw,4.03484008e+05,1355,315
Raw,6.24871334e+05,1356,315
Raw,7.20046288e+05,1357,315
Raw,6.47997006e+05,1358,315
Raw,2.43347538e+05,1359,315
Raw,6.95562272e+05,1360,315
Raw,4.723202e+05,1361,315
Raw,6.01046488e+05,1362,315
Raw,6.60549983e+05,1363,315
Raw,6.8335179e+05,1364,315
Raw,94341.142,1364,315
Raw,7.68945479e+05,1365,315
Raw,8.18973297e+05,1366,315
Raw,6.86982109e+05,1367,315
Raw,6.01669681e+05,1368,315
Raw,5.07904751e+05,1369,315
Raw,2.13697106e+05,1370,315
Raw,4.93783244e+05,1371,315
Raw,9.74757784e+05,1373,315
Raw,1.23925175e+05,1374,315
Raw,7.20733034e+05,1375,315
Raw,7.43802588e+05,1376,315
Raw,6.89573362e+05,1377,315
Raw,2.43596814e+05,1379,315
Raw,7.51301787e+05,1380,315
Raw,6.94158159e+05,1381,315
Raw,4.89252224e+05,1382,315
Raw,7.09731399e+05,1383,315
Raw,7.07262816e+05,1384,315
Raw,6.17000257e+05,1385,315
Raw,6.88194291e+05,1386,315
Raw,5.99072712e+05,1387,315
Raw,3.29925374e+05,1388,315
Raw,5.48212677e+05,1389,315
Raw,6.66174116e+05,1390,315
Raw,5.09758574e+05,1391,315
Raw,8.46636883e+05,1392,315
Raw,2.71807632e+05,1393,315
Raw,5.91786565e+05,1394,315
Raw,1.4795269e+06,1395,315
Raw,7.13343257e+05,1396,315
Raw,6.18917427e+05,1397,315
Raw,4.72207768e+05,1398,315
Raw,7.05467303e+05,1399,315
Raw,1.28682482e+06,1400,315
Raw,3.34037659e+05,1401,315
Raw,5.76550097e+05,1402,315
Raw,3.44367479e+05,1403,315
Raw,4.73561503e+05,1404,315
Raw,6.46596055e+05,1405,315
Raw,4.86218828e+05,1406,315
Raw,5.97721056e+05,1407,315
Raw,5.28417827e+05,1408,315
Raw,1.23595913e+05,1409,315
Raw,4.50513895e+05,1410,315
Raw,6.8874702e+05,1411,315
Raw,6.79825226e+05,1412,315
Raw,5.08527228e+05,1413,315
Raw,6.94407783e+05,1414,315
Raw,7.57917397e+05,1415,315
Raw,7.3772625e+05,1416,315
Raw,7.92545876e+05,1417,315
Raw,6.78809989e+05,1418,315
Raw,5.77527645e+05,1419,315
Raw,5.29094429e+05,1420,315
Raw,7.17151902e+05,1421,315
Raw,3.02766126e+05,1422,315
Raw,5.70223061e+05,1423,315
Raw,5.69863877e+05,1424,315
Raw,1.59204499e+05,1425,315
Raw,4.90175906e+05,1426,315
Raw,7.05784735e+05,1427,315
Raw,5.50586126e+05,1428,315
Raw,9.78849888e+05,1429,315
Raw,9.20808278e+05,1430,315
Raw,4.7692915e+05,1431,315
Raw,5.9085275e+05,1432,315
Raw,1.23247552e+06,1433,315
Raw,5.49306206e+05,1434,315
Raw,1.9272585e+05,1435,315
Raw,1.08046964e+05,1436,315
Raw,3.00791763e+05,1437,315
Raw,6.85188784e+05,1438,315
Raw,1.03742872e+06,1439,315
Raw,6.53625313e+05,1440,315
Raw,6.42836826e+05,1441,315
Raw,6.77550482e+05,1442,315
Raw,6.08501949e+05,1443,315
Raw,7.100251e+05,1444,315
Raw,3.94752977e+05,1445,315
Raw,6.49693914e+05,1446,315
Raw,4.67671854e+05,1447,315
Raw,4.36431222e+05,1448,315
Raw,6.67748124e+05,1449,315
Raw,1.84115048e+05,1450,315
Raw,3.85304809e+05,1451,315
Raw,1.29781778e+06,1452,315
Raw,9.89664116e+05,1453,315
Raw,6.84935715e+05,1454,315
Raw,6.33803794e+05,1455,315
Raw,9.9432268e+05,1456,315
Raw,1.00434094e+06,1457,315
Raw,5.10260047e+05,1458,315
Raw,4.86524102e+05,1459,315
Raw,3.72608957e+05,1460,315
Raw,6.55022654e+05,1461,315
Raw,6.36315218e+05,1462,315
Raw,3.09623816e+05,1463,315
Raw,2.88327035e+05,1463,315
Raw,5.84138854e+05,1464,315
Raw,2.19430516e+05,1465,315
Raw,5.51292714e+05,1466,315
Raw,4.84572909e+05,1467,315
Raw,8.24298865e+05,1468,315
Raw,2.6963692e+05,1469,315
Raw,1.42033632e+05,1470,315
Raw,5.89540227e+05,1471,315
Raw,6.35142981e+05,1472,315
Raw,6.36452253e+05,1473,315
Raw,4.46012071e+05,1474,315
Raw,5.91757803e+05,1475,315
Raw,2.36470137e+05,1476,315
Raw,5.32186047e+05,1477,315
Raw,1.00678677e+05,1479,315
Raw,6.02627062e+05,1480,315
Raw,7.94162199e+05,1481,315
Raw,4.75561259e+05,1482,315
Raw,4.87320191e+05,1483,315
Raw,6.19088458e+05,1484,315
Raw,5.56675639e+05,1485,315
Raw,2.3398889e+05,1486,315
Raw,5.9961672e+05,1487,315
Raw,7.09508541e+05,1488,315
Raw,1.17048114e+05,1489,315
Raw,7.48022117e+05,1490,315
Raw,6.79851722e+05,1491,315
Raw,6.14183153e+05,1492,315
Raw,6.01820608e+05,1493,315
Raw,1.3474457e+06,1494,315
Raw,3.60455082e+05,1495,315
Raw,6.11530942e+05,1496,315
Raw,5.20399637e+05,1497,315
Raw,7.51594577e+05,1498,315
Raw,6.48427092e+05,1499,315
Raw,5.09421206e+05,1500,315
Raw,3.26549297e+05,1501,315
Raw,5.52033193e+05,1502,315
Raw,6.7087382e+05,1503,315
Raw,6.74728125e+05,1504,315
Raw,6.35232416e+05,1505,315
Raw,4.35741531e+05,1506,315
Raw,1.95855007e+05,1507,315
Raw,1.92272878e+05,1508,315
Raw,6.50148361e+05,1509,315
Raw,6.55828704e+05,1510,315
Raw,4.03931686e+05,1511,315
Raw,1.87355498e+05,1512,315
Raw,5.90583395e+05,1513,315
Raw,5.53244938e+05,1514,315
Raw,6.01307915e+05,1515,315
Raw,6.20446693e+05,1516,315
Raw,6.52582165e+05,1517,315
Raw,4.28184338e+05,1518,315
Raw,7.2896548e+05,1519,315
Raw,8.86373475e+05,1520,315
Raw,7.14586299e+05,1522,315
Raw,5.44417168e+05,1523,315
Raw,5.32074514e+05,1524,315
Raw,6.67185921e+05,1525,315
Raw,3.40916025e+05,1526,315
Raw,1.38731218e+06,1527,315
Raw,5.81097653e+05,1528,315
Raw,2.13379954e+05,1529,315
Raw,7.06793769e+05,1530,315
Raw,5.26787687e+05,1531,315
Raw,6.28125221e+05,1532,315
Raw,5.96999831e+05,1533,315
Raw,5.90075164e+05,1534,315
Raw,7.70116311e+05,1535,315
Raw,6.58103619e+05,1536,315
Raw,1.57114911e+05,1537,315
Raw,8.01985411e+05,1538,315
Raw,6.94836466e+05,1539,315
Raw,4.80019429e+05,1540,315
Raw,6.14644046e+05,1542,315
Raw,4.05549588e+05,1543,315
Raw,5.3187794e+05,1544,315
Raw,6.48032521e+05,1545,315
Raw,9.81939574e+05,1546,315
Raw,5.97295576e+05,1547,315
Raw,6.64852916e+05,1548,315
Raw,4.90763443e+05,1549,315
Raw,7.29008883e+05,1550,315
Raw,9.10758859e+05,1551,315
Raw,7.25640957e+05,1552,315
Raw,4.83082161e+05,1553,315
Raw,5.1595133e+05,1554,315
Raw,4.60156473e+05,1555,315
Raw,3.39467319e+05,1556,315
Raw,6.52046402e+05,1557,315
Raw,8.30197367e+05,1558,315
Raw,4.05774038e+05,1559,315
Raw,6.70042709e+05,1560,315
Raw,6.88606713e+05,1561,315
Raw,5.72396693e+05,1562,315
Raw,7.60733724e+05,1563,315
Raw,4.78581133e+05,1564,315
Raw,7.06749264e+05,1565,315
Raw,3.60778058e+05,1566,315
Raw,5.28181995e+05,1567,315
Raw,4.60684811e+05,1568,315
Raw,5.66821016e+05,1569,315
Raw,2.71534876e+05,1570,315
Raw,6.46932201e+05,1571,315
Raw,1.05878991e+06,1572,315
Raw,6.86691302e+05,1573,315
Raw,6.68809899e+05,1574,315
Raw,5.60444164e+05,1575,315
Raw,6.93889126e+05,1576,315
Raw,6.9943839e+05,1577,315
Raw,7.44953421e+05,1578,315
Raw,3.89110194e+05,1579,315
Raw,1.23532711e+06,1580,315
Raw,2.24248214e+05,1581,315
Raw,5.24928919e+05,1582,315
Raw,4.20902306e+05,1583,315
Raw,2.54205168e+05,1584,315
Raw,6.46983226e+05,1585,315
Raw,6.24800419e+05,1586,315
Raw,6.09883846e+05,1587,315
Raw,3.5381871e+05,1588,315
Raw,5.80528518e+05,1589,315
Raw,6.59407339e+05,1590,315
Raw,6.16680911e+05,1592,315
Raw,5.22546358e+05,1593,315
Raw,4.13301592e+05,1594,315
Raw,1.93157562e+05,1595,315
Raw,6.63363108e+05,1596,315
Raw,6.31139058e+05,1597,315
Raw,7.42785838e+05,1598,315
Raw,6.3479045e+05,1599,315
Raw,6.91431473e+05,1600,315
Raw,6.25377487e+05,1601,315
Raw,6.84479754e+05,1602,315
Raw,3.82624284e+05,1603,315
Raw,6.13767394e+05,1604,315
Raw,4.8492499e+05,1605,315
Raw,6.12603412e+05,1606,315
Raw,5.47925058e+05,1607,315
Raw,6.27840474e+05,1608,315
Raw,3.7618363e+05,1609,315
Raw,7.36115524e+05,1610,315
Raw,3.75776807e+05,1611,315
Raw,1.9743668e+05,1612,315
Raw,5.06382553e+05,1613,315
Raw,5.13947643e+05,1614,315
Raw,3.77659781e+05,1615,315
Raw,7.1515668e+05,1616,315
Raw,7.73320459e+05,1617,315
Raw,3.23201746e+05,1618,315
Raw,4.60404507e+05,1619,315
Raw,5.1471912e+05,1620,315
Raw,7.43819052e+05,1621,315
Raw,5.03192638e+05,1622,315
Raw,5.47006585e+05,1623,315
Raw,1.52764983e+05,1624,315
Raw,5.69554409e+05,1625,315
Raw,8.4244922e+05,1626,315
Raw,4.85404027e+05,1627,315
Raw,5.85505096e+05,1628,315
Raw,6.29840899e+05,1629,315
Raw,4.5276443e+05,1630,315
Raw,6.29428121e+05,1631,315
Raw,4.17112678e+05,1632,315
Raw,5.97286215e+05,1633,315
Raw,2.49100958e+05,1634,315
Raw,6.50008754e+05,1635,315
Raw,5.91660499e+05,1636,315
Raw,6.52870041e+05,1637,315
Raw,7.25075266e+05,1638,315
Raw,3.29418707e+05,1639,315
Raw,5.45436487e+05,1640,315
Raw,5.78994164e+05,1641,315
Raw,1.98119594e+05,1643,315
Raw,1.34508834e+05,1644,315
Raw,4.78603625e+05,1645,315
Raw,6.82629577e+05,1646,315
Raw,6.67501974e+05,1647,315
Raw,6.14134348e+05,1648,315
Raw,7.26641174e+05,1649,315
Raw,4.08348906e+05,1650,315
Raw,6.81932882e+05,1651,315
Raw,4.8603788e+05,1652,315
Raw,6.56618076e+05,1653,315
Raw,6.49463007e+05,1654,315
Raw,4.10826146e+05,1655,315
Raw,9.16092437e+05,1656,315
Raw,4.87175486e+05,1657,315
Raw,9.06375021e+05,1658,315
Raw,8.12300403e+05,1660,315
Raw,6.40352044e+05,1662,315
Raw,7.46706273e+05,1663,315
Raw,3.343158e+05,1664,315
Raw,8.77056064e+05,1665,315
Raw,2.70629912e+05,1666,315
Raw,9.35902385e+05,1667,315
Raw,5.25794447e+05,1668,315
Raw,1.75810271e+05,1669,315
Raw,5.83125471e+05,1670,315
Raw,5.07940909e+05,1671,315
Raw,7.43835697e+05,1672,315
Raw,6.15557e+05,1673,315
Raw,7.55754825e+05,1674,315
Raw,1.81161114e+05,1675,315
Raw,5.70257364e+05,1676,315
Raw,1.52522904e+06,1677,315
Raw,7.34576536e+05,1678,315
Raw,4.07655235e+05,1679,315
Raw,3.32864195e+05,1679,315
Raw,3.64848453e+05,1680,315
Raw,1.14527885e+06,1681,315
Raw,7.44339231e+05,1682,315
Raw,5.06126821e+05,1683,315
Raw,4.96818711e+05,1684,315
Raw,4.37976393e+05,1685,315
Raw,1.10109216e+05,1686,315
Raw,5.83345254e+05,1687,315
Raw,3.91373535e+05,1688,315
Raw,1.05478165e+06,1689,315
Raw,5.34581746e+05,1690,315
Raw,6.72105331e+05,1691,315
Raw,4.84620848e+05,1692,315
Raw,6.91141616e+05,1693,315
Raw,5.39943157e+05,1694,315
Raw,7.86311795e+05,1696,315
Raw,6.4074908e+05,1697,315
Raw,5.07938785e+05,1698,315
Raw,6.58320994e+05,1699,315
Raw,5.09276454e+05,1700,315
Raw,3.66932803e+05,1701,315
Raw,3.37526624e+05,1702,315
Raw,6.53753829e+05,1703,315
Raw,6.65258454e+05,1704,315
Raw,6.51679487e+05,1705,315
Raw,4.85541457e+05,1706,315
Raw,2.75894191e+05,1707,315
Raw,5.83286481e+05,1708,315
Raw,3.60516907e+05,1709,315
Raw,7.35644857e+05,1710,315
Raw,6.22535137e+05,1711,315
Raw,5.99659239e+05,1712,315
Raw,6.68246423e+05,1713,315
Raw,3.96712612e+05,1714,315
Raw,6.41018775e+05,1715,315
Raw,1.63034541e+05,1716,315
Raw,1.2743108e+05,1717,315
Raw,6.47326406e+05,1719,315
Raw,7.09586428e+05,1720,315
Raw,7.98391053e+05,1721,315
Raw,6.24870033e+05,1722,315
Raw,7.15536152e+05,1723,315
Raw,5.73487194e+05,1724,315
Raw,5.59187106e+05,1725,315
Raw,6.68422211e+05,1726,315
Raw,2.46187349e+05,1727,315
Raw,7.87507736e+05,1728,315
Raw,5.55880774e+05,1729,315
Raw,7.57006924e+05,1730,315
Raw,3.24247598e+05,1731,315
Raw,6.18752594e+05,1732,315
Raw,1.0679768e+06,1733,315
Raw,6.83841213e+05,1734,315
Raw,9.47499232e+05,1735,315
Raw,6.46166427e+05,1736,315
Raw,5.73915404e+05,1737,315
Raw,7.38392078e+05,1738,315
Raw,3.41231726e+05,1739,315
Raw,5.15652408e+05,1740,315
Raw,9.23227486e+05,1741,315
Raw,4.22180802e+05,1742,315
Raw,5.76763264e+05,1743,315
Raw,5.91819915e+05,1744,315
Raw,5.68028909e+05,1745,315
Raw,6.61060525e+05,1746,315
Raw,3.16154834e+05,1747,315
Raw,1.47491955e+05,1748,315
Raw,6.78688789e+05,1749,315
Raw,5.42725067e+05,1750,315
Raw,7.18423979e+05,1751,315
Raw,4.70233347e+05,1752,315
Raw,4.00143584e+05,1753,315
Raw,7.17395629e+05,1756,315
Raw,5.81053631e+05,1757,315
Raw,5.22742857e+05,1758,315
Raw,5.54401689e+05,1759,315
Raw,4.25578373e+05,1760,315
Raw,8.29106649e+05,1761,315
Raw,1.03717463e+06,1762,315
Raw,5.04258753e+05,1763,315
Raw,3.05255518e+05,1764,315
Raw,6.48221737e+05,1765,315
Raw,5.32903851e+05,1766,315
Raw,5.04859555e+05,1767,315
Raw,6.28542487e+05,1768,315
Raw,3.36890756e+05,1769,315
Raw,2.04746796e+05,1770,315
Raw,4.37080906e+05,1771,315
Raw,5.71568735e+05,1772,315
Raw,1.08937891e+06,1773,315
Raw,6.73852207e+05,1774,315
Raw,3.43945355e+05,1775,315
Raw,7.44389151e+05,1776,315
Raw,5.68088896e+05,1777,315
Raw,6.27396118e+05,1778,315
Raw,3.26098611e+05,1779,315
Raw,7.6998439e+05,1780,315
Raw,7.33119866e+05,1781,315
Raw,6.55128086e+05,1782,315
Raw,5.2015551e+05,1783,315
Raw,6.10805742e+05,1784,315
Raw,5.11850748e+05,1785,315
Raw,2.72473598e+05,1786,315
Raw,6.96333676e+05,1787,315
Raw,6.68359782e+05,1788,315
Raw,5.87641374e+05,1789,315
Raw,5.95641616e+05,1790,315
Raw,88756.672,1790,315
Raw,7.20720243e+05,1791,315
Raw,6.62237862e+05,1792,315
Raw,8.08772591e+05,1793,315
Raw,6.07948267e+05,1794,315
Raw,1.97174075e+05,1795,315
Raw,5.91607221e+05,1797,315
Raw,4.62523401e+05,1798,315
Raw,2.69386198e+05,1799,315
Raw,5.05625088e+05,1800,315
Raw,6.19423643e+05,1801,315
Raw,8.80397269e+05,1802,315
Raw,4.75678611e+05,1803,315
Raw,6.3328561e+05,1804,315
Raw,8.00262358e+05,1805,315
Raw,6.77271325e+05,1806,315
Raw,4.66887669e+05,1807,315
Raw,5.81339611e+05,1809,315
Raw,1.32808678e+06,1810,315
Raw,4.29585364e+05,1811,315
Raw,5.00034435e+05,1812,315
Raw,7.54553743e+05,1813,315
Raw,4.43339675e+05,1814,315
Raw,5.24330184e+05,1815,315
Raw,4.86164167e+05,1816,315
Raw,4.93826517e+05,1818,315
Raw,6.63076081e+05,1819,315
Raw,5.45748145e+05,1820,315
Raw,5.02211007e+05,1821,315
Raw,5.41504331e+05,1822,315
Raw,6.61774256e+05,1823,315
Raw,7.64427e+05,1825,315
Raw,6.45369007e+05,1826,315
Raw,3.46649075e+05,1828,315
Raw,6.57105244e+05,1829,315
Raw,2.26122375e+05,1830,315
Raw,5.14937816e+05,1831,315
Raw,4.79563601e+05,1832,315
Raw,4.09938131e+05,1833,315
Raw,3.61371939e+05,1834,315
Raw,6.96646869e+05,1835,315
Raw,7.06567219e+05,1836,315
Raw,6.22925095e+05,1837,315
Raw,8.26595273e+05,1838,315
Raw,3.39128756e+05,1839,315
Raw,7.52712569e+05,1840,315
Raw,4.24948392e+05,1841,315
Raw,2.965015e+05,1842,315
Raw,5.38006821e+05,1843,315
Raw,6.35888853e+05,1844,315
Raw,5.66385114e+05,1845,315
Raw,7.02067261e+05,1846,315
Raw,5.01528987e+05,1847,315
Raw,5.33116441e+05,1848,315
Raw,1.23390109e+06,1849,315
Raw,3.59024648e+05,1850,315
Raw,8.03459246e+05,1851,315
Raw,8.69854603e+05,1852,315
Raw,3.75823255e+05,1853,315
Raw,3.94238495e+05,1854,315
Raw,8.92115182e+05,1856,315
Raw,1.83166868e+05,1857,315
Raw,3.68648024e+05,1858,315
Raw,1.22856529e+05,1859,315
Raw,3.05961478e+05,1860,315
Raw,4.28544582e+05,1862,315
Raw,3.28793069e+05,1863,315
Raw,6.06452993e+05,1864,315
Raw,4.99643136e+05,1866,315
Raw,9.26476682e+05,1867,315
Raw,8.26831069e+05,1868,315
Raw,5.44446344e+05,1869,315
Raw,8.85758596e+05,1870,315
Raw,1.09115113e+06,1871,315
Raw,1.3519618e+05,1872,315
Raw,76542.538,1873,315
Raw,3.74419847e+05,1873,315
Raw,5.51896622e+05,1874,315
Raw,7.46101118e+05,1875,315
Raw,4.67143476e+05,1876,315
Raw,90672.429,1876,315
Raw,7.2962617e+05,1877,315
Raw,6.89913894e+05,1878,315
Raw,6.65943895e+05,1879,315
Raw,2.86330462e+05,1880,315
Raw,5.90964414e+05,1881,315
Raw,6.07987893e+05,1882,315
Raw,1.74333468e+05,1883,315
Raw,3.12119705e+05,1884,315
Raw,4.02603461e+05,1885,315
Raw,4.64689416e+05,1886,315
Raw,4.6065275e+05,1887,315
Raw,6.74115761e+05,1889,315
Raw,7.15815474e+05,1890,315
Raw,2.0914549e+05,1891,315
Raw,1.62196972e+05,1892,315
Raw,3.23500523e+05,1893,315
Raw,3.33667528e+05,1894,315
Raw,8.47796053e+05,1895,315
Raw,6.0554286e+05,1896,315
Raw,6.3330941e+05,1897,315
Raw,2.82231623e+05,1898,315
Raw,8.17017862e+05,1899,315
Raw,5.70208924e+05,1900,315
Raw,4.42177015e+05,1901,315
Raw,7.09435471e+05,1902,315
Raw,4.62098302e+05,1903,315
Raw,6.60053103e+05,1905,315
Raw,4.07440193e+05,1906,315
Raw,3.52189695e+05,1906,315
Raw,6.04094431e+05,1907,315
Raw,9.43153667e+05,1908,315
Raw,6.40064352e+05,1909,315
Raw,1.0712722e+05,1910,315
Raw,7.06918737e+05,1911,315
Raw,4.01195818e+05,1912,315
Raw,6.13428789e+05,1913,315
Raw,88729.605,1913,315
Raw,5.40857939e+05,1914,315
Raw,5.51005472e+05,1915,315
Raw,2.20097245e+05,1916,315
Raw,6.20751639e+05,1917,315
Raw,5.48534977e+05,1918,315
Raw,5.41950283e+05,1919,315
Raw,4.07842816e+05,1920,315
Raw,5.13831773e+05,1921,315
Raw,6.7337082e+05,1922,315
Raw,5.87488131e+05,1923,315
Raw,4.58985012e+05,1924,315
Raw,6.73228682e+05,1925,315
Raw,3.17789349e+05,1927,315
Raw,7.39408528e+05,1928,315
Raw,4.41821467e+05,1929,315
Raw,1.66578949e+05,1930,315
Raw,6.95009053e+05,1931,315
Raw,6.78787301e+05,1932,315
Raw,5.32898283e+05,1933,315
Raw,3.47385838e+05,1934,315
Raw,7.0562447e+05,1935,315
Raw,6.41278815e+05,1936,315
Raw,4.49110446e+05,1937,315
Raw,5.58483482e+05,1938,315
Raw,2.27703681e+05,1939,315
Raw,6.32259027e+05,1940,315
Raw,1.12485031e+05,1941,315
Raw,3.91829246e+05,1941,315
Raw,1.15290373e+06,1942,315
Raw,1.33457639e+06,1943,315
Raw,4.68221901e+05,1944,315
Raw,3.71686501e+05,1945,315
Raw,83727.539,1945,315
Raw,1.21945656e+05,1946,315
Raw,5.52647427e+05,1947,315
Raw,7.37459353e+05,1948,315
Raw,9.69767447e+05,1949,315
Raw,6.30168741e+05,1950,315
Raw,1.35595796e+06,1951,315
Raw,5.92652359e+05,1952,315
Raw,2.1137756e+05,1953,315
Raw,6.26198786e+05,1954,315
Raw,6.03819565e+05,1955,315
Raw,6.24050363e+05,1956,315
Raw,7.33417958e+05,1957,315
Raw,3.97882866e+05,1958,315
Raw,6.8445937e+05,1959,315
Raw,7.25617847e+05,1960,315
Raw,5.08486834e+05,1961,315
Raw,2.56340715e+05,1962,315
Raw,6.47795775e+05,1963,315
Raw,6.93551297e+05,1964,315
Raw,6.71826348e+05,1965,315
Raw,5.0483445e+05,1966,315
Raw,6.34500742e+05,1967,315
Raw,7.28509999e+05,1968,315
Raw,4.18772936e+05,1969,315
Raw,4.99091174e+05,1970,315
Raw,5.40896e+05,1971,315
Raw,8.0231552e+05,1972,315
Raw,7.40202219e+05,1973,315
Raw,1.6138314e+05,1974,315
Raw,1.93304862e+05,1975,315
Raw,5.8244751e+05,1976,315
Raw,6.48597213e+05,1977,315
Raw,4.40525187e+05,1978,315
Raw,6.10660496e+05,1979,315
Raw,5.41249818e+05,1980,315
Raw,6.93064648e+05,1981,315
Raw,4.8753453e+05,1982,315
Raw,5.26392323e+05,1983,315
Raw,2.90811635e+05,1984,315
Raw,7.89148914e+05,1985,315
Raw,1.79775701e+05,1986,315
Raw,4.64759791e+05,1987,315
Raw,1.18894496e+06,1988,315
Raw,6.68194396e+05,1989,315
Raw,6.16328773e+05,1990,315
Raw,1.48333412e+05,1991,315
Raw,6.22709617e+05,1992,315
Raw,2.48025584e+05,1994,315
Raw,6.40349393e+05,1995,315
Raw,6.80382613e+05,1997,315
Raw,6.65535424e+05,1998,315
Raw,1.38382788e+06,1999,315
Raw,4.6542769e+05,2000,315
Raw,6.83376229e+05,2001,315
Raw,5.83251981e+05,2002,315
Raw,4.7003146e+05,2003,315
Raw,6.88109275e+05,2004,315
Raw,2.1566979e+05,2005,315
Raw,3.59887652e+05,2006,315
Raw,6.1983393e+05,2007,315
Raw,6.77197359e+05,2008,315
Raw,5.48053916e+05,2009,315
Raw,6.16043252e+05,2010,315
Raw,6.77511297e+05,2011,315
Raw,5.50265405e+05,2012,315
Raw,6.68274369e+05,2013,315
Raw,6.35378997e+05,2014,315
Raw,3.52142262e+05,2015,315
Raw,7.68234441e+05,2016,315
Raw,3.10490202e+05,2018,315
Raw,6.8516585e+05,2019,315
Raw,53139.959,2019,315
Raw,1.03684899e+06,2020,315
Raw,6.37770976e+05,2021,315
Raw,7.09126956e+05,2022,315
Raw,8.0241915e+05,2023,315
Raw,6.78553139e+05,2026,315
Raw,3.30657747e+05,2027,315
Raw,6.61052582e+05,2028,315
Raw,4.16434781e+05,2029,315
Raw,3.74223462e+05,2030,315
Raw,6.93426102e+05,2031,315
Raw,4.10772721e+05,2032,315
Raw,1.17257385e+06,2033,315
Raw,7.10074461e+05,2034,315
Raw,5.96116371e+05,2035,315
Raw,3.96575989e+05,2036,315
Raw,6.72377768e+05,2037,315
Raw,3.64246292e+05,2038,315
Raw,7.92891647e+05,2039,315
Raw,3.98740555e+05,2040,315
Raw,7.20598687e+05,2041,315
Raw,5.78374008e+05,2042,315
Raw,8.13527187e+05,2043,315
Raw,2.53066469e+05,2044,315
Raw,1.26030015e+05,2045,315
Raw,2.47095847e+05,2045,315
Raw,9.67213935e+05,2046,315
Raw,2.99871187e+05,2047,315
Raw,5.81352322e+05,2048,315
Raw,3.3204228e+05,2049,315
Raw,1.26931062e+05,2050,315
Raw,6.88537588e+05,2051,315
Raw,7.19068641e+05,2053,315
Raw,5.01797591e+05,2053,315
Raw,6.57857607e+05,2054,315
Raw,7.4462364e+05,2055,315
Raw,4.39734565e+05,2056,315
Raw,1.03206837e+06,2058,315
Raw,7.77244379e+05,2059,315
Raw,4.3561846e+05,2060,315
Raw,2.29449736e+05,2061,315
Raw,6.21869559e+05,2062,315
Raw,4.45520362e+05,2063,315
Raw,5.03940089e+05,2064,315
Raw,2.73764173e+05,2065,315
Raw,5.93086507e+05,2066,315
Raw,5.87990639e+05,2067,315
Raw,4.84204631e+05,2068,315
Raw,6.25747595e+05,2069,315
Raw,1.7142803e+05,2070,315
Raw,1.50690813e+05,2072,315
Raw,7.65260598e+05,2073,315
Raw,4.55986496e+05,2075,315
Raw,7.06122472e+05,2076,315
Raw,6.44273297e+05,2077,315
Raw,2.58476854e+05,2078,315
Raw,4.49880624e+05,2079,315
Raw,6.57474052e+05,2080,315
Raw,6.87441705e+05,2081,315
Raw,9.87646607e+05,2082,315
Raw,5.11138063e+05,2083,315
Raw,5.66904043e+05,2084,315
Raw,5.22526805e+05,2085,315
Raw,75039.941,2085,315
Raw,6.66933274e+05,2086,315
Raw,4.47838515e+05,2087,315
Raw,1.08346588e+06,2088,315
Raw,3.9130416e+05,2089,315
Raw,4.00188794e+05,2090,315
Raw,2.79633057e+05,2091,315
Raw,4.88866956e+05,2092,315
Raw,2.80200631e+05,2093,315
Raw,6.81856541e+05,2095,315
Raw,7.28511281e+05,2096,315
Raw,8.52836136e+05,2098,315
Raw,6.65518405e+05,2099,315
Raw,8.85422696e+05,2101,315
Raw,6.55104189e+05,2102,315
Raw,7.15965122e+05,2104,315
Raw,8.98976192e+05,2105,315
Raw,5.89851731e+05,2106,315
Raw,3.54659799e+05,2107,315
Raw,6.35430963e+05,2108,315
Raw,6.48929039e+05,2109,315
Raw,6.96767192e+05,2110,315
Raw,6.34414391e+05,2111,315
Raw,6.20874594e+05,2112,315
Raw,7.47072813e+05,2113,315
Raw,7.42472584e+05,2114,315
Raw,4.68258163e+05,2115,315
Raw,5.1736144e+05,2116,315
Raw,7.46307396e+05,2117,315
Raw,6.14859656e+05,2118,315
Raw,6.81607144e+05,2119,315
Raw,9.05227048e+05,2120,315
Raw,3.69521629e+05,2121,315
Raw,8.79951876e+05,2122,315
Raw,6.8082565e+05,2124,315
Raw,7.637983e+05,2125,315
Raw,6.89398319e+05,2126,315
Raw,5.69221881e+05,2127,315
Raw,5.36397043e+05,2128,315
Raw,6.37105476e+05,2129,315
Raw,5.76695604e+05,2130,315
Raw,6.87538486e+05,2131,315
Raw,6.51237137e+05,2132,315
Raw,6.30984044e+05,2133,315
Raw,6.61436568e+05,2134,315
Raw,6.15331045e+05,2135,315
Raw,2.05905313e+05,2136,315
Raw,5.98977235e+05,2137,315
Raw,2.21025106e+05,2138,315
Raw,8.35893106e+05,2139,315
Raw,7.06475786e+05,2140,315
Raw,6.09583244e+05,2141,315
Raw,6.85549909e+05,2142,315
Raw,4.32125598e+05,2143,315
Raw,8.40151432e+05,2144,315
Raw,2.79127295e+05,2145,315
Raw,7.39480728e+05,2146,315
Raw,7.623618e+05,2147,315
Raw,6.43191606e+05,2148,315
Raw,5.86764989e+05,2149,315
Raw,7.2726249e+05,2152,315
Raw,5.39759138e+05,2153,315
Raw,6.29398997e+05,2154,315
Raw,4.91802083e+05,2155,315
Raw,5.95554598e+05,2156,315
Raw,5.25755949e+05,2157,315
Raw,6.97043445e+05,2159,315
Raw,3.36341987e+05,2160,315
Raw,5.07805208e+05,2161,315
Raw,1.08113873e+06,2162,315
Raw,6.05045018e+05,2163,315
Raw,7.93250758e+05,2164,315
Raw,6.55095988e+05,2165,315
Raw,6.40902412e+05,2166,315
Raw,3.26382566e+05,2167,315
Raw,5.79749827e+05,2168,315
Raw,2.65021457e+05,2169,315
Raw,7.92609636e+05,2170,315
Raw,6.00222157e+05,2171,315
Raw,6.28038275e+05,2172,315
Raw,7.05851321e+05,2173,315
Raw,6.82414248e+05,2174,315
Raw,3.18306149e+05,2175,315
Raw,6.3870087e+05,2176,315
Raw,6.25244095e+05,2177,315
Raw,6.95088736e+05,2178,315
Raw,4.58958781e+05,2179,315
Raw,6.9727449e+05,2180,315
Raw,4.85828122e+05,2181,315
Raw,5.33581034e+05,2182,315
Raw,7.26687221e+05,2183,315
Raw,2.78879889e+05,2184,315
Raw,4.65976569e+05,2185,315
Raw,6.97172955e+05,2186,315
Raw,4.0840602e+05,2187,315
Raw,5.78198019e+05,2188,315
Raw,2.92311551e+05,2189,315
Raw,9.41734339e+05,2190,315
Raw,5.08050387e+05,2191,315
Raw,1.33222158e+05,2192,315
Raw,7.12286804e+05,2193,315
Raw,2.30846824e+05,2194,315
Raw,5.21240406e+05,2195,315
Raw,8.06705009e+05,2196,315
Raw,2.34717184e+05,2197,315
Raw,6.06524535e+05,2198,315
Raw,7.75071258e+05,2199,315
Raw,5.58637354e+05,2200,315
Raw,6.41396115e+05,2201,315
Raw,5.87364635e+05,2202,315
Raw,6.49478014e+05,2203,315
Raw,6.62860631e+05,2204,315
Raw,5.95000417e+05,2205,315
Raw,5.35931475e+05,2206,315
Raw,5.64358876e+05,2207,315
Raw,7.97592204e+05,2208,315
Raw,6.45184844e+05,2209,315
Raw,6.67412843e+05,2210,315
Raw,8.74453989e+05,2211,315
Raw,6.84779896e+05,2212,315
Raw,6.27847095e+05,2213,315
Raw,3.29757741e+05,2214,315
Raw,3.79270897e+05,2215,315
Raw,5.43071889e+05,2216,315
Raw,3.19658421e+05,2217,315
Raw,7.29995283e+05,2218,315
Raw,5.66006625e+05,2219,315
Raw,1.88519637e+05,2220,315
Raw,6.23906248e+05,2221,315
Raw,7.06224413e+05,2222,315
Raw,61638.093,2222,315
Raw,4.00648089e+05,2223,315
Raw,6.73396784e+05,2224,315
Raw,6.90546459e+05,2225,315
Raw,5.92944115e+05,2226,315
Raw,6.31314621e+05,2227,315
Raw,4.67521578e+05,2228,315
Raw,5.86689287e+05,2229,315
Raw,7.20729216e+05,2230,315
Raw,3.43692954e+05,2231,315
Raw,7.02938049e+05,2232,315
Raw,2.74696653e+05,2233,315
Raw,2.28159566e+05,2234,315
Raw,2.07790012e+05,2235,315
Raw,8.28496003e+05,2236,315
Raw,7.15279817e+05,2237,315
Raw,2.0494318e+05,2238,315
Raw,3.95464995e+05,2239,315
Raw,4.77801756e+05,2240,315
Raw,9.27661995e+05,2241,315
Raw,6.18678633e+05,2242,315
Raw,4.96183978e+05,2243,315
Raw,9.51590387e+05,2244,315
Raw,8.47916261e+05,2245,315
Raw,9.9134118e+05,2246,315
Raw,6.02663693e+05,2247,315
Raw,6.1573102e+05,2249,315
Raw,5.96771729e+05,2250,315
Raw,9.42250138e+05,2251,315
Raw,1.28193026e+05,2252,315
Raw,4.93857044e+05,2253,315
Raw,5.82560294e+05,2255,315
Raw,3.10259965e+05,2256,315
Raw,5.9382241e+05,2257,315
Raw,8.44970823e+05,2258,315
Raw,1.0764266e+06,2259,315
Raw,1.00604326e+06,2260,315
Raw,26118.933,2260,315
Raw,6.3521814e+05,2261,315
Raw,1.78814873e+06,2262,315
Raw,5.17609787e+05,2263,315
Raw,2.98747149e+05,2264,315
Raw,6.58629932e+05,2265,315
Raw,1.21006613e+05,2266,315
Raw,4.38742386e+05,2267,315
Raw,2.74616047e+05,2268,315
Raw,3.6405961e+05,2269,315
Raw,8.15284059e+05,2270,315
Raw,1.01343262e+06,2271,315
Raw,5.76109013e+05,2272,315
Raw,5.64187473e+05,2273,315
Raw,8.19427408e+05,2274,315
Raw,8.40157638e+05,2275,315
