Cut?,Counts,eventNumber,runNumber
Raw,163,0,349
Raw,178,2,349
Raw,158,3,349
Raw,43,3,349
Raw,44,3,349
Raw,172,4,349
Raw,151,5,349
Raw,150,6,349
Raw,129,7,349
Raw,164,8,349
Raw,152,9,349
Raw,170,10,349
Raw,117,11,349
Raw,141,12,349
Raw,88,13,349
Raw,170,14,349
Raw,73,14,349
Raw,216,15,349
Raw,211,16,349
Raw,159,17,349
Raw,172,18,349
Raw,151,19,349
Raw,193,20,349
Raw,155,21,349
Raw,123,22,349
Raw,118,23,349
Raw,122,24,349
Raw,168,25,349
Raw,169,27,349
Raw,157,28,349
Raw,207,29,349
Raw,128,31,349
Raw,153,32,349
Raw,150,33,349
Raw,174,34,349
Raw,149,35,349
Raw,184,36,349
Raw,169,37,349
Raw,172,38,349
Raw,195,39,349
Raw,165,40,349
Raw,137,41,349
Raw,178,42,349
Raw,147,43,349
Raw,149,44,349
Raw,278,45,349
Raw,199,46,349
Raw,108,47,349
Raw,157,48,349
Raw,156,49,349
Raw,164,50,349
Raw,157,51,349
Raw,176,52,349
Raw,198,53,349
Raw,220,55,349
Raw,152,56,349
Raw,138,57,349
Raw,151,58,349
Raw,122,59,349
Raw,134,60,349
Raw,155,61,349
Raw,151,62,349
Raw,141,63,349
Raw,151,64,349
Raw,196,65,349
Raw,173,66,349
Raw,144,67,349
Raw,162,69,349
Raw,159,70,349
Raw,133,71,349
Raw,159,72,349
Raw,169,73,349
Raw,86,73,349
Raw,169,74,349
Raw,163,76,349
Raw,105,77,349
Raw,174,78,349
Raw,167,79,349
Raw,153,80,349
Raw,221,81,349
Raw,155,82,349
Raw,155,83,349
Raw,155,84,349
Raw,162,85,349
Raw,144,86,349
Raw,163,87,349
Raw,182,88,349
Raw,133,89,349
Raw,153,90,349
Raw,138,91,349
Raw,152,92,349
Raw,182,93,349
Raw,179,94,349
Raw,141,95,349
Raw,149,96,349
Raw,98,97,349
Raw,159,98,349
Raw,164,99,349
Raw,114,100,349
Raw,190,101,349
Raw,165,103,349
Raw,160,104,349
Raw,272,105,349
Raw,151,106,349
Raw,104,107,349
Raw,173,108,349
Raw,111,109,349
Raw,171,110,349
Raw,8,110,349
Raw,142,111,349
Raw,170,112,349
Raw,113,113,349
Raw,162,115,349
Raw,170,116,349
Raw,157,117,349
Raw,163,118,349
Raw,174,119,349
Raw,142,120,349
Raw,113,121,349
Raw,230,122,349
Raw,193,123,349
Raw,156,124,349
Raw,141,125,349
Raw,175,126,349
Raw,146,127,349
Raw,156,128,349
Raw,172,129,349
Raw,121,130,349
Raw,169,131,349
Raw,71,131,349
Raw,211,132,349
Raw,172,133,349
Raw,132,135,349
Raw,237,136,349
Raw,176,137,349
Raw,129,138,349
Raw,180,139,349
Raw,185,140,349
Raw,174,142,349
Raw,172,143,349
Raw,190,144,349
Raw,153,145,349
Raw,182,146,349
Raw,156,147,349
Raw,169,148,349
Raw,163,149,349
Raw,185,150,349
Raw,85,151,349
Raw,181,152,349
Raw,17,152,349
Raw,199,153,349
Raw,128,155,349
Raw,348,156,349
Raw,170,157,349
Raw,303,158,349
Raw,154,159,349
Raw,38,159,349
Raw,158,160,349
Raw,166,163,349
Raw,103,164,349
Raw,160,165,349
Raw,54,165,349
Raw,172,166,349
Raw,161,167,349
Raw,169,168,349
Raw,185,169,349
Raw,119,170,349
Raw,173,172,349
Raw,178,173,349
Raw,144,174,349
Raw,93,175,349
Raw,320,176,349
Raw,178,177,349
Raw,157,178,349
Raw,158,179,349
Raw,149,180,349
Raw,156,181,349
Raw,149,182,349
Raw,115,183,349
Raw,211,184,349
Raw,139,185,349
Raw,164,186,349
Raw,210,187,349
Raw,151,188,349
Raw,137,189,349
Raw,179,190,349
Raw,186,191,349
Raw,126,192,349
Raw,446,193,349
Raw,158,194,349
Raw,148,195,349
Raw,148,196,349
Raw,160,197,349
Raw,134,198,349
Raw,153,200,349
Raw,137,201,349
Raw,170,202,349
Raw,223,203,349
Raw,170,204,349
Raw,182,205,349
Raw,169,206,349
Raw,174,207,349
Raw,167,208,349
Raw,167,209,349
Raw,182,210,349
Raw,44,210,349
Raw,216,211,349
Raw,154,212,349
Raw,146,213,349
Raw,350,214,349
Raw,364,215,349
Raw,145,216,349
Raw,161,217,349
Raw,142,218,349
Raw,172,219,349
Raw,156,220,349
Raw,166,221,349
Raw,168,222,349
Raw,63,222,349
Raw,390,223,349
Raw,145,224,349
Raw,155,225,349
Raw,155,226,349
Raw,183,227,349
Raw,167,228,349
Raw,155,229,349
Raw,154,230,349
Raw,183,231,349
Raw,156,232,349
Raw,440,233,349
Raw,165,234,349
Raw,32,234,349
Raw,158,235,349
Raw,166,236,349
Raw,207,237,349
Raw,91,238,349
Raw,198,239,349
Raw,183,240,349
Raw,158,241,349
Raw,135,242,349
Raw,126,243,349
Raw,121,244,349
Raw,47,244,349
Raw,148,245,349
Raw,173,246,349
Raw,156,247,349
Raw,112,248,349
Raw,188,249,349
Raw,280,250,349
Raw,137,251,349
Raw,242,252,349
Raw,170,253,349
Raw,80,253,349
Raw,137,254,349
Raw,157,255,349
Raw,171,256,349
Raw,118,257,349
Raw,149,258,349
Raw,174,259,349
Raw,209,260,349
Raw,183,261,349
Raw,166,262,349
Raw,106,264,349
Raw,250,265,349
Raw,154,266,349
Raw,154,267,349
Raw,21,267,349
Raw,162,268,349
Raw,157,269,349
Raw,161,270,349
Raw,336,271,349
Raw,159,272,349
Raw,182,273,349
Raw,139,274,349
Raw,170,275,349
Raw,166,276,349
Raw,140,277,349
Raw,142,278,349
Raw,165,279,349
Raw,236,280,349
Raw,106,281,349
Raw,88,281,349
Raw,91,282,349
Raw,128,283,349
Raw,180,284,349
Raw,159,285,349
Raw,174,286,349
Raw,204,287,349
Raw,177,288,349
Raw,164,289,349
Raw,170,291,349
Raw,173,292,349
Raw,101,293,349
Raw,137,294,349
Raw,180,295,349
Raw,54,295,349
Raw,150,296,349
Raw,126,297,349
Raw,141,298,349
Raw,182,299,349
Raw,154,300,349
Raw,93,300,349
Raw,165,301,349
Raw,118,302,349
Raw,173,303,349
Raw,148,304,349
Raw,95,305,349
Raw,151,306,349
Raw,230,307,349
Raw,234,308,349
Raw,182,309,349
Raw,152,310,349
Raw,325,311,349
Raw,110,312,349
Raw,166,313,349
Raw,135,315,349
Raw,175,316,349
Raw,145,318,349
Raw,87,318,349
Raw,173,319,349
Raw,165,320,349
Raw,167,321,349
Raw,144,322,349
Raw,163,323,349
Raw,161,324,349
Raw,219,325,349
Raw,173,326,349
Raw,132,327,349
Raw,182,328,349
Raw,175,329,349
Raw,97,330,349
Raw,140,331,349
Raw,196,332,349
Raw,114,333,349
Raw,119,334,349
Raw,79,335,349
Raw,122,335,349
Raw,137,336,349
Raw,169,337,349
Raw,163,338,349
Raw,160,339,349
Raw,171,340,349
Raw,145,341,349
Raw,187,342,349
Raw,177,344,349
Raw,155,345,349
Raw,167,346,349
Raw,166,347,349
Raw,97,348,349
Raw,159,349,349
Raw,32,349,349
Raw,154,350,349
Raw,129,351,349
Raw,159,352,349
Raw,183,353,349
Raw,177,354,349
Raw,154,355,349
Raw,156,356,349
Raw,178,357,349
Raw,57,357,349
Raw,154,358,349
Raw,207,359,349
Raw,113,360,349
Raw,162,361,349
Raw,13,361,349
Raw,163,362,349
Raw,166,363,349
Raw,165,364,349
Raw,158,365,349
Raw,151,366,349
Raw,146,367,349
Raw,165,368,349
Raw,155,369,349
Raw,183,370,349
Raw,122,371,349
Raw,45,371,349
Raw,159,372,349
Raw,143,373,349
Raw,167,374,349
Raw,53,374,349
Raw,191,375,349
Raw,142,376,349
Raw,164,377,349
Raw,153,378,349
Raw,162,379,349
Raw,146,380,349
Raw,124,381,349
Raw,182,382,349
Raw,172,383,349
Raw,204,384,349
Raw,122,385,349
Raw,158,387,349
Raw,172,388,349
Raw,166,389,349
Raw,159,390,349
Raw,145,391,349
Raw,202,392,349
Raw,243,394,349
Raw,111,395,349
Raw,156,396,349
Raw,132,397,349
Raw,143,398,349
Raw,154,399,349
Raw,73,399,349
Raw,157,400,349
Raw,249,401,349
Raw,151,402,349
Raw,153,403,349
Raw,106,405,349
Raw,167,406,349
Raw,154,408,349
Raw,172,409,349
Raw,176,410,349
Raw,115,411,349
Raw,149,413,349
Raw,144,414,349
Raw,166,416,349
Raw,155,417,349
Raw,145,418,349
Raw,154,419,349
Raw,100,420,349
Raw,156,421,349
Raw,155,422,349
Raw,104,423,349
Raw,214,424,349
Raw,164,425,349
Raw,157,426,349
Raw,164,427,349
Raw,26,427,349
Raw,174,428,349
Raw,131,429,349
Raw,209,431,349
Raw,211,432,349
Raw,146,434,349
Raw,183,435,349
Raw,144,436,349
Raw,150,437,349
Raw,165,438,349
Raw,156,439,349
Raw,147,440,349
Raw,163,441,349
Raw,145,442,349
Raw,165,443,349
Raw,71,443,349
Raw,160,444,349
Raw,237,445,349
Raw,189,446,349
Raw,149,447,349
Raw,119,448,349
Raw,151,449,349
Raw,246,450,349
Raw,30,450,349
Raw,215,451,349
Raw,171,452,349
Raw,147,453,349
Raw,174,454,349
Raw,73,454,349
Raw,150,455,349
Raw,87,455,349
Raw,144,456,349
Raw,151,457,349
Raw,193,458,349
Raw,152,459,349
Raw,158,460,349
Raw,193,461,349
Raw,166,462,349
Raw,179,463,349
Raw,147,464,349
Raw,153,465,349
Raw,178,466,349
Raw,101,467,349
Raw,168,468,349
Raw,248,469,349
Raw,164,470,349
Raw,66,471,349
Raw,168,472,349
Raw,155,473,349
Raw,245,474,349
Raw,154,476,349
Raw,166,477,349
Raw,187,478,349
Raw,163,479,349
Raw,165,480,349
Raw,171,481,349
Raw,169,482,349
Raw,146,483,349
Raw,61,483,349
Raw,165,484,349
Raw,221,485,349
Raw,158,486,349
Raw,126,487,349
Raw,162,488,349
Raw,147,488,349
Raw,169,489,349
Raw,151,490,349
Raw,209,491,349
Raw,151,492,349
Raw,169,493,349
Raw,158,494,349
Raw,299,495,349
Raw,146,495,349
Raw,242,496,349
Raw,160,497,349
Raw,168,498,349
Raw,163,499,349
Raw,52,499,349
Raw,215,500,349
Raw,210,501,349
Raw,166,502,349
Raw,151,503,349
Raw,155,504,349
Raw,168,505,349
Raw,156,506,349
Raw,149,507,349
Raw,166,508,349
Raw,186,509,349
Raw,162,510,349
Raw,221,511,349
Raw,100,512,349
Raw,46,512,349
Raw,280,513,349
Raw,162,514,349
Raw,177,515,349
Raw,167,516,349
Raw,121,517,349
Raw,184,518,349
Raw,142,520,349
Raw,139,521,349
Raw,141,522,349
Raw,166,523,349
Raw,251,524,349
Raw,161,525,349
Raw,177,526,349
Raw,62,526,349
Raw,150,527,349
Raw,175,528,349
Raw,106,529,349
Raw,111,530,349
Raw,161,531,349
Raw,54,532,349
Raw,101,532,349
Raw,162,533,349
Raw,159,534,349
Raw,234,535,349
Raw,138,536,349
Raw,191,537,349
Raw,90,537,349
Raw,175,538,349
Raw,158,539,349
Raw,199,540,349
Raw,162,541,349
Raw,192,542,349
Raw,101,543,349
Raw,159,544,349
Raw,104,545,349
Raw,112,546,349
Raw,149,547,349
Raw,107,548,349
Raw,157,549,349
Raw,56,549,349
Raw,163,550,349
Raw,227,551,349
Raw,148,552,349
Raw,143,553,349
Raw,148,554,349
Raw,145,555,349
Raw,151,556,349
Raw,221,557,349
Raw,164,558,349
Raw,167,560,349
Raw,187,561,349
Raw,163,562,349
Raw,240,563,349
Raw,209,564,349
Raw,172,565,349
Raw,125,566,349
Raw,158,567,349
Raw,160,568,349
Raw,179,569,349
Raw,224,570,349
Raw,174,571,349
Raw,106,572,349
Raw,190,573,349
Raw,160,574,349
Raw,165,575,349
Raw,68,575,349
Raw,170,576,349
Raw,206,577,349
Raw,153,578,349
Raw,194,579,349
Raw,104,580,349
Raw,152,581,349
Raw,247,582,349
Raw,169,583,349
Raw,128,585,349
Raw,219,586,349
Raw,41,587,349
Raw,123,587,349
Raw,159,588,349
Raw,102,589,349
Raw,165,590,349
Raw,211,591,349
Raw,147,592,349
Raw,123,593,349
Raw,160,594,349
Raw,161,595,349
Raw,153,596,349
Raw,159,597,349
Raw,159,598,349
Raw,121,599,349
Raw,141,600,349
Raw,175,601,349
Raw,329,602,349
Raw,178,603,349
Raw,89,603,349
Raw,163,604,349
Raw,172,605,349
Raw,198,606,349
Raw,157,607,349
Raw,160,608,349
Raw,163,609,349
Raw,141,610,349
Raw,163,611,349
Raw,180,612,349
Raw,107,613,349
Raw,145,614,349
Raw,149,615,349
Raw,129,616,349
Raw,123,617,349
Raw,158,618,349
Raw,157,619,349
Raw,145,620,349
Raw,160,621,349
Raw,119,622,349
Raw,172,623,349
Raw,196,624,349
Raw,187,625,349
Raw,154,626,349
Raw,119,627,349
Raw,155,628,349
Raw,164,630,349
Raw,138,631,349
Raw,172,632,349
Raw,142,633,349
Raw,117,634,349
Raw,109,635,349
Raw,167,636,349
Raw,143,638,349
Raw,148,641,349
Raw,79,642,349
Raw,152,643,349
Raw,158,644,349
Raw,129,645,349
Raw,217,646,349
Raw,172,647,349
Raw,48,647,349
Raw,182,648,349
Raw,127,649,349
Raw,114,650,349
Raw,165,651,349
Raw,156,652,349
Raw,91,653,349
Raw,274,654,349
Raw,152,655,349
Raw,116,656,349
Raw,157,657,349
Raw,139,658,349
Raw,67,658,349
Raw,141,659,349
Raw,156,660,349
Raw,130,661,349
Raw,188,662,349
Raw,225,663,349
Raw,66,664,349
Raw,100,664,349
Raw,122,665,349
Raw,138,666,349
Raw,161,667,349
Raw,185,668,349
Raw,145,669,349
Raw,175,670,349
Raw,173,671,349
Raw,226,672,349
Raw,219,673,349
Raw,174,674,349
Raw,99,675,349
Raw,148,676,349
Raw,170,677,349
Raw,201,679,349
Raw,172,680,349
Raw,105,681,349
Raw,99,682,349
Raw,138,683,349
Raw,208,684,349
Raw,149,685,349
Raw,180,686,349
Raw,151,687,349
Raw,131,688,349
Raw,154,690,349
Raw,157,691,349
Raw,105,692,349
Raw,122,693,349
Raw,106,695,349
Raw,170,696,349
Raw,60,696,349
Raw,157,697,349
Raw,138,698,349
Raw,138,699,349
Raw,153,700,349
Raw,132,701,349
Raw,132,703,349
Raw,150,704,349
Raw,171,705,349
Raw,181,706,349
Raw,176,707,349
Raw,54,707,349
Raw,180,708,349
Raw,152,709,349
Raw,156,710,349
Raw,146,711,349
Raw,82,711,349
Raw,74,712,349
Raw,98,712,349
Raw,172,713,349
Raw,155,714,349
Raw,162,715,349
Raw,174,717,349
Raw,192,718,349
Raw,165,719,349
Raw,163,720,349
Raw,172,721,349
Raw,129,722,349
Raw,160,723,349
Raw,169,724,349
Raw,100,725,349
Raw,154,726,349
Raw,153,727,349
Raw,123,728,349
Raw,158,729,349
Raw,44,729,349
Raw,153,730,349
Raw,47,730,349
Raw,160,732,349
Raw,142,733,349
Raw,157,734,349
Raw,169,735,349
Raw,175,736,349
Raw,171,737,349
Raw,139,738,349
Raw,175,739,349
Raw,134,740,349
Raw,235,741,349
Raw,137,742,349
Raw,408,743,349
Raw,138,745,349
Raw,158,746,349
Raw,130,747,349
Raw,153,748,349
Raw,155,749,349
Raw,158,750,349
Raw,170,751,349
Raw,158,752,349
Raw,147,753,349
Raw,157,754,349
Raw,172,756,349
Raw,155,757,349
Raw,105,758,349
Raw,131,759,349
Raw,190,760,349
Raw,191,761,349
Raw,189,762,349
Raw,232,763,349
Raw,113,764,349
Raw,121,765,349
Raw,260,766,349
Raw,213,766,349
Raw,68,766,349
Raw,120,767,349
Raw,221,768,349
Raw,138,769,349
Raw,177,770,349
Raw,154,771,349
Raw,174,772,349
Raw,92,773,349
Raw,147,774,349
Raw,35,774,349
Raw,157,775,349
Raw,158,776,349
Raw,156,777,349
Raw,126,779,349
Raw,175,780,349
Raw,197,781,349
Raw,171,782,349
Raw,167,783,349
Raw,187,784,349
Raw,139,785,349
Raw,158,786,349
Raw,170,787,349
Raw,174,788,349
Raw,154,789,349
Raw,188,790,349
Raw,182,791,349
Raw,215,792,349
Raw,154,793,349
Raw,125,794,349
Raw,162,795,349
Raw,112,796,349
Raw,133,797,349
Raw,147,798,349
Raw,158,799,349
Raw,161,800,349
Raw,145,801,349
Raw,163,802,349
Raw,182,803,349
Raw,155,804,349
Raw,162,805,349
Raw,209,806,349
Raw,153,807,349
Raw,158,808,349
Raw,138,809,349
Raw,176,810,349
Raw,171,811,349
Raw,152,812,349
Raw,135,813,349
Raw,147,815,349
Raw,177,818,349
Raw,206,819,349
Raw,130,820,349
Raw,156,821,349
Raw,165,823,349
Raw,168,824,349
Raw,148,825,349
Raw,159,826,349
Raw,212,827,349
Raw,129,828,349
Raw,144,829,349
Raw,154,830,349
Raw,158,831,349
Raw,152,832,349
Raw,188,833,349
Raw,153,834,349
Raw,126,835,349
Raw,268,836,349
Raw,134,837,349
Raw,205,838,349
Raw,175,839,349
Raw,143,840,349
Raw,116,841,349
Raw,151,842,349
Raw,192,843,349
Raw,237,844,349
Raw,160,845,349
Raw,158,846,349
Raw,108,847,349
Raw,165,848,349
Raw,220,849,349
Raw,179,850,349
Raw,154,851,349
Raw,167,852,349
Raw,161,853,349
Raw,54,853,349
Raw,171,854,349
Raw,21,854,349
Raw,176,855,349
Raw,69,855,349
Raw,97,856,349
Raw,223,857,349
Raw,174,858,349
Raw,247,859,349
Raw,129,860,349
Raw,193,862,349
Raw,175,863,349
Raw,159,864,349
Raw,178,865,349
Raw,123,866,349
Raw,153,867,349
Raw,176,868,349
Raw,151,869,349
Raw,173,870,349
Raw,179,871,349
Raw,157,872,349
Raw,176,873,349
Raw,162,874,349
Raw,147,875,349
Raw,166,876,349
Raw,177,877,349
Raw,164,878,349
Raw,141,879,349
Raw,185,880,349
Raw,277,881,349
Raw,165,882,349
Raw,160,883,349
Raw,137,884,349
Raw,160,885,349
Raw,243,886,349
Raw,149,887,349
Raw,167,888,349
Raw,120,888,349
Raw,159,889,349
Raw,127,890,349
Raw,199,891,349
Raw,169,892,349
Raw,144,893,349
Raw,157,894,349
Raw,125,895,349
Raw,159,896,349
Raw,158,897,349
Raw,168,898,349
Raw,140,899,349
Raw,158,900,349
Raw,186,901,349
Raw,159,902,349
Raw,171,903,349
Raw,156,904,349
Raw,100,905,349
Raw,84,906,349
Raw,232,907,349
Raw,137,908,349
Raw,162,909,349
Raw,165,910,349
Raw,73,910,349
Raw,158,911,349
Raw,135,912,349
Raw,158,913,349
Raw,163,914,349
Raw,142,915,349
Raw,114,916,349
Raw,162,918,349
Raw,157,919,349
Raw,181,920,349
Raw,154,921,349
Raw,140,922,349
Raw,170,923,349
Raw,159,924,349
Raw,117,925,349
Raw,156,926,349
Raw,162,927,349
Raw,172,928,349
Raw,173,929,349
Raw,210,930,349
Raw,153,931,349
Raw,162,932,349
Raw,177,933,349
Raw,162,934,349
Raw,140,935,349
Raw,143,936,349
Raw,146,937,349
Raw,169,938,349
Raw,99,939,349
Raw,183,940,349
Raw,154,941,349
Raw,141,942,349
Raw,184,943,349
Raw,149,944,349
Raw,148,945,349
Raw,114,946,349
Raw,166,947,349
Raw,153,948,349
Raw,171,949,349
Raw,159,950,349
Raw,187,951,349
Raw,204,952,349
Raw,201,953,349
Raw,164,954,349
Raw,146,955,349
Raw,136,956,349
Raw,159,957,349
Raw,148,958,349
Raw,32,959,349
Raw,92,959,349
Raw,165,960,349
Raw,156,961,349
Raw,166,962,349
Raw,157,963,349
Raw,162,964,349
Raw,147,965,349
Raw,145,966,349
Raw,206,967,349
Raw,23,967,349
Raw,169,968,349
Raw,156,969,349
Raw,173,970,349
Raw,65,971,349
Raw,125,971,349
Raw,144,973,349
Raw,147,974,349
Raw,147,975,349
Raw,144,976,349
Raw,151,977,349
Raw,161,978,349
Raw,158,979,349
Raw,146,980,349
Raw,164,981,349
Raw,153,982,349
Raw,269,983,349
Raw,182,984,349
Raw,146,985,349
Raw,158,986,349
Raw,152,987,349
Raw,168,988,349
Raw,134,989,349
Raw,169,990,349
Raw,170,991,349
Raw,183,992,349
Raw,154,993,349
Raw,155,994,349
Raw,131,995,349
Raw,140,996,349
Raw,155,997,349
Raw,181,998,349
Raw,89,999,349
Raw,172,1000,349
Raw,162,1001,349
Raw,149,1002,349
Raw,170,1003,349
Raw,161,1004,349
Raw,164,1005,349
Raw,148,1006,349
Raw,233,1007,349
Raw,143,1009,349
Raw,132,1011,349
Raw,124,1012,349
Raw,152,1014,349
Raw,121,1015,349
Raw,215,1016,349
Raw,182,1017,349
Raw,159,1018,349
Raw,131,1020,349
Raw,169,1021,349
Raw,151,1022,349
Raw,115,1023,349
Raw,49,1023,349
Raw,250,1024,349
Raw,142,1025,349
Raw,152,1026,349
Raw,146,1027,349
Raw,163,1028,349
Raw,177,1029,349
Raw,133,1030,349
Raw,132,1031,349
Raw,184,1032,349
Raw,129,1033,349
Raw,153,1034,349
Raw,157,1035,349
Raw,144,1036,349
Raw,171,1037,349
Raw,142,1038,349
Raw,111,1039,349
Raw,62,1039,349
Raw,166,1040,349
Raw,129,1041,349
Raw,184,1042,349
Raw,157,1043,349
Raw,153,1044,349
Raw,48,1044,349
Raw,97,1045,349
Raw,129,1046,349
Raw,126,1047,349
Raw,173,1048,349
Raw,166,1049,349
Raw,105,1050,349
Raw,144,1051,349
Raw,240,1052,349
Raw,161,1053,349
Raw,257,1054,349
Raw,102,1055,349
Raw,132,1056,349
Raw,158,1057,349
Raw,130,1058,349
Raw,176,1059,349
Raw,119,1060,349
Raw,135,1061,349
Raw,172,1062,349
Raw,165,1063,349
Raw,147,1064,349
Raw,194,1065,349
Raw,166,1066,349
Raw,147,1067,349
Raw,170,1068,349
Raw,159,1069,349
Raw,154,1070,349
Raw,167,1071,349
Raw,153,1072,349
Raw,167,1074,349
Raw,141,1075,349
Raw,98,1076,349
Raw,147,1077,349
Raw,27,1077,349
Raw,160,1080,349
Raw,148,1081,349
Raw,163,1082,349
Raw,161,1083,349
Raw,130,1084,349
Raw,67,1084,349
Raw,152,1086,349
Raw,159,1087,349
Raw,114,1088,349
Raw,216,1089,349
Raw,159,1090,349
Raw,190,1091,349
Raw,157,1092,349
Raw,160,1093,349
Raw,64,1093,349
Raw,170,1094,349
Raw,64,1094,349
Raw,115,1096,349
Raw,181,1097,349
Raw,161,1098,349
Raw,48,1098,349
Raw,153,1099,349
Raw,172,1100,349
Raw,161,1101,349
Raw,193,1102,349
Raw,142,1103,349
Raw,155,1104,349
Raw,167,1105,349
Raw,148,1106,349
Raw,130,1107,349
Raw,130,1108,349
Raw,159,1109,349
Raw,143,1111,349
Raw,154,1112,349
Raw,146,1113,349
Raw,109,1114,349
Raw,153,1115,349
Raw,165,1116,349
Raw,145,1117,349
Raw,150,1118,349
Raw,144,1119,349
Raw,197,1120,349
Raw,156,1121,349
Raw,195,1122,349
Raw,162,1123,349
Raw,182,1124,349
Raw,165,1125,349
Raw,153,1126,349
Raw,124,1127,349
Raw,137,1128,349
Raw,11,1128,349
Raw,92,1129,349
Raw,171,1130,349
Raw,125,1131,349
Raw,174,1132,349
Raw,153,1133,349
Raw,125,1134,349
Raw,154,1135,349
Raw,174,1136,349
Raw,190,1137,349
Raw,137,1138,349
Raw,195,1139,349
Raw,167,1140,349
Raw,155,1141,349
Raw,66,1143,349
Raw,109,1143,349
Raw,148,1144,349
Raw,274,1145,349
Raw,92,1146,349
Raw,152,1147,349
Raw,183,1148,349
Raw,138,1149,349
Raw,171,1150,349
Raw,167,1151,349
Raw,110,1152,349
Raw,195,1153,349
Raw,167,1154,349
Raw,155,1155,349
Raw,137,1157,349
Raw,179,1158,349
Raw,163,1159,349
Raw,214,1160,349
Raw,194,1161,349
Raw,169,1162,349
Raw,167,1163,349
Raw,92,1164,349
Raw,211,1165,349
Raw,173,1166,349
Raw,143,1167,349
Raw,138,1168,349
Raw,135,1169,349
Raw,155,1170,349
Raw,150,1171,349
Raw,128,1172,349
Raw,152,1173,349
Raw,164,1174,349
Raw,121,1175,349
Raw,161,1176,349
Raw,232,1177,349
Raw,132,1178,349
Raw,73,1178,349
Raw,159,1179,349
Raw,183,1180,349
Raw,117,1181,349
Raw,144,1182,349
Raw,157,1184,349
Raw,170,1185,349
Raw,156,1186,349
Raw,130,1187,349
Raw,149,1188,349
Raw,114,1189,349
Raw,16,1189,349
Raw,213,1190,349
Raw,8,1190,349
Raw,130,1191,349
Raw,130,1192,349
Raw,119,1193,349
Raw,161,1194,349
Raw,160,1196,349
Raw,158,1197,349
Raw,138,1198,349
Raw,107,1200,349
Raw,150,1202,349
Raw,145,1203,349
Raw,162,1204,349
Raw,157,1205,349
Raw,172,1206,349
Raw,150,1207,349
Raw,234,1208,349
Raw,171,1209,349
Raw,150,1210,349
Raw,153,1211,349
Raw,50,1211,349
Raw,100,1212,349
Raw,162,1213,349
Raw,42,1213,349
Raw,175,1214,349
Raw,134,1215,349
Raw,153,1216,349
Raw,150,1217,349
Raw,149,1218,349
Raw,193,1219,349
Raw,100,1220,349
Raw,247,1221,349
Raw,152,1222,349
Raw,159,1223,349
Raw,171,1224,349
Raw,159,1226,349
Raw,165,1227,349
Raw,173,1228,349
Raw,141,1229,349
Raw,242,1230,349
Raw,122,1231,349
Raw,152,1232,349
Raw,178,1233,349
Raw,142,1234,349
Raw,168,1235,349
Raw,145,1236,349
Raw,165,1237,349
Raw,229,1238,349
Raw,164,1239,349
Raw,182,1240,349
Raw,213,1241,349
Raw,65,1241,349
Raw,172,1242,349
Raw,150,1243,349
Raw,150,1244,349
Raw,167,1245,349
Raw,152,1246,349
Raw,142,1247,349
Raw,79,1247,349
Raw,170,1248,349
Raw,176,1249,349
Raw,152,1250,349
Raw,79,1250,349
Raw,143,1251,349
Raw,150,1252,349
Raw,152,1253,349
Raw,136,1254,349
Raw,146,1255,349
Raw,96,1256,349
Raw,155,1257,349
Raw,101,1258,349
Raw,153,1260,349
Raw,167,1261,349
Raw,192,1262,349
Raw,136,1263,349
Raw,191,1264,349
Raw,173,1265,349
Raw,158,1266,349
Raw,136,1267,349
Raw,159,1268,349
Raw,107,1269,349
Raw,157,1270,349
Raw,165,1271,349
Raw,172,1272,349
Raw,147,1273,349
Raw,145,1274,349
Raw,155,1275,349
Raw,111,1276,349
Raw,123,1277,349
Raw,118,1278,349
Raw,182,1279,349
Raw,153,1280,349
Raw,133,1281,349
Raw,175,1282,349
Raw,152,1283,349
Raw,177,1284,349
Raw,107,1285,349
Raw,183,1287,349
Raw,160,1288,349
Raw,145,1289,349
Raw,173,1290,349
Raw,99,1291,349
Raw,167,1292,349
Raw,155,1293,349
Raw,147,1294,349
Raw,118,1295,349
Raw,162,1296,349
Raw,164,1297,349
Raw,185,1298,349
Raw,172,1299,349
Raw,172,1300,349
Raw,183,1301,349
Raw,161,1302,349
Raw,159,1303,349
Raw,217,1304,349
Raw,119,1305,349
Raw,172,1306,349
Raw,143,1307,349
Raw,60,1308,349
Raw,121,1308,349
Raw,166,1309,349
Raw,144,1310,349
Raw,137,1311,349
Raw,137,1312,349
Raw,157,1313,349
Raw,147,1314,349
Raw,226,1315,349
Raw,184,1316,349
Raw,133,1317,349
Raw,150,1318,349
Raw,17,1320,349
Raw,151,1322,349
Raw,223,1323,349
Raw,143,1324,349
Raw,165,1325,349
Raw,144,1326,349
Raw,153,1327,349
Raw,172,1328,349
Raw,146,1329,349
Raw,154,1330,349
Raw,152,1331,349
Raw,148,1332,349
Raw,164,1333,349
Raw,105,1334,349
Raw,159,1335,349
Raw,159,1337,349
Raw,172,1338,349
Raw,116,1339,349
Raw,153,1340,349
Raw,148,1341,349
Raw,159,1342,349
Raw,63,1342,349
Raw,159,1343,349
Raw,222,1344,349
Raw,191,1345,349
Raw,358,1346,349
Raw,285,1347,349
Raw,182,1348,349
Raw,170,1349,349
Raw,159,1350,349
Raw,8,1350,349
Raw,163,1351,349
Raw,151,1352,349
Raw,148,1353,349
Raw,176,1354,349
Raw,150,1355,349
Raw,151,1356,349
Raw,143,1358,349
Raw,253,1359,349
Raw,151,1360,349
Raw,287,1361,349
Raw,156,1362,349
Raw,158,1363,349
Raw,132,1364,349
Raw,155,1365,349
Raw,116,1366,349
Raw,183,1367,349
Raw,159,1368,349
Raw,148,1369,349
Raw,161,1370,349
Raw,128,1371,349
Raw,139,1373,349
Raw,166,1374,349
Raw,155,1375,349
Raw,173,1376,349
Raw,173,1377,349
Raw,177,1378,349
Raw,164,1379,349
Raw,140,1380,349
Raw,175,1381,349
Raw,193,1382,349
Raw,143,1383,349
Raw,60,1383,349
Raw,14,1383,349
Raw,165,1384,349
Raw,148,1385,349
Raw,147,1386,349
Raw,182,1387,349
Raw,178,1388,349
Raw,165,1389,349
Raw,181,1390,349
Raw,158,1391,349
Raw,161,1392,349
Raw,11,1392,349
Raw,177,1393,349
Raw,167,1394,349
Raw,134,1395,349
Raw,170,1396,349
Raw,149,1397,349
Raw,153,1398,349
Raw,153,1399,349
Raw,165,1400,349
Raw,163,1401,349
Raw,158,1402,349
Raw,147,1403,349
Raw,46,1403,349
Raw,143,1405,349
Raw,171,1406,349
Raw,121,1407,349
Raw,121,1408,349
Raw,171,1410,349
Raw,123,1411,349
Raw,151,1412,349
Raw,273,1413,349
Raw,127,1414,349
Raw,216,1415,349
Raw,152,1416,349
Raw,155,1417,349
Raw,146,1418,349
Raw,146,1419,349
Raw,150,1420,349
Raw,177,1421,349
Raw,108,1422,349
Raw,144,1424,349
Raw,126,1425,349
Raw,142,1426,349
Raw,152,1427,349
Raw,159,1429,349
Raw,143,1430,349
Raw,149,1431,349
Raw,29,1432,349
Raw,154,1433,349
Raw,168,1434,349
Raw,155,1435,349
Raw,163,1436,349
Raw,153,1437,349
Raw,173,1438,349
Raw,107,1439,349
Raw,153,1440,349
Raw,141,1441,349
Raw,376,1442,349
Raw,163,1443,349
Raw,110,1444,349
Raw,155,1445,349
Raw,156,1446,349
Raw,167,1447,349
Raw,169,1448,349
Raw,147,1449,349
Raw,61,1449,349
Raw,148,1450,349
Raw,166,1451,349
Raw,75,1451,349
Raw,168,1452,349
Raw,190,1453,349
Raw,157,1454,349
Raw,178,1455,349
Raw,173,1456,349
Raw,156,1457,349
Raw,158,1458,349
Raw,179,1459,349
Raw,152,1460,349
Raw,160,1461,349
Raw,229,1462,349
Raw,169,1463,349
Raw,146,1464,349
Raw,168,1465,349
Raw,161,1466,349
Raw,161,1467,349
Raw,147,1468,349
Raw,166,1469,349
Raw,153,1470,349
Raw,248,1471,349
Raw,135,1472,349
Raw,148,1473,349
Raw,157,1474,349
Raw,149,1475,349
Raw,212,1476,349
Raw,155,1477,349
Raw,162,1478,349
Raw,167,1479,349
Raw,166,1480,349
Raw,132,1482,349
Raw,150,1483,349
Raw,155,1484,349
Raw,164,1485,349
Raw,155,1486,349
Raw,191,1487,349
Raw,150,1488,349
Raw,49,1488,349
Raw,155,1489,349
Raw,253,1490,349
Raw,238,1491,349
Raw,164,1492,349
Raw,135,1493,349
Raw,188,1494,349
Raw,158,1495,349
Raw,187,1496,349
Raw,164,1497,349
Raw,172,1498,349
Raw,163,1499,349
Raw,112,1500,349
Raw,161,1501,349
Raw,145,1502,349
Raw,174,1503,349
Raw,180,1504,349
Raw,131,1505,349
Raw,138,1506,349
Raw,148,1507,349
Raw,132,1508,349
Raw,186,1509,349
Raw,155,1510,349
Raw,179,1511,349
Raw,180,1512,349
Raw,132,1513,349
Raw,158,1514,349
Raw,115,1515,349
Raw,141,1516,349
Raw,175,1517,349
Raw,147,1519,349
Raw,155,1520,349
Raw,147,1521,349
Raw,164,1522,349
Raw,177,1523,349
Raw,154,1524,349
Raw,169,1525,349
Raw,155,1526,349
Raw,94,1527,349
Raw,149,1528,349
Raw,135,1529,349
Raw,173,1530,349
Raw,179,1531,349
Raw,98,1531,349
Raw,144,1532,349
Raw,238,1534,349
Raw,59,1534,349
Raw,140,1535,349
Raw,144,1536,349
Raw,188,1537,349
Raw,150,1538,349
Raw,152,1539,349
Raw,185,1540,349
Raw,107,1542,349
Raw,157,1543,349
Raw,65,1543,349
Raw,174,1544,349
Raw,122,1545,349
Raw,155,1546,349
Raw,148,1547,349
Raw,152,1548,349
Raw,185,1550,349
Raw,109,1550,349
Raw,117,1551,349
Raw,151,1552,349
Raw,193,1553,349
Raw,146,1554,349
Raw,307,1555,349
Raw,169,1556,349
Raw,99,1557,349
Raw,164,1558,349
Raw,234,1559,349
Raw,154,1560,349
Raw,178,1561,349
Raw,167,1562,349
Raw,138,1563,349
Raw,162,1565,349
Raw,168,1566,349
Raw,147,1568,349
Raw,225,1569,349
Raw,217,1570,349
Raw,155,1571,349
Raw,147,1572,349
Raw,167,1573,349
Raw,129,1574,349
Raw,139,1575,349
Raw,199,1576,349
Raw,188,1577,349
Raw,129,1578,349
Raw,103,1579,349
Raw,165,1580,349
Raw,141,1581,349
Raw,136,1582,349
Raw,158,1583,349
Raw,153,1584,349
Raw,158,1585,349
Raw,122,1587,349
Raw,152,1588,349
Raw,162,1589,349
Raw,127,1590,349
Raw,141,1591,349
Raw,151,1592,349
Raw,113,1593,349
Raw,195,1594,349
Raw,147,1595,349
Raw,175,1596,349
Raw,98,1597,349
Raw,145,1598,349
Raw,58,1598,349
Raw,162,1599,349
Raw,146,1600,349
Raw,145,1601,349
Raw,159,1603,349
Raw,158,1604,349
Raw,244,1605,349
Raw,180,1606,349
Raw,219,1607,349
Raw,101,1608,349
Raw,260,1609,349
Raw,175,1609,349
Raw,166,1610,349
Raw,178,1611,349
Raw,155,1612,349
Raw,148,1613,349
Raw,171,1614,349
Raw,93,1615,349
Raw,179,1616,349
Raw,194,1617,349
Raw,147,1618,349
Raw,64,1618,349
Raw,144,1619,349
Raw,146,1620,349
Raw,172,1621,349
Raw,183,1622,349
Raw,156,1623,349
Raw,122,1624,349
Raw,163,1625,349
Raw,137,1626,349
Raw,160,1627,349
Raw,250,1628,349
Raw,160,1629,349
Raw,135,1630,349
Raw,170,1631,349
Raw,154,1632,349
Raw,173,1633,349
Raw,155,1634,349
Raw,162,1635,349
Raw,218,1636,349
Raw,132,1637,349
Raw,157,1639,349
Raw,87,1640,349
Raw,154,1641,349
Raw,153,1642,349
Raw,193,1643,349
Raw,159,1644,349
Raw,154,1645,349
Raw,179,1646,349
Raw,159,1648,349
Raw,99,1649,349
Raw,171,1650,349
Raw,124,1651,349
Raw,156,1652,349
Raw,111,1653,349
Raw,168,1655,349
Raw,159,1656,349
Raw,162,1657,349
Raw,145,1658,349
Raw,136,1658,349
Raw,136,1659,349
Raw,137,1660,349
Raw,155,1661,349
Raw,147,1662,349
Raw,107,1663,349
Raw,177,1664,349
Raw,267,1665,349
Raw,179,1666,349
Raw,132,1667,349
Raw,138,1668,349
Raw,156,1669,349
Raw,159,1670,349
Raw,142,1671,349
Raw,162,1672,349
Raw,162,1673,349
Raw,166,1674,349
Raw,171,1675,349
Raw,127,1676,349
Raw,139,1677,349
Raw,146,1678,349
Raw,154,1679,349
Raw,200,1680,349
Raw,94,1681,349
Raw,242,1682,349
Raw,156,1683,349
Raw,160,1684,349
Raw,112,1685,349
Raw,174,1686,349
Raw,100,1687,349
Raw,161,1688,349
Raw,106,1689,349
Raw,44,1689,349
Raw,195,1690,349
Raw,177,1691,349
Raw,260,1692,349
Raw,172,1693,349
Raw,186,1694,349
Raw,142,1695,349
Raw,142,1696,349
Raw,146,1697,349
Raw,167,1698,349
Raw,154,1699,349
Raw,186,1700,349
Raw,152,1701,349
Raw,150,1702,349
Raw,130,1703,349
Raw,116,1704,349
Raw,349,1705,349
Raw,88,1706,349
Raw,173,1707,349
Raw,153,1708,349
Raw,103,1709,349
Raw,161,1710,349
Raw,161,1711,349
Raw,163,1712,349
Raw,108,1713,349
Raw,122,1714,349
Raw,145,1715,349
Raw,154,1716,349
Raw,186,1717,349
Raw,149,1718,349
Raw,168,1719,349
Raw,150,1720,349
Raw,168,1721,349
Raw,158,1722,349
Raw,128,1723,349
Raw,156,1724,349
Raw,184,1725,349
Raw,170,1726,349
Raw,159,1728,349
Raw,167,1729,349
Raw,152,1730,349
Raw,75,1730,349
Raw,169,1731,349
Raw,167,1732,349
Raw,179,1734,349
Raw,160,1735,349
Raw,73,1735,349
Raw,183,1736,349
Raw,105,1737,349
Raw,217,1738,349
Raw,170,1739,349
Raw,160,1740,349
Raw,156,1741,349
Raw,146,1742,349
Raw,146,1743,349
Raw,163,1744,349
Raw,296,1745,349
Raw,223,1746,349
Raw,98,1748,349
Raw,146,1749,349
Raw,108,1750,349
Raw,186,1752,349
Raw,154,1753,349
Raw,151,1755,349
Raw,137,1756,349
Raw,137,1757,349
Raw,153,1758,349
Raw,201,1759,349
Raw,51,1759,349
Raw,171,1760,349
Raw,136,1761,349
Raw,44,1761,349
Raw,139,1762,349
Raw,131,1763,349
Raw,139,1764,349
Raw,142,1765,349
Raw,164,1766,349
Raw,129,1767,349
Raw,170,1769,349
Raw,191,1770,349
Raw,189,1771,349
Raw,71,1771,349
Raw,168,1772,349
Raw,154,1773,349
Raw,165,1774,349
Raw,189,1775,349
Raw,156,1776,349
Raw,178,1777,349
Raw,166,1778,349
Raw,167,1779,349
Raw,151,1780,349
Raw,143,1781,349
Raw,135,1782,349
Raw,114,1783,349
Raw,160,1784,349
Raw,143,1785,349
Raw,119,1786,349
Raw,173,1787,349
Raw,133,1788,349
Raw,206,1789,349
Raw,154,1790,349
Raw,196,1791,349
Raw,83,1791,349
Raw,158,1792,349
Raw,80,1793,349
Raw,27,1793,349
Raw,137,1794,349
Raw,133,1795,349
Raw,122,1796,349
Raw,64,1796,349
Raw,104,1797,349
Raw,138,1798,349
Raw,165,1799,349
Raw,169,1800,349
Raw,160,1801,349
Raw,152,1802,349
Raw,78,1803,349
Raw,164,1804,349
Raw,152,1805,349
Raw,127,1806,349
Raw,175,1807,349
Raw,175,1808,349
Raw,217,1809,349
Raw,181,1810,349
Raw,152,1811,349
Raw,200,1812,349
Raw,189,1813,349
Raw,134,1814,349
Raw,183,1815,349
Raw,164,1816,349
Raw,151,1817,349
Raw,153,1818,349
Raw,165,1819,349
Raw,133,1820,349
Raw,170,1821,349
Raw,163,1821,349
Raw,205,1822,349
Raw,166,1823,349
Raw,38,1823,349
Raw,152,1824,349
Raw,155,1825,349
Raw,132,1826,349
Raw,118,1826,349
Raw,165,1827,349
Raw,161,1828,349
Raw,176,1829,349
Raw,244,1830,349
Raw,135,1831,349
Raw,115,1832,349
Raw,131,1833,349
Raw,158,1834,349
Raw,161,1835,349
Raw,62,1835,349
Raw,130,1836,349
Raw,57,1836,349
Raw,162,1837,349
Raw,146,1838,349
Raw,179,1839,349
Raw,168,1840,349
Raw,152,1841,349
Raw,91,1842,349
Raw,148,1843,349
Raw,185,1844,349
Raw,162,1845,349
Raw,148,1846,349
Raw,161,1847,349
Raw,140,1848,349
Raw,163,1849,349
Raw,89,1850,349
Raw,154,1851,349
Raw,209,1852,349
Raw,148,1853,349
Raw,148,1854,349
Raw,153,1855,349
Raw,207,1856,349
Raw,159,1857,349
Raw,161,1858,349
Raw,146,1859,349
Raw,101,1860,349
Raw,123,1861,349
Raw,160,1862,349
Raw,177,1863,349
Raw,163,1864,349
Raw,136,1865,349
Raw,168,1866,349
Raw,121,1867,349
Raw,144,1868,349
Raw,148,1870,349
Raw,164,1871,349
Raw,171,1872,349
Raw,214,1873,349
Raw,161,1874,349
Raw,155,1875,349
Raw,136,1876,349
Raw,160,1877,349
Raw,144,1878,349
Raw,133,1879,349
Raw,136,1880,349
Raw,162,1881,349
Raw,150,1882,349
Raw,173,1884,349
Raw,69,1884,349
Raw,141,1885,349
Raw,157,1886,349
Raw,177,1887,349
Raw,163,1888,349
Raw,131,1889,349
Raw,57,1889,349
Raw,153,1890,349
Raw,199,1891,349
Raw,156,1892,349
Raw,163,1893,349
Raw,153,1894,349
Raw,124,1895,349
Raw,161,1896,349
Raw,56,1896,349
Raw,101,1897,349
Raw,209,1898,349
Raw,105,1899,349
Raw,117,1900,349
Raw,296,1901,349
Raw,161,1903,349
Raw,193,1904,349
Raw,44,1904,349
Raw,88,1905,349
Raw,149,1906,349
Raw,42,1906,349
Raw,292,1907,349
Raw,159,1908,349
Raw,162,1909,349
Raw,155,1910,349
Raw,167,1911,349
Raw,133,1912,349
Raw,350,1913,349
Raw,144,1915,349
Raw,169,1917,349
Raw,246,1918,349
Raw,181,1919,349
Raw,125,1920,349
Raw,121,1921,349
Raw,181,1922,349
Raw,147,1923,349
Raw,155,1924,349
Raw,141,1925,349
Raw,146,1926,349
Raw,164,1927,349
Raw,135,1928,349
Raw,163,1930,349
Raw,138,1931,349
Raw,97,1932,349
Raw,142,1933,349
Raw,158,1934,349
Raw,219,1935,349
Raw,182,1936,349
Raw,148,1937,349
Raw,146,1938,349
Raw,42,1939,349
Raw,116,1939,349
Raw,118,1940,349
Raw,163,1941,349
Raw,171,1942,349
Raw,103,1943,349
Raw,124,1944,349
Raw,199,1945,349
Raw,152,1946,349
Raw,147,1947,349
Raw,126,1948,349
Raw,135,1949,349
Raw,193,1950,349
Raw,198,1952,349
Raw,61,1952,349
Raw,91,1953,349
Raw,147,1954,349
Raw,181,1955,349
Raw,159,1956,349
Raw,183,1957,349
Raw,147,1958,349
Raw,133,1959,349
Raw,161,1960,349
Raw,141,1961,349
Raw,167,1962,349
Raw,134,1963,349
Raw,148,1964,349
Raw,55,1966,349
Raw,110,1966,349
Raw,217,1967,349
Raw,174,1968,349
Raw,176,1969,349
Raw,132,1970,349
Raw,133,1971,349
Raw,156,1972,349
Raw,140,1973,349
Raw,143,1974,349
Raw,158,1975,349
Raw,144,1976,349
Raw,171,1977,349
Raw,153,1978,349
Raw,141,1979,349
Raw,150,1980,349
Raw,167,1982,349
Raw,186,1983,349
Raw,186,1984,349
Raw,245,1985,349
Raw,164,1986,349
Raw,166,1987,349
Raw,159,1988,349
Raw,216,1989,349
Raw,194,1990,349
Raw,107,1992,349
Raw,125,1993,349
Raw,101,1994,349
Raw,175,1995,349
Raw,138,1996,349
Raw,98,1997,349
Raw,143,1998,349
Raw,161,1999,349
Raw,170,2000,349
Raw,165,2001,349
Raw,168,2002,349
Raw,160,2003,349
Raw,158,2004,349
Raw,31,2004,349
Raw,160,2005,349
Raw,151,2007,349
Raw,243,2008,349
Raw,129,2009,349
Raw,210,2010,349
Raw,176,2011,349
Raw,144,2012,349
Raw,161,2013,349
Raw,149,2014,349
Raw,168,2015,349
Raw,153,2016,349
Raw,156,2017,349
Raw,122,2018,349
Raw,187,2019,349
Raw,147,2020,349
Raw,158,2021,349
Raw,203,2023,349
Raw,163,2024,349
Raw,153,2025,349
Raw,161,2026,349
Raw,220,2028,349
Raw,156,2029,349
Raw,159,2030,349
Raw,134,2031,349
Raw,97,2032,349
Raw,141,2033,349
Raw,167,2034,349
Raw,140,2036,349
Raw,70,2036,349
Raw,207,2038,349
Raw,168,2040,349
Raw,176,2041,349
Raw,193,2042,349
Raw,161,2043,349
Raw,156,2044,349
Raw,232,2046,349
Raw,132,2048,349
Raw,172,2049,349
Raw,283,2050,349
Raw,164,2051,349
Raw,91,2052,349
Raw,160,2053,349
Raw,134,2054,349
Raw,317,2055,349
Raw,161,2056,349
Raw,158,2057,349
Raw,163,2058,349
Raw,145,2059,349
Raw,159,2060,349
Raw,162,2061,349
Raw,225,2062,349
Raw,162,2063,349
Raw,281,2064,349
Raw,148,2065,349
Raw,187,2066,349
Raw,173,2067,349
Raw,143,2068,349
Raw,156,2069,349
Raw,467,2070,349
Raw,161,2071,349
Raw,87,2072,349
Raw,153,2073,349
Raw,124,2074,349
Raw,159,2075,349
Raw,123,2076,349
Raw,178,2077,349
Raw,172,2078,349
Raw,165,2079,349
Raw,233,2080,349
Raw,6,2080,349
Raw,149,2081,349
Raw,114,2082,349
Raw,155,2083,349
Raw,159,2084,349
Raw,140,2085,349
Raw,145,2086,349
Raw,284,2087,349
Raw,138,2088,349
Raw,157,2089,349
Raw,55,2089,349
Raw,171,2090,349
Raw,173,2091,349
Raw,170,2092,349
Raw,161,2093,349
Raw,84,2093,349
Raw,144,2094,349
Raw,157,2095,349
Raw,304,2096,349
Raw,141,2097,349
Raw,138,2098,349
Raw,154,2099,349
Raw,169,2100,349
Raw,178,2102,349
Raw,167,2103,349
Raw,43,2103,349
Raw,179,2104,349
Raw,180,2105,349
Raw,161,2106,349
Raw,165,2107,349
Raw,155,2108,349
Raw,228,2109,349
Raw,145,2110,349
Raw,66,2110,349
Raw,169,2111,349
Raw,213,2112,349
Raw,142,2113,349
Raw,98,2114,349
Raw,128,2115,349
Raw,167,2116,349
Raw,132,2117,349
Raw,36,2117,349
Raw,163,2118,349
Raw,181,2119,349
Raw,155,2120,349
Raw,154,2121,349
Raw,161,2122,349
Raw,155,2123,349
Raw,172,2124,349
Raw,264,2125,349
Raw,157,2126,349
Raw,116,2127,349
Raw,160,2128,349
Raw,52,2128,349
Raw,135,2129,349
Raw,30,2129,349
Raw,140,2130,349
Raw,117,2131,349
Raw,125,2132,349
Raw,175,2133,349
Raw,44,2133,349
Raw,220,2134,349
Raw,161,2135,349
Raw,144,2136,349
Raw,53,2136,349
Raw,167,2137,349
Raw,151,2138,349
Raw,63,2138,349
Raw,148,2139,349
Raw,175,2140,349
Raw,155,2141,349
Raw,171,2142,349
Raw,148,2143,349
Raw,135,2144,349
Raw,96,2145,349
Raw,143,2146,349
Raw,27,2146,349
Raw,148,2147,349
Raw,110,2148,349
Raw,173,2149,349
Raw,175,2150,349
Raw,165,2151,349
Raw,233,2152,349
Raw,107,2153,349
Raw,175,2154,349
Raw,157,2155,349
Raw,150,2156,349
Raw,151,2157,349
Raw,132,2158,349
Raw,157,2159,349
Raw,166,2160,349
Raw,171,2161,349
Raw,166,2162,349
Raw,136,2163,349
Raw,158,2164,349
Raw,175,2165,349
Raw,195,2166,349
Raw,177,2167,349
Raw,162,2168,349
Raw,73,2168,349
Raw,162,2169,349
Raw,149,2170,349
Raw,148,2171,349
Raw,202,2172,349
Raw,164,2173,349
Raw,147,2174,349
Raw,59,2174,349
Raw,93,2175,349
Raw,176,2176,349
Raw,222,2177,349
Raw,163,2178,349
Raw,70,2178,349
Raw,129,2179,349
Raw,163,2180,349
Raw,86,2180,349
Raw,84,2181,349
Raw,149,2181,349
Raw,142,2182,349
Raw,135,2183,349
Raw,52,2183,349
Raw,156,2184,349
Raw,144,2185,349
Raw,166,2186,349
Raw,133,2187,349
Raw,59,2187,349
Raw,233,2188,349
Raw,143,2189,349
Raw,163,2190,349
Raw,181,2191,349
Raw,170,2192,349
Raw,71,2193,349
Raw,158,2193,349
Raw,186,2194,349
Raw,75,2194,349
Raw,161,2195,349
Raw,142,2196,349
Raw,164,2197,349
Raw,174,2198,349
Raw,180,2199,349
Raw,128,2200,349
Raw,157,2201,349
Raw,109,2202,349
Raw,151,2203,349
Raw,178,2204,349
Raw,162,2205,349
Raw,167,2206,349
Raw,135,2207,349
Raw,160,2208,349
Raw,3,2208,349
Raw,149,2209,349
Raw,122,2210,349
Raw,158,2211,349
Raw,222,2212,349
Raw,219,2213,349
Raw,141,2214,349
Raw,178,2215,349
Raw,151,2216,349
Raw,193,2217,349
Raw,159,2218,349
Raw,162,2219,349
Raw,147,2220,349
Raw,158,2221,349
Raw,126,2222,349
Raw,178,2223,349
Raw,243,2224,349
Raw,166,2225,349
Raw,190,2226,349
Raw,173,2227,349
Raw,113,2228,349
Raw,111,2229,349
Raw,122,2230,349
Raw,45,2230,349
Raw,132,2231,349
Raw,216,2232,349
Raw,169,2234,349
Raw,145,2235,349
Raw,176,2236,349
Raw,109,2237,349
Raw,132,2238,349
Raw,146,2239,349
Raw,150,2240,349
Raw,163,2241,349
Raw,41,2242,349
Raw,151,2243,349
Raw,233,2244,349
Raw,137,2245,349
Raw,171,2246,349
Raw,165,2247,349
Raw,178,2248,349
Raw,69,2248,349
Raw,169,2249,349
Raw,154,2250,349
Raw,146,2251,349
Raw,194,2252,349
Raw,108,2253,349
Raw,156,2254,349
Raw,179,2255,349
Raw,122,2256,349
Raw,26,2256,349
Raw,169,2257,349
Raw,165,2258,349
Raw,158,2259,349
Raw,173,2261,349
Raw,100,2262,349
Raw,85,2262,349
Raw,158,2263,349
Raw,170,2264,349
Raw,137,2265,349
Raw,156,2266,349
Raw,158,2267,349
Raw,176,2268,349
Raw,155,2269,349
Raw,163,2270,349
Raw,146,2271,349
Raw,136,2272,349
Raw,127,2273,349
Raw,165,2274,349
Raw,149,2275,349
Raw,227,2276,349
Raw,167,2277,349
Raw,145,2278,349
Raw,178,2279,349
Raw,154,2280,349
Raw,175,2281,349
Raw,144,2282,349
Raw,216,2283,349
Raw,52,2283,349
Raw,353,2284,349
Raw,166,2285,349
Raw,117,2286,349
Raw,143,2288,349
Raw,137,2289,349
Raw,135,2290,349
Raw,198,2291,349
Raw,191,2292,349
Raw,154,2293,349
Raw,244,2294,349
Raw,95,2295,349
Raw,199,2296,349
Raw,166,2297,349
Raw,180,2298,349
Raw,151,2299,349
Raw,184,2300,349
Raw,169,2301,349
Raw,106,2302,349
Raw,214,2303,349
Raw,153,2304,349
Raw,145,2305,349
Raw,178,2306,349
Raw,176,2307,349
Raw,142,2308,349
Raw,157,2309,349
Raw,173,2310,349
Raw,163,2311,349
Raw,154,2312,349
Raw,174,2313,349
Raw,171,2314,349
Raw,114,2315,349
Raw,158,2316,349
Raw,169,2317,349
Raw,109,2317,349
Raw,163,2318,349
Raw,155,2319,349
Raw,116,2320,349
Raw,173,2321,349
Raw,157,2322,349
Raw,165,2323,349
Raw,131,2324,349
Raw,159,2325,349
Raw,148,2326,349
Raw,90,2327,349
Raw,188,2328,349
Raw,172,2329,349
Raw,291,2330,349
Raw,188,2332,349
Raw,195,2333,349
Raw,162,2334,349
Raw,134,2335,349
Raw,156,2336,349
Raw,146,2337,349
Raw,158,2338,349
Raw,168,2339,349
Raw,156,2340,349
Raw,163,2341,349
Raw,121,2342,349
Raw,141,2343,349
Raw,176,2344,349
Raw,166,2345,349
Raw,147,2346,349
Raw,178,2347,349
Raw,141,2349,349
Raw,165,2350,349
Raw,153,2351,349
Raw,155,2352,349
Raw,150,2353,349
Raw,161,2354,349
Raw,129,2356,349
Raw,159,2357,349
Raw,164,2359,349
Raw,142,2360,349
Raw,156,2361,349
Raw,94,2362,349
Raw,130,2363,349
Raw,177,2364,349
Raw,146,2365,349
Raw,172,2366,349
Raw,161,2367,349
Raw,124,2368,349
Raw,133,2369,349
Raw,48,2370,349
Raw,53,2370,349
Raw,154,2371,349
Raw,169,2372,349
Raw,163,2373,349
Raw,147,2374,349
Raw,91,2375,349
Raw,154,2376,349
Raw,147,2377,349
Raw,132,2378,349
Raw,113,2379,349
Raw,179,2380,349
Raw,194,2382,349
Raw,112,2383,349
Raw,160,2384,349
Raw,152,2385,349
Raw,147,2386,349
Raw,149,2387,349
Raw,187,2388,349
Raw,144,2389,349
Raw,144,2390,349
Raw,170,2390,349
Raw,106,2391,349
Raw,169,2393,349
Raw,74,2393,349
Raw,177,2394,349
Raw,158,2395,349
Raw,152,2396,349
Raw,116,2397,349
Raw,177,2398,349
Raw,178,2400,349
Raw,138,2401,349
Raw,159,2402,349
Raw,141,2403,349
Raw,48,2403,349
Raw,209,2404,349
Raw,178,2405,349
Raw,141,2406,349
Raw,165,2407,349
Raw,147,2408,349
Raw,130,2409,349
Raw,170,2410,349
Raw,166,2411,349
Raw,168,2412,349
Raw,171,2413,349
Raw,273,2414,349
Raw,152,2415,349
Raw,157,2416,349
Raw,167,2417,349
Raw,158,2418,349
Raw,146,2419,349
Raw,166,2420,349
Raw,137,2421,349
Raw,131,2422,349
Raw,148,2423,349
Raw,63,2423,349
Raw,166,2424,349
Raw,130,2425,349
Raw,161,2426,349
Raw,156,2427,349
Raw,86,2427,349
Raw,133,2428,349
Raw,140,2429,349
Raw,222,2430,349
Raw,179,2431,349
Raw,137,2432,349
Raw,132,2434,349
Raw,107,2435,349
Raw,156,2436,349
Raw,159,2437,349
Raw,129,2438,349
Raw,133,2439,349
Raw,166,2440,349
Raw,85,2441,349
Raw,121,2442,349
Raw,130,2443,349
Raw,156,2444,349
Raw,127,2445,349
Raw,136,2446,349
Raw,168,2447,349
Raw,131,2448,349
Raw,160,2449,349
Raw,150,2450,349
Raw,430,2451,349
Raw,175,2452,349
Raw,124,2453,349
Raw,116,2454,349
Raw,155,2455,349
Raw,160,2456,349
Raw,163,2457,349
Raw,100,2458,349
Raw,159,2459,349
Raw,162,2460,349
Raw,167,2461,349
Raw,165,2462,349
Raw,240,2463,349
Raw,146,2464,349
Raw,147,2465,349
Raw,165,2466,349
Raw,178,2467,349
Raw,177,2468,349
Raw,82,2468,349
Raw,149,2469,349
Raw,153,2470,349
Raw,173,2471,349
Raw,125,2472,349
Raw,162,2473,349
Raw,130,2474,349
Raw,120,2475,349
Raw,143,2476,349
Raw,172,2477,349
Raw,174,2478,349
Raw,233,2479,349
Raw,127,2480,349
Raw,241,2481,349
Raw,171,2482,349
Raw,168,2483,349
Raw,158,2485,349
Raw,127,2486,349
Raw,156,2487,349
Raw,140,2488,349
Raw,45,2488,349
Raw,168,2489,349
Raw,156,2490,349
Raw,167,2491,349
Raw,197,2492,349
Raw,179,2493,349
Raw,96,2494,349
Raw,148,2495,349
Raw,140,2496,349
Raw,111,2497,349
Raw,349,2498,349
Raw,155,2499,349
Raw,187,2500,349
Raw,160,2501,349
Raw,144,2502,349
Raw,167,2503,349
Raw,150,2504,349
Raw,146,2505,349
Raw,108,2506,349
Raw,126,2507,349
Raw,51,2507,349
Raw,188,2508,349
Raw,456,2509,349
Raw,176,2510,349
Raw,223,2511,349
Raw,153,2512,349
Raw,171,2513,349
Raw,174,2514,349
Raw,97,2515,349
Raw,150,2516,349
Raw,176,2517,349
Raw,171,2518,349
Raw,174,2519,349
Raw,215,2520,349
Raw,155,2521,349
Raw,157,2522,349
Raw,228,2523,349
Raw,166,2524,349
Raw,183,2525,349
Raw,56,2525,349
Raw,108,2526,349
Raw,173,2527,349
Raw,148,2528,349
Raw,165,2530,349
Raw,155,2531,349
Raw,210,2532,349
Raw,203,2533,349
Raw,151,2534,349
Raw,170,2535,349
Raw,157,2536,349
Raw,157,2537,349
Raw,227,2538,349
Raw,171,2539,349
Raw,142,2540,349
Raw,152,2541,349
Raw,143,2542,349
Raw,166,2543,349
Raw,158,2544,349
Raw,93,2545,349
Raw,195,2546,349
Raw,174,2548,349
Raw,134,2549,349
Raw,113,2550,349
Raw,208,2551,349
Raw,248,2552,349
Raw,155,2553,349
Raw,162,2554,349
Raw,169,2555,349
Raw,157,2556,349
Raw,146,2558,349
Raw,197,2559,349
Raw,176,2560,349
Raw,242,2561,349
Raw,169,2562,349
Raw,176,2563,349
Raw,162,2564,349
Raw,150,2565,349
Raw,55,2565,349
Raw,158,2566,349
Raw,132,2567,349
Raw,126,2568,349
Raw,146,2569,349
Raw,52,2569,349
Raw,189,2571,349
Raw,139,2572,349
Raw,157,2573,349
Raw,164,2574,349
Raw,127,2575,349
Raw,179,2576,349
Raw,177,2577,349
Raw,146,2578,349
Raw,163,2579,349
Raw,60,2579,349
Raw,32,2579,349
Raw,142,2580,349
Raw,140,2581,349
Raw,167,2582,349
Raw,111,2583,349
Raw,159,2584,349
Raw,166,2586,349
Raw,119,2587,349
Raw,56,2587,349
Raw,220,2588,349
Raw,154,2589,349
Raw,146,2590,349
Raw,175,2591,349
Raw,153,2592,349
Raw,134,2594,349
Raw,177,2595,349
Raw,136,2596,349
Raw,115,2597,349
Raw,169,2598,349
Raw,149,2599,349
Raw,149,2600,349
Raw,156,2601,349
Raw,139,2602,349
Raw,162,2603,349
Raw,147,2604,349
Raw,75,2604,349
Raw,145,2605,349
Raw,153,2606,349
Raw,46,2606,349
Raw,175,2607,349
Raw,95,2608,349
Raw,160,2609,349
Raw,161,2610,349
Raw,179,2611,349
Raw,164,2612,349
Raw,133,2613,349
Raw,111,2614,349
Raw,191,2616,349
Raw,149,2617,349
Raw,179,2618,349
Raw,243,2620,349
Raw,143,2621,349
Raw,106,2622,349
Raw,152,2623,349
Raw,181,2624,349
Raw,163,2625,349
Raw,161,2626,349
Raw,161,2627,349
Raw,159,2628,349
Raw,18,2628,349
Raw,201,2629,349
Raw,162,2630,349
Raw,157,2631,349
Raw,156,2632,349
Raw,134,2633,349
Raw,178,2634,349
Raw,143,2635,349
Raw,154,2636,349
Raw,147,2637,349
Raw,135,2638,349
Raw,97,2639,349
Raw,103,2640,349
Raw,180,2641,349
Raw,155,2642,349
Raw,159,2643,349
Raw,190,2644,349
Raw,134,2645,349
Raw,150,2646,349
Raw,173,2647,349
Raw,160,2648,349
Raw,150,2650,349
Raw,156,2651,349
Raw,120,2652,349
Raw,118,2653,349
Raw,133,2654,349
Raw,97,2656,349
Raw,117,2658,349
Raw,170,2659,349
Raw,164,2660,349
Raw,183,2662,349
Raw,147,2663,349
Raw,156,2664,349
Raw,159,2665,349
Raw,129,2666,349
Raw,172,2667,349
Raw,140,2668,349
Raw,161,2669,349
Raw,143,2670,349
Raw,34,2670,349
Raw,158,2671,349
Raw,150,2672,349
Raw,162,2673,349
Raw,174,2674,349
Raw,176,2675,349
Raw,149,2677,349
Raw,147,2678,349
Raw,159,2679,349
Raw,169,2680,349
Raw,135,2681,349
Raw,53,2681,349
Raw,153,2682,349
Raw,136,2683,349
Raw,162,2684,349
Raw,171,2685,349
Raw,157,2686,349
Raw,152,2687,349
Raw,196,2688,349
Raw,187,2689,349
Raw,165,2690,349
Raw,226,2691,349
Raw,171,2692,349
Raw,161,2693,349
Raw,159,2694,349
Raw,172,2695,349
Raw,172,2696,349
Raw,242,2697,349
Raw,149,2698,349
Raw,153,2699,349
Raw,149,2700,349
Raw,156,2701,349
Raw,122,2701,349
Raw,132,2702,349
Raw,123,2703,349
Raw,134,2704,349
Raw,49,2704,349
Raw,143,2705,349
Raw,170,2706,349
Raw,158,2707,349
Raw,206,2708,349
Raw,170,2709,349
Raw,215,2710,349
Raw,267,2711,349
Raw,157,2712,349
Raw,158,2713,349
Raw,223,2714,349
Raw,176,2715,349
Raw,131,2716,349
Raw,166,2717,349
Raw,176,2718,349
Raw,159,2719,349
Raw,100,2720,349
Raw,171,2721,349
Raw,84,2721,349
Raw,165,2722,349
Raw,161,2723,349
Raw,161,2724,349
Raw,168,2725,349
Raw,187,2726,349
Raw,159,2727,349
Raw,152,2728,349
Raw,165,2729,349
Raw,182,2730,349
Raw,187,2731,349
Raw,78,2732,349
Raw,124,2733,349
Raw,141,2734,349
Raw,113,2735,349
Raw,150,2737,349
Raw,153,2738,349
Raw,146,2739,349
Raw,136,2740,349
Raw,176,2741,349
Raw,159,2742,349
Raw,162,2743,349
Raw,155,2745,349
Raw,152,2746,349
Raw,145,2747,349
Raw,172,2748,349
Raw,167,2749,349
Raw,118,2750,349
Raw,174,2751,349
Raw,173,2752,349
Raw,66,2752,349
Raw,123,2753,349
Raw,149,2754,349
Raw,149,2755,349
Raw,131,2756,349
Raw,181,2757,349
Raw,143,2758,349
Raw,148,2759,349
Raw,156,2760,349
Raw,267,2763,349
Raw,163,2764,349
Raw,160,2765,349
Raw,51,2765,349
Raw,147,2766,349
Raw,159,2767,349
Raw,109,2768,349
Raw,150,2769,349
Raw,154,2770,349
Raw,163,2771,349
Raw,141,2772,349
Raw,157,2773,349
Raw,105,2774,349
Raw,164,2775,349
Raw,136,2776,349
Raw,143,2777,349
Raw,128,2778,349
Raw,181,2779,349
Raw,146,2780,349
Raw,162,2781,349
Raw,137,2782,349
Raw,132,2783,349
Raw,163,2784,349
Raw,177,2785,349
Raw,151,2786,349
Raw,139,2787,349
Raw,174,2788,349
Raw,138,2789,349
Raw,128,2790,349
Raw,179,2791,349
Raw,132,2792,349
Raw,164,2793,349
Raw,218,2794,349
Raw,129,2795,349
Raw,174,2796,349
Raw,156,2797,349
Raw,155,2798,349
Raw,124,2799,349
Raw,159,2800,349
Raw,110,2801,349
Raw,163,2802,349
Raw,154,2803,349
Raw,110,2804,349
Raw,169,2805,349
Raw,160,2807,349
Raw,172,2808,349
Raw,156,2809,349
Raw,153,2810,349
Raw,114,2811,349
Raw,153,2812,349
Raw,171,2813,349
Raw,141,2814,349
Raw,217,2815,349
Raw,53,2815,349
Raw,176,2816,349
Raw,137,2817,349
Raw,158,2818,349
Raw,168,2820,349
Raw,52,2820,349
Raw,160,2821,349
Raw,156,2822,349
Raw,146,2823,349
Raw,164,2824,349
Raw,161,2825,349
Raw,93,2826,349
Raw,182,2827,349
Raw,154,2828,349
Raw,166,2829,349
Raw,173,2830,349
Raw,161,2831,349
Raw,158,2832,349
Raw,176,2833,349
Raw,165,2834,349
Raw,146,2835,349
Raw,165,2836,349
Raw,155,2837,349
Raw,178,2838,349
Raw,149,2839,349
Raw,238,2840,349
Raw,169,2841,349
Raw,123,2842,349
Raw,156,2843,349
Raw,169,2845,349
Raw,172,2846,349
Raw,165,2847,349
Raw,166,2848,349
Raw,149,2849,349
Raw,239,2850,349
Raw,186,2851,349
Raw,151,2852,349
Raw,79,2852,349
Raw,138,2853,349
Raw,146,2854,349
Raw,175,2855,349
Raw,171,2857,349
Raw,167,2858,349
Raw,150,2859,349
Raw,145,2861,349
Raw,174,2862,349
Raw,259,2863,349
Raw,162,2864,349
Raw,151,2865,349
Raw,169,2866,349
Raw,168,2867,349
Raw,134,2868,349
Raw,165,2869,349
Raw,159,2870,349
Raw,171,2871,349
Raw,51,2871,349
Raw,139,2872,349
Raw,172,2873,349
Raw,142,2875,349
Raw,158,2876,349
Raw,156,2877,349
Raw,136,2878,349
Raw,165,2879,349
Raw,140,2880,349
Raw,152,2881,349
Raw,165,2882,349
Raw,160,2883,349
Raw,162,2884,349
Raw,150,2885,349
Raw,154,2886,349
Raw,178,2887,349
Raw,172,2888,349
Raw,154,2889,349
Raw,169,2890,349
Raw,120,2891,349
Raw,176,2892,349
Raw,178,2893,349
Raw,162,2894,349
Raw,179,2895,349
Raw,142,2896,349
Raw,170,2897,349
Raw,160,2899,349
Raw,150,2900,349
Raw,227,2901,349
Raw,174,2902,349
Raw,160,2903,349
Raw,58,2903,349
Raw,144,2904,349
Raw,172,2905,349
Raw,163,2906,349
Raw,148,2907,349
Raw,164,2908,349
Raw,141,2909,349
Raw,175,2910,349
Raw,152,2911,349
Raw,155,2912,349
Raw,76,2912,349
Raw,133,2913,349
Raw,244,2914,349
Raw,40,2914,349
Raw,144,2915,349
Raw,207,2916,349
Raw,173,2917,349
Raw,52,2918,349
Raw,95,2918,349
Raw,184,2919,349
Raw,134,2920,349
Raw,160,2921,349
Raw,140,2922,349
Raw,152,2923,349
Raw,147,2924,349
Raw,121,2925,349
Raw,290,2926,349
Raw,129,2927,349
Raw,169,2928,349
Raw,156,2929,349
Raw,174,2930,349
Raw,158,2931,349
Raw,156,2932,349
Raw,150,2933,349
Raw,147,2934,349
Raw,116,2935,349
Raw,142,2936,349
Raw,150,2937,349
Raw,130,2938,349
Raw,158,2939,349
Raw,162,2940,349
Raw,161,2941,349
Raw,155,2942,349
Raw,173,2943,349
Raw,148,2944,349
Raw,150,2945,349
Raw,148,2946,349
Raw,172,2947,349
Raw,33,2947,349
Raw,223,2948,349
Raw,178,2949,349
Raw,148,2950,349
Raw,197,2951,349
Raw,159,2952,349
Raw,162,2953,349
Raw,97,2954,349
Raw,46,2954,349
Raw,163,2955,349
Raw,150,2956,349
Raw,161,2957,349
Raw,113,2958,349
Raw,152,2959,349
Raw,197,2960,349
Raw,37,2960,349
Raw,183,2962,349
Raw,148,2963,349
Raw,158,2964,349
Raw,99,2965,349
Raw,160,2966,349
Raw,168,2967,349
Raw,171,2968,349
Raw,177,2969,349
Raw,176,2970,349
Raw,208,2971,349
Raw,162,2972,349
Raw,156,2973,349
Raw,145,2974,349
Raw,58,2974,349
Raw,157,2975,349
Raw,163,2976,349
Raw,150,2977,349
Raw,307,2978,349
Raw,95,2979,349
Raw,151,2982,349
Raw,135,2983,349
Raw,162,2984,349
Raw,173,2985,349
Raw,168,2986,349
Raw,162,2987,349
Raw,144,2988,349
Raw,139,2989,349
Raw,192,2990,349
Raw,162,2991,349
Raw,141,2992,349
Raw,156,2993,349
Raw,141,2994,349
Raw,161,2995,349
Raw,145,2996,349
Raw,145,2997,349
Raw,173,2998,349
Raw,163,2999,349
Raw,184,3000,349
Raw,151,3001,349
Raw,136,3002,349
Raw,157,3004,349
Raw,81,3004,349
Raw,119,3005,349
Raw,65,3005,349
Raw,115,3006,349
Raw,143,3007,349
Raw,53,3008,349
Raw,182,3009,349
Raw,140,3010,349
Raw,183,3011,349
Raw,168,3012,349
Raw,227,3013,349
Raw,126,3014,349
Raw,152,3015,349
Raw,230,3016,349
Raw,174,3017,349
Raw,155,3018,349
Raw,96,3019,349
Raw,45,3019,349
Raw,155,3021,349
Raw,164,3022,349
Raw,172,3023,349
Raw,161,3024,349
Raw,153,3025,349
Raw,243,3026,349
Raw,153,3027,349
Raw,122,3028,349
Raw,167,3029,349
Raw,154,3030,349
Raw,167,3031,349
Raw,132,3032,349
Raw,207,3033,349
Raw,157,3034,349
Raw,150,3035,349
Raw,176,3036,349
Raw,201,3037,349
Raw,59,3037,349
Raw,184,3038,349
Raw,57,3038,349
Raw,164,3039,349
Raw,161,3040,349
Raw,167,3041,349
Raw,141,3042,349
Raw,111,3043,349
Raw,169,3044,349
Raw,180,3045,349
Raw,159,3046,349
Raw,148,3047,349
Raw,151,3048,349
Raw,182,3049,349
Raw,162,3050,349
Raw,162,3051,349
Raw,126,3052,349
Raw,197,3053,349
Raw,158,3054,349
Raw,168,3055,349
Raw,86,3055,349
Raw,151,3056,349
Raw,149,3057,349
Raw,176,3058,349
Raw,153,3059,349
Raw,143,3061,349
Raw,149,3062,349
Raw,145,3063,349
Raw,167,3064,349
Raw,132,3065,349
Raw,166,3066,349
Raw,138,3067,349
Raw,194,3068,349
Raw,88,3068,349
Raw,144,3069,349
Raw,151,3071,349
Raw,152,3072,349
Raw,155,3073,349
Raw,163,3074,349
Raw,154,3075,349
Raw,132,3077,349
Raw,173,3078,349
Raw,147,3079,349
Raw,177,3080,349
Raw,160,3081,349
Raw,176,3082,349
Raw,137,3083,349
Raw,157,3084,349
Raw,146,3085,349
Raw,150,3086,349
Raw,161,3087,349
Raw,168,3088,349
Raw,168,3089,349
Raw,171,3090,349
Raw,161,3091,349
Raw,152,3092,349
Raw,148,3093,349
Raw,165,3094,349
Raw,221,3095,349
Raw,96,3096,349
Raw,147,3097,349
Raw,102,3098,349
Raw,118,3099,349
Raw,179,3100,349
Raw,175,3101,349
Raw,175,3103,349
Raw,159,3104,349
Raw,159,3105,349
Raw,144,3106,349
Raw,165,3106,349
Raw,164,3107,349
Raw,146,3108,349
Raw,160,3109,349
Raw,146,3110,349
Raw,171,3112,349
Raw,152,3113,349
Raw,142,3115,349
Raw,123,3117,349
Raw,155,3118,349
Raw,142,3119,349
Raw,168,3120,349
Raw,186,3121,349
Raw,177,3122,349
Raw,146,3123,349
Raw,158,3125,349
Raw,254,3126,349
Raw,140,3127,349
Raw,94,3127,349
Raw,172,3128,349
Raw,171,3129,349
Raw,170,3130,349
Raw,55,3130,349
Raw,118,3131,349
Raw,162,3132,349
Raw,125,3133,349
Raw,141,3134,349
Raw,106,3135,349
Raw,138,3136,349
Raw,33,3136,349
Raw,147,3137,349
Raw,165,3138,349
Raw,153,3139,349
Raw,156,3140,349
Raw,151,3141,349
Raw,163,3142,349
Raw,167,3143,349
Raw,48,3143,349
Raw,161,3144,349
Raw,165,3145,349
Raw,153,3146,349
Raw,216,3147,349
Raw,174,3148,349
Raw,153,3149,349
Raw,96,3150,349
Raw,170,3151,349
Raw,161,3152,349
Raw,158,3153,349
Raw,112,3154,349
Raw,158,3155,349
Raw,78,3155,349
Raw,148,3156,349
Raw,155,3157,349
Raw,155,3158,349
Raw,104,3159,349
Raw,121,3160,349
Raw,154,3161,349
Raw,321,3162,349
Raw,147,3162,349
Raw,135,3163,349
Raw,169,3164,349
Raw,157,3165,349
Raw,125,3166,349
Raw,173,3167,349
Raw,125,3168,349
Raw,161,3169,349
Raw,129,3171,349
Raw,103,3171,349
Raw,231,3172,349
Raw,54,3172,349
Raw,169,3173,349
Raw,150,3174,349
Raw,158,3175,349
Raw,46,3175,349
Raw,152,3176,349
Raw,180,3177,349
Raw,144,3178,349
Raw,227,3179,349
Raw,157,3180,349
Raw,161,3181,349
Raw,116,3182,349
Raw,169,3183,349
Raw,39,3183,349
Raw,153,3184,349
Raw,172,3185,349
Raw,156,3186,349
Raw,146,3187,349
Raw,151,3188,349
Raw,173,3189,349
Raw,132,3190,349
Raw,144,3191,349
Raw,117,3192,349
Raw,132,3193,349
Raw,150,3194,349
Raw,101,3195,349
Raw,161,3196,349
Raw,255,3197,349
Raw,163,3198,349
Raw,161,3199,349
Raw,137,3200,349
Raw,178,3201,349
Raw,171,3202,349
Raw,160,3203,349
Raw,178,3204,349
Raw,142,3205,349
Raw,126,3206,349
Raw,73,3206,349
Raw,144,3207,349
Raw,135,3208,349
Raw,177,3209,349
Raw,134,3211,349
Raw,162,3212,349
Raw,106,3213,349
Raw,111,3214,349
Raw,192,3215,349
Raw,162,3216,349
Raw,172,3217,349
Raw,136,3218,349
Raw,145,3219,349
Raw,160,3220,349
Raw,155,3221,349
Raw,135,3222,349
Raw,86,3223,349
Raw,197,3224,349
Raw,146,3225,349
Raw,175,3226,349
Raw,133,3227,349
Raw,407,3228,349
Raw,318,3228,349
Raw,133,3229,349
Raw,194,3230,349
Raw,157,3231,349
Raw,55,3231,349
Raw,157,3232,349
Raw,100,3233,349
Raw,107,3234,349
Raw,172,3235,349
Raw,175,3236,349
Raw,167,3237,349
Raw,168,3238,349
Raw,128,3239,349
Raw,124,3240,349
Raw,105,3241,349
Raw,228,3242,349
Raw,9,3242,349
Raw,154,3243,349
Raw,130,3244,349
Raw,179,3245,349
Raw,135,3246,349
Raw,107,3247,349
Raw,163,3248,349
Raw,32,3249,349
Raw,124,3249,349
Raw,137,3250,349
Raw,146,3251,349
Raw,163,3252,349
Raw,144,3253,349
Raw,147,3254,349
Raw,172,3255,349
Raw,147,3257,349
Raw,190,3258,349
Raw,164,3259,349
Raw,169,3260,349
Raw,56,3261,349
Raw,156,3262,349
Raw,154,3263,349
Raw,168,3264,349
Raw,176,3265,349
Raw,104,3266,349
Raw,111,3267,349
Raw,83,3267,349
Raw,146,3268,349
Raw,177,3269,349
Raw,129,3270,349
Raw,184,3271,349
Raw,154,3272,349
Raw,174,3273,349
Raw,144,3274,349
Raw,168,3275,349
Raw,222,3276,349
Raw,159,3277,349
Raw,146,3278,349
Raw,138,3279,349
Raw,164,3280,349
Raw,170,3281,349
Raw,150,3282,349
Raw,150,3283,349
Raw,218,3284,349
Raw,154,3285,349
Raw,120,3286,349
Raw,162,3287,349
Raw,60,3287,349
Raw,181,3288,349
Raw,158,3289,349
Raw,156,3290,349
Raw,161,3291,349
Raw,108,3292,349
Raw,174,3293,349
Raw,134,3294,349
Raw,149,3295,349
Raw,163,3296,349
Raw,54,3296,349
Raw,229,3297,349
Raw,166,3298,349
Raw,161,3299,349
Raw,119,3300,349
Raw,183,3301,349
Raw,148,3302,349
Raw,172,3303,349
Raw,135,3304,349
Raw,162,3305,349
Raw,290,3306,349
Raw,158,3307,349
Raw,223,3308,349
Raw,155,3309,349
Raw,187,3310,349
Raw,334,3311,349
Raw,152,3312,349
Raw,129,3313,349
Raw,221,3314,349
Raw,133,3315,349
Raw,186,3316,349
Raw,160,3317,349
Raw,134,3318,349
Raw,165,3319,349
Raw,175,3320,349
Raw,156,3321,349
Raw,187,3322,349
Raw,156,3323,349
Raw,187,3324,349
Raw,189,3325,349
Raw,162,3326,349
Raw,155,3327,349
Raw,176,3328,349
Raw,438,3329,349
Raw,109,3330,349
Raw,146,3331,349
Raw,147,3332,349
Raw,138,3333,349
Raw,148,3335,349
Raw,158,3336,349
Raw,163,3338,349
Raw,165,3339,349
Raw,162,3340,349
Raw,170,3341,349
Raw,158,3342,349
Raw,169,3343,349
Raw,158,3344,349
Raw,125,3345,349
Raw,171,3346,349
Raw,122,3347,349
Raw,170,3348,349
Raw,145,3349,349
Raw,161,3350,349
Raw,173,3351,349
Raw,137,3352,349
Raw,130,3353,349
Raw,155,3354,349
Raw,146,3355,349
Raw,152,3356,349
Raw,133,3357,349
Raw,194,3358,349
Raw,141,3359,349
Raw,164,3360,349
Raw,66,3360,349
Raw,64,3360,349
Raw,117,3361,349
Raw,158,3362,349
Raw,206,3363,349
Raw,158,3364,349
Raw,194,3365,349
Raw,194,3366,349
Raw,69,3366,349
Raw,160,3367,349
Raw,221,3368,349
Raw,128,3369,349
Raw,180,3370,349
Raw,152,3371,349
Raw,170,3372,349
Raw,150,3374,349
Raw,160,3375,349
Raw,171,3377,349
Raw,141,3378,349
Raw,140,3379,349
Raw,160,3380,349
Raw,241,3381,349
Raw,54,3381,349
Raw,152,3382,349
Raw,146,3383,349
Raw,162,3384,349
Raw,244,3386,349
Raw,173,3387,349
Raw,171,3388,349
Raw,167,3389,349
Raw,156,3390,349
Raw,208,3391,349
Raw,159,3392,349
Raw,142,3394,349
Raw,138,3395,349
Raw,175,3396,349
Raw,159,3397,349
Raw,163,3398,349
Raw,147,3399,349
Raw,194,3400,349
Raw,52,3400,349
Raw,69,3400,349
Raw,228,3401,349
Raw,159,3402,349
Raw,179,3403,349
Raw,156,3404,349
Raw,163,3405,349
Raw,159,3406,349
Raw,135,3407,349
Raw,166,3408,349
Raw,96,3409,349
Raw,138,3410,349
Raw,142,3411,349
Raw,228,3412,349
Raw,153,3413,349
Raw,168,3414,349
Raw,145,3415,349
Raw,162,3416,349
Raw,174,3417,349
Raw,160,3418,349
Raw,67,3418,349
Raw,166,3419,349
Raw,42,3419,349
Raw,154,3421,349
Raw,128,3422,349
Raw,125,3423,349
Raw,165,3424,349
Raw,172,3425,349
Raw,209,3426,349
Raw,153,3427,349
Raw,157,3428,349
Raw,133,3430,349
Raw,160,3431,349
Raw,88,3431,349
Raw,169,3433,349
Raw,166,3434,349
Raw,147,3435,349
Raw,153,3436,349
Raw,173,3437,349
Raw,185,3438,349
Raw,142,3439,349
Raw,147,3440,349
Raw,86,3441,349
Raw,182,3442,349
Raw,164,3443,349
Raw,147,3444,349
Raw,124,3445,349
Raw,158,3446,349
Raw,175,3447,349
Raw,165,3448,349
Raw,164,3449,349
Raw,146,3450,349
Raw,167,3451,349
Raw,164,3452,349
Raw,147,3453,349
Raw,139,3454,349
Raw,179,3455,349
Raw,149,3456,349
Raw,73,3457,349
Raw,122,3457,349
Raw,141,3458,349
Raw,168,3459,349
Raw,154,3460,349
Raw,156,3461,349
Raw,127,3462,349
Raw,129,3463,349
Raw,150,3465,349
Raw,75,3465,349
Raw,113,3466,349
Raw,168,3467,349
Raw,134,3468,349
Raw,170,3469,349
Raw,122,3470,349
Raw,155,3471,349
Raw,163,3472,349
Raw,159,3473,349
Raw,167,3474,349
Raw,154,3475,349
Raw,142,3476,349
Raw,135,3477,349
Raw,144,3478,349
Raw,137,3479,349
Raw,158,3480,349
Raw,177,3481,349
Raw,84,3482,349
Raw,152,3483,349
Raw,150,3484,349
Raw,177,3485,349
Raw,97,3486,349
Raw,196,3487,349
Raw,174,3488,349
Raw,152,3489,349
Raw,168,3490,349
Raw,163,3491,349
Raw,140,3492,349
Raw,154,3493,349
Raw,166,3494,349
Raw,147,3495,349
Raw,13,3495,349
Raw,167,3496,349
Raw,155,3497,349
Raw,148,3498,349
Raw,100,3499,349
Raw,103,3500,349
Raw,161,3501,349
Raw,156,3502,349
Raw,150,3503,349
Raw,166,3504,349
Raw,280,3505,349
Raw,172,3506,349
Raw,162,3508,349
Raw,102,3509,349
Raw,139,3511,349
Raw,137,3512,349
Raw,181,3513,349
Raw,333,3514,349
Raw,167,3515,349
Raw,130,3516,349
Raw,165,3517,349
Raw,139,3518,349
Raw,138,3519,349
Raw,176,3520,349
Raw,194,3521,349
Raw,138,3522,349
Raw,177,3523,349
Raw,162,3524,349
Raw,163,3525,349
Raw,163,3526,349
Raw,122,3526,349
Raw,170,3527,349
Raw,168,3528,349
Raw,160,3529,349
Raw,217,3530,349
Raw,52,3530,349
Raw,172,3531,349
Raw,128,3532,349
Raw,156,3533,349
Raw,149,3534,349
Raw,57,3534,349
Raw,147,3535,349
Raw,164,3536,349
Raw,159,3537,349
Raw,169,3539,349
Raw,167,3540,349
Raw,168,3541,349
Raw,194,3542,349
Raw,159,3543,349
Raw,152,3544,349
Raw,171,3545,349
Raw,155,3546,349
Raw,165,3547,349
Raw,161,3548,349
Raw,175,3549,349
Raw,143,3550,349
Raw,137,3551,349
Raw,145,3552,349
Raw,164,3553,349
Raw,157,3554,349
Raw,172,3555,349
Raw,157,3556,349
Raw,272,3557,349
Raw,132,3558,349
Raw,159,3560,349
Raw,153,3561,349
Raw,145,3562,349
Raw,112,3563,349
Raw,84,3563,349
