Cut?,Counts,eventNumber,runNumber
Raw,4.33054521e+05,0,349
Raw,4.55287401e+05,2,349
Raw,3.88046272e+05,3,349
Raw,1.01353662e+05,3,349
Raw,1.44654588e+05,3,349
Raw,5.07530258e+05,4,349
Raw,4.32263343e+05,5,349
Raw,3.63771775e+05,6,349
Raw,3.09886433e+05,7,349
Raw,3.82695908e+05,8,349
Raw,4.505912e+05,9,349
Raw,4.06107673e+05,10,349
Raw,2.45853624e+05,11,349
Raw,3.25561733e+05,12,349
Raw,1.93970828e+05,13,349
Raw,4.1833523e+05,14,349
Raw,1.72673492e+05,14,349
Raw,4.90129067e+05,15,349
Raw,4.84172783e+05,16,349
Raw,4.53210718e+05,17,349
Raw,4.35144036e+05,18,349
Raw,4.00754426e+05,19,349
Raw,5.46989783e+05,20,349
Raw,4.24767579e+05,21,349
Raw,3.08990612e+05,22,349
Raw,2.86877864e+05,23,349
Raw,2.85412174e+05,24,349
Raw,4.50817254e+05,25,349
Raw,4.22641303e+05,27,349
Raw,4.23117044e+05,28,349
Raw,4.63949211e+05,29,349
Raw,2.95023559e+05,31,349
Raw,3.86341378e+05,32,349
Raw,3.94728423e+05,33,349
Raw,4.50109012e+05,34,349
Raw,3.58283397e+05,35,349
Raw,5.12102138e+05,36,349
Raw,4.22955682e+05,37,349
Raw,4.61201375e+05,38,349
Raw,4.46642215e+05,39,349
Raw,4.29833505e+05,40,349
Raw,4.09655665e+05,41,349
Raw,4.66157474e+05,42,349
Raw,4.15225387e+05,43,349
Raw,4.04771528e+05,44,349
Raw,6.75208884e+05,45,349
Raw,5.00565197e+05,46,349
Raw,5.34683915e+05,47,349
Raw,3.7050165e+05,48,349
Raw,4.06144368e+05,49,349
Raw,3.83736948e+05,50,349
Raw,3.40393655e+05,51,349
Raw,4.42771775e+05,52,349
Raw,5.21981107e+05,53,349
Raw,5.32361503e+05,55,349
Raw,3.60574712e+05,56,349
Raw,3.05099628e+05,57,349
Raw,3.92760418e+05,58,349
Raw,2.84630487e+05,59,349
Raw,3.60523239e+05,60,349
Raw,3.69870629e+05,61,349
Raw,3.96977704e+05,62,349
Raw,3.26340708e+05,63,349
Raw,3.46369555e+05,64,349
Raw,4.9860049e+05,65,349
Raw,4.11639814e+05,66,349
Raw,3.7896369e+05,67,349
Raw,4.31578628e+05,69,349
Raw,4.19700955e+05,70,349
Raw,3.11294442e+05,71,349
Raw,3.79179059e+05,72,349
Raw,4.03717184e+05,73,349
Raw,2.03806462e+05,73,349
Raw,3.85866774e+05,74,349
Raw,4.05632004e+05,76,349
Raw,2.60241413e+05,77,349
Raw,4.5736352e+05,78,349
Raw,4.96176339e+05,79,349
Raw,3.95922397e+05,80,349
Raw,5.38275761e+05,81,349
Raw,4.07452148e+05,82,349
Raw,4.02645743e+05,83,349
Raw,3.78790455e+05,84,349
Raw,3.87836708e+05,85,349
Raw,4.25451957e+05,86,349
Raw,3.68668689e+05,87,349
Raw,4.45810136e+05,88,349
Raw,3.52272662e+05,89,349
Raw,3.67722507e+05,90,349
Raw,3.49078364e+05,91,349
Raw,3.51185914e+05,92,349
Raw,4.84178352e+05,93,349
Raw,3.81147681e+05,94,349
Raw,3.48958411e+05,95,349
Raw,3.528789e+05,96,349
Raw,6.41432554e+05,97,349
Raw,3.81290137e+05,98,349
Raw,4.26827141e+05,99,349
Raw,2.67217832e+05,100,349
Raw,4.87539427e+05,101,349
Raw,3.66908226e+05,103,349
Raw,4.13131936e+05,104,349
Raw,6.19482618e+05,105,349
Raw,3.78718182e+05,106,349
Raw,2.32050499e+05,107,349
Raw,4.4802241e+05,108,349
Raw,2.54702618e+05,109,349
Raw,4.36035165e+05,110,349
Raw,16161.667,110,349
Raw,3.2953116e+05,111,349
Raw,4.73838599e+05,112,349
Raw,2.67607181e+05,113,349
Raw,4.10817326e+05,115,349
Raw,4.38250121e+05,116,349
Raw,3.96153615e+05,117,349
Raw,4.05725582e+05,118,349
Raw,4.55603089e+05,119,349
Raw,3.5560593e+05,120,349
Raw,5.26268648e+05,121,349
Raw,5.97646379e+05,122,349
Raw,5.69460713e+05,123,349
Raw,3.81286893e+05,124,349
Raw,4.58285495e+05,125,349
Raw,4.89746289e+05,126,349
Raw,3.50651561e+05,127,349
Raw,4.41014743e+05,128,349
Raw,4.36843962e+05,129,349
Raw,2.89928005e+05,130,349
Raw,3.82209066e+05,131,349
Raw,1.5582541e+05,131,349
Raw,5.34145371e+05,132,349
Raw,4.48629952e+05,133,349
Raw,3.00749806e+05,135,349
Raw,5.72040313e+05,136,349
Raw,4.52422632e+05,137,349
Raw,3.10341419e+05,138,349
Raw,4.46263666e+05,139,349
Raw,4.57492617e+05,140,349
Raw,4.95284637e+05,142,349
Raw,4.45588941e+05,143,349
Raw,5.00054403e+05,144,349
Raw,3.88304825e+05,145,349
Raw,4.56859667e+05,146,349
Raw,3.80474175e+05,147,349
Raw,4.50130668e+05,148,349
Raw,3.91143807e+05,149,349
Raw,5.17865241e+05,150,349
Raw,2.30880008e+05,151,349
Raw,3.95134602e+05,152,349
Raw,39832.956,152,349
Raw,4.87194472e+05,153,349
Raw,3.62226735e+05,155,349
Raw,8.88924847e+05,156,349
Raw,4.15929166e+05,157,349
Raw,7.31230688e+05,158,349
Raw,4.79782455e+05,159,349
Raw,85196.589,159,349
Raw,3.91940868e+05,160,349
Raw,4.08336466e+05,163,349
Raw,2.12874019e+05,164,349
Raw,3.70240169e+05,165,349
Raw,1.46477998e+05,165,349
Raw,4.23963388e+05,166,349
Raw,3.83551765e+05,167,349
Raw,4.50579705e+05,168,349
Raw,5.12688902e+05,169,349
Raw,2.94809626e+05,170,349
Raw,4.43483261e+05,172,349
Raw,4.68745929e+05,173,349
Raw,3.80565875e+05,174,349
Raw,2.29328772e+05,175,349
Raw,7.50696094e+05,176,349
Raw,4.52498076e+05,177,349
Raw,4.44891947e+05,178,349
Raw,3.95177791e+05,179,349
Raw,4.17940391e+05,180,349
Raw,3.49578652e+05,181,349
Raw,3.88128568e+05,182,349
Raw,3.27542167e+05,183,349
Raw,5.09151912e+05,184,349
Raw,3.26039409e+05,185,349
Raw,4.32394366e+05,186,349
Raw,5.58832465e+05,187,349
Raw,3.47456756e+05,188,349
Raw,3.34602021e+05,189,349
Raw,5.34402439e+05,190,349
Raw,5.04448426e+05,191,349
Raw,3.03527735e+05,192,349
Raw,1.01398332e+06,193,349
Raw,3.95011076e+05,194,349
Raw,3.47068387e+05,195,349
Raw,3.62255115e+05,196,349
Raw,3.98151634e+05,197,349
Raw,3.05767676e+05,198,349
Raw,3.84899316e+05,200,349
Raw,3.2868858e+05,201,349
Raw,4.46185526e+05,202,349
Raw,5.74947243e+05,203,349
Raw,4.89146554e+05,204,349
Raw,4.91205275e+05,205,349
Raw,4.47707717e+05,206,349
Raw,4.15578354e+05,207,349
Raw,4.05303038e+05,208,349
Raw,4.04189143e+05,209,349
Raw,4.60302475e+05,210,349
Raw,1.22261884e+05,210,349
Raw,5.57658401e+05,211,349
Raw,3.67985392e+05,212,349
Raw,4.11073507e+05,213,349
Raw,9.97735453e+05,214,349
Raw,8.31044721e+05,215,349
Raw,3.48717212e+05,216,349
Raw,4.06046993e+05,217,349
Raw,3.33772859e+05,218,349
Raw,4.50721424e+05,219,349
Raw,3.84509693e+05,220,349
Raw,4.56825896e+05,221,349
Raw,4.84012101e+05,222,349
Raw,1.51677128e+05,222,349
Raw,1.01730493e+06,223,349
Raw,3.39101421e+05,224,349
Raw,3.90258852e+05,225,349
Raw,4.04080164e+05,226,349
Raw,4.47758601e+05,227,349
Raw,4.58901944e+05,228,349
Raw,4.17757351e+05,229,349
Raw,3.66476944e+05,230,349
Raw,4.08355049e+05,231,349
Raw,3.77708167e+05,232,349
Raw,1.12520186e+06,233,349
Raw,4.03508159e+05,234,349
Raw,90272.891,234,349
Raw,4.24833193e+05,235,349
Raw,3.71020748e+05,236,349
Raw,4.7971616e+05,237,349
Raw,2.27577414e+05,238,349
Raw,5.90313757e+05,239,349
Raw,4.63909011e+05,240,349
Raw,3.9108958e+05,241,349
Raw,3.68845203e+05,242,349
Raw,2.99003349e+05,243,349
Raw,2.74788498e+05,244,349
Raw,1.0617326e+05,244,349
Raw,3.43242176e+05,245,349
Raw,4.0120222e+05,246,349
Raw,3.9462837e+05,247,349
Raw,4.74739972e+05,248,349
Raw,4.5145769e+05,249,349
Raw,7.47532617e+05,250,349
Raw,3.2372554e+05,251,349
Raw,6.11534156e+05,252,349
Raw,4.53328677e+05,253,349
Raw,1.74520605e+05,253,349
Raw,3.73533725e+05,254,349
Raw,3.81079715e+05,255,349
Raw,4.44085182e+05,256,349
Raw,3.36334799e+05,257,349
Raw,3.47706436e+05,258,349
Raw,4.57790817e+05,259,349
Raw,5.23276101e+05,260,349
Raw,4.63979761e+05,261,349
Raw,4.11174063e+05,262,349
Raw,2.39632433e+05,264,349
Raw,5.88467164e+05,265,349
Raw,3.49514957e+05,266,349
Raw,3.38048414e+05,267,349
Raw,44297.3,267,349
Raw,3.93609428e+05,268,349
Raw,4.17051257e+05,269,349
Raw,3.94804981e+05,270,349
Raw,8.11814967e+05,271,349
Raw,4.80068498e+05,272,349
Raw,4.81680925e+05,273,349
Raw,3.2137235e+05,274,349
Raw,4.47030015e+05,275,349
Raw,4.16259489e+05,276,349
Raw,2.95900365e+05,277,349
Raw,3.24815778e+05,278,349
Raw,3.96447167e+05,279,349
Raw,5.4288917e+05,280,349
Raw,2.85512558e+05,281,349
Raw,2.10981781e+05,281,349
Raw,2.22327531e+05,282,349
Raw,3.01254216e+05,283,349
Raw,4.3463095e+05,284,349
Raw,3.86736744e+05,285,349
Raw,4.67776483e+05,286,349
Raw,5.33581245e+05,287,349
Raw,4.41933032e+05,288,349
Raw,3.82968069e+05,289,349
Raw,4.73037544e+05,291,349
Raw,4.62245358e+05,292,349
Raw,2.29085321e+05,293,349
Raw,3.51013116e+05,294,349
Raw,4.51298107e+05,295,349
Raw,1.21634957e+05,295,349
Raw,3.49036007e+05,296,349
Raw,2.78087494e+05,297,349
Raw,3.29920847e+05,298,349
Raw,4.46913084e+05,299,349
Raw,3.83330456e+05,300,349
Raw,2.89652685e+05,300,349
Raw,4.1037956e+05,301,349
Raw,2.96564231e+05,302,349
Raw,5.12454469e+05,303,349
Raw,3.88494633e+05,304,349
Raw,2.16472478e+05,305,349
Raw,3.47133566e+05,306,349
Raw,5.36553463e+05,307,349
Raw,6.07050219e+05,308,349
Raw,4.42893989e+05,309,349
Raw,3.94022436e+05,310,349
Raw,8.40660821e+05,311,349
Raw,3.0809964e+05,312,349
Raw,4.57218443e+05,313,349
Raw,3.21020943e+05,315,349
Raw,4.30274716e+05,316,349
Raw,3.16524322e+05,318,349
Raw,1.85450698e+05,318,349
Raw,4.27090163e+05,319,349
Raw,4.09627552e+05,320,349
Raw,3.6429035e+05,321,349
Raw,3.39183433e+05,322,349
Raw,4.29484401e+05,323,349
Raw,3.99160019e+05,324,349
Raw,5.69519444e+05,325,349
Raw,4.33772863e+05,326,349
Raw,3.57120014e+05,327,349
Raw,4.59167142e+05,328,349
Raw,4.47528692e+05,329,349
Raw,2.04411931e+05,330,349
Raw,3.25344654e+05,331,349
Raw,5.51295707e+05,332,349
Raw,2.87362867e+05,333,349
Raw,2.59263362e+05,334,349
Raw,1.88529267e+05,335,349
Raw,2.9830675e+05,335,349
Raw,3.49428358e+05,336,349
Raw,4.35584924e+05,337,349
Raw,5.23934236e+05,338,349
Raw,4.06327994e+05,339,349
Raw,4.37415072e+05,340,349
Raw,3.17052901e+05,341,349
Raw,4.55177357e+05,342,349
Raw,4.47250322e+05,344,349
Raw,3.96245999e+05,345,349
Raw,4.30096529e+05,346,349
Raw,3.65107781e+05,347,349
Raw,2.37080235e+05,348,349
Raw,3.60832992e+05,349,349
Raw,63858.017,349,349
Raw,4.5591697e+05,350,349
Raw,2.88133622e+05,351,349
Raw,3.60940806e+05,352,349
Raw,4.60902522e+05,353,349
Raw,4.69513822e+05,354,349
Raw,3.67432342e+05,355,349
Raw,4.56092071e+05,356,349
Raw,5.43025008e+05,357,349
Raw,1.52113044e+05,357,349
Raw,3.63256545e+05,358,349
Raw,4.90052761e+05,359,349
Raw,2.68349202e+05,360,349
Raw,3.85688356e+05,361,349
Raw,26950.179,361,349
Raw,3.91013621e+05,362,349
Raw,3.92223715e+05,363,349
Raw,4.01916029e+05,364,349
Raw,4.01140939e+05,365,349
Raw,3.71022688e+05,366,349
Raw,3.75184793e+05,367,349
Raw,3.98019524e+05,368,349
Raw,3.95951207e+05,369,349
Raw,4.65693459e+05,370,349
Raw,3.15940152e+05,371,349
Raw,1.04265639e+05,371,349
Raw,3.78062236e+05,372,349
Raw,3.40630346e+05,373,349
Raw,4.10581353e+05,374,349
Raw,1.28700877e+05,374,349
Raw,4.48471002e+05,375,349
Raw,3.07356776e+05,376,349
Raw,4.22376216e+05,377,349
Raw,3.53785644e+05,378,349
Raw,4.41257146e+05,379,349
Raw,3.38122011e+05,380,349
Raw,3.54029767e+05,381,349
Raw,4.32236386e+05,382,349
Raw,3.9682563e+05,383,349
Raw,4.96874002e+05,384,349
Raw,2.59702036e+05,385,349
Raw,4.35225778e+05,387,349
Raw,3.93782981e+05,388,349
Raw,4.35197077e+05,389,349
Raw,4.33715813e+05,390,349
Raw,3.14277559e+05,391,349
Raw,4.76796137e+05,392,349
Raw,5.64759768e+05,394,349
Raw,2.75759e+05,395,349
Raw,3.78870033e+05,396,349
Raw,2.71612267e+05,397,349
Raw,3.40290669e+05,398,349
Raw,4.35480126e+05,399,349
Raw,1.46310083e+05,399,349
Raw,3.86123095e+05,400,349
Raw,5.96713799e+05,401,349
Raw,3.42339117e+05,402,349
Raw,3.16527844e+05,403,349
Raw,2.84909822e+05,405,349
Raw,4.56695967e+05,406,349
Raw,3.70055142e+05,408,349
Raw,4.51478894e+05,409,349
Raw,4.42584027e+05,410,349
Raw,2.81741662e+05,411,349
Raw,3.97538182e+05,413,349
Raw,3.5569151e+05,414,349
Raw,4.24328336e+05,416,349
Raw,3.69148282e+05,417,349
Raw,3.58705365e+05,418,349
Raw,4.18315329e+05,419,349
Raw,2.48725866e+05,420,349
Raw,3.37062293e+05,421,349
Raw,3.80983099e+05,422,349
Raw,2.59451935e+05,423,349
Raw,5.10280655e+05,424,349
Raw,4.29194893e+05,425,349
Raw,3.77187693e+05,426,349
Raw,3.92412475e+05,427,349
Raw,65827.682,427,349
Raw,4.41072361e+05,428,349
Raw,2.94265978e+05,429,349
Raw,5.19953105e+05,431,349
Raw,4.99943209e+05,432,349
Raw,3.24983607e+05,434,349
Raw,4.57152335e+05,435,349
Raw,3.26105022e+05,436,349
Raw,4.16253025e+05,437,349
Raw,4.19288784e+05,438,349
Raw,4.21625614e+05,439,349
Raw,3.58678988e+05,440,349
Raw,4.02903064e+05,441,349
Raw,3.83174752e+05,442,349
Raw,3.91921202e+05,443,349
Raw,1.91052017e+05,443,349
Raw,4.5904307e+05,444,349
Raw,5.33646466e+05,445,349
Raw,4.71843759e+05,446,349
Raw,3.6108524e+05,447,349
Raw,3.02460494e+05,448,349
Raw,3.86543825e+05,449,349
Raw,6.30757846e+05,450,349
Raw,69178.811,450,349
Raw,5.16643096e+05,451,349
Raw,4.57721644e+05,452,349
Raw,3.23246108e+05,453,349
Raw,4.40690846e+05,454,349
Raw,1.81399296e+05,454,349
Raw,3.50061738e+05,455,349
Raw,2.00958532e+05,455,349
Raw,3.66074859e+05,456,349
Raw,3.82693103e+05,457,349
Raw,5.43628155e+05,458,349
Raw,3.45426961e+05,459,349
Raw,3.73475806e+05,460,349
Raw,4.73294223e+05,461,349
Raw,4.23483334e+05,462,349
Raw,4.23731074e+05,463,349
Raw,3.57074017e+05,464,349
Raw,3.70561417e+05,465,349
Raw,5.17589268e+05,466,349
Raw,2.53232475e+05,467,349
Raw,3.98258759e+05,468,349
Raw,6.10070702e+05,469,349
Raw,4.087367e+05,470,349
Raw,1.93711836e+05,471,349
Raw,4.1289254e+05,472,349
Raw,3.60633336e+05,473,349
Raw,5.97657051e+05,474,349
Raw,3.43000234e+05,476,349
Raw,4.30617831e+05,477,349
Raw,5.11469403e+05,478,349
Raw,4.47766672e+05,479,349
Raw,4.45799106e+05,480,349
Raw,4.9202478e+05,481,349
Raw,4.46658425e+05,482,349
Raw,3.840496e+05,483,349
Raw,1.4093267e+05,483,349
Raw,3.81053063e+05,484,349
Raw,5.61487501e+05,485,349
Raw,4.37012312e+05,486,349
Raw,2.87499964e+05,487,349
Raw,4.2467654e+05,488,349
Raw,3.68319154e+05,488,349
Raw,4.13310511e+05,489,349
Raw,3.83795952e+05,490,349
Raw,4.99673683e+05,491,349
Raw,3.52538082e+05,492,349
Raw,4.39706024e+05,493,349
Raw,3.78257431e+05,494,349
Raw,6.84723743e+05,495,349
Raw,3.51099441e+05,495,349
Raw,7.40111715e+05,496,349
Raw,4.29059519e+05,497,349
Raw,4.16303485e+05,498,349
Raw,4.40643481e+05,499,349
Raw,1.15796587e+05,499,349
Raw,5.02930301e+05,500,349
Raw,4.96709269e+05,501,349
Raw,4.34467174e+05,502,349
Raw,3.62326704e+05,503,349
Raw,4.53894858e+05,504,349
Raw,4.44589066e+05,505,349
Raw,3.92483635e+05,506,349
Raw,3.59884388e+05,507,349
Raw,4.07944348e+05,508,349
Raw,4.21420479e+05,509,349
Raw,3.88930513e+05,510,349
Raw,5.55566598e+05,511,349
Raw,2.71885862e+05,512,349
Raw,1.06688236e+05,512,349
Raw,6.7229929e+05,513,349
Raw,4.42570176e+05,514,349
Raw,4.30565058e+05,515,349
Raw,3.97150494e+05,516,349
Raw,3.06975701e+05,517,349
Raw,4.80533942e+05,518,349
Raw,3.29088748e+05,520,349
Raw,3.65456939e+05,521,349
Raw,3.73965433e+05,522,349
Raw,3.96542706e+05,523,349
Raw,6.08684998e+05,524,349
Raw,3.7889107e+05,525,349
Raw,4.80461264e+05,526,349
Raw,1.3434018e+05,526,349
Raw,3.34909083e+05,527,349
Raw,4.34940388e+05,528,349
Raw,2.44576187e+05,529,349
Raw,2.71228601e+05,530,349
Raw,3.86653142e+05,531,349
Raw,1.24438997e+05,532,349
Raw,2.40771616e+05,532,349
Raw,4.11728948e+05,533,349
Raw,4.06219584e+05,534,349
Raw,5.44056411e+05,535,349
Raw,3.29744082e+05,536,349
Raw,4.96880728e+05,537,349
Raw,2.18926345e+05,537,349
Raw,4.72404428e+05,538,349
Raw,4.24638131e+05,539,349
Raw,4.82489055e+05,540,349
Raw,4.61859535e+05,541,349
Raw,4.72892652e+05,542,349
Raw,2.20548186e+05,543,349
Raw,4.01801371e+05,544,349
Raw,2.46775914e+05,545,349
Raw,2.57433941e+05,546,349
Raw,3.76107329e+05,547,349
Raw,2.33086576e+05,548,349
Raw,3.79124459e+05,549,349
Raw,1.30616727e+05,549,349
Raw,4.55793596e+05,550,349
Raw,5.68811504e+05,551,349
Raw,4.01000409e+05,552,349
Raw,3.57849903e+05,553,349
Raw,3.42656133e+05,554,349
Raw,3.82470165e+05,555,349
Raw,4.04227451e+05,556,349
Raw,5.93966383e+05,557,349
Raw,3.98258267e+05,558,349
Raw,4.07160909e+05,560,349
Raw,4.80481387e+05,561,349
Raw,4.26801213e+05,562,349
Raw,6.38216862e+05,563,349
Raw,4.91862776e+05,564,349
Raw,4.30422947e+05,565,349
Raw,2.97270683e+05,566,349
Raw,3.47640213e+05,567,349
Raw,5.2234563e+05,568,349
Raw,4.66483574e+05,569,349
Raw,4.97915497e+05,570,349
Raw,4.38866394e+05,571,349
Raw,3.1239612e+05,572,349
Raw,4.94392961e+05,573,349
Raw,4.33083969e+05,574,349
Raw,4.34737967e+05,575,349
Raw,1.50383109e+05,575,349
Raw,3.61316064e+05,576,349
Raw,5.28426114e+05,577,349
Raw,3.6863499e+05,578,349
Raw,4.60194826e+05,579,349
Raw,2.8173392e+05,580,349
Raw,3.79860019e+05,581,349
Raw,5.86489408e+05,582,349
Raw,4.25082475e+05,583,349
Raw,3.78563085e+05,585,349
Raw,5.17613741e+05,586,349
Raw,78110.358,587,349
Raw,2.93585113e+05,587,349
Raw,4.23705484e+05,588,349
Raw,2.80387361e+05,589,349
Raw,4.08779049e+05,590,349
Raw,4.9874111e+05,591,349
Raw,3.44985855e+05,592,349
Raw,3.2035524e+05,593,349
Raw,3.62019068e+05,594,349
Raw,3.96646594e+05,595,349
Raw,4.05164769e+05,596,349
Raw,3.68216634e+05,597,349
Raw,4.11640483e+05,598,349
Raw,3.22675973e+05,599,349
Raw,3.23239915e+05,600,349
Raw,4.02930901e+05,601,349
Raw,7.61877881e+05,602,349
Raw,4.37658894e+05,603,349
Raw,2.01445682e+05,603,349
Raw,4.10912704e+05,604,349
Raw,4.25281233e+05,605,349
Raw,4.76039575e+05,606,349
Raw,4.04861285e+05,607,349
Raw,3.95022523e+05,608,349
Raw,3.89508438e+05,609,349
Raw,3.13988397e+05,610,349
Raw,4.01347889e+05,611,349
Raw,4.52366792e+05,612,349
Raw,2.55265707e+05,613,349
Raw,3.41807409e+05,614,349
Raw,3.19236725e+05,615,349
Raw,3.02408752e+05,616,349
Raw,2.93803e+05,617,349
Raw,3.49081787e+05,618,349
Raw,3.80234501e+05,619,349
Raw,3.1420655e+05,620,349
Raw,4.22870648e+05,621,349
Raw,2.73683485e+05,622,349
Raw,4.27089622e+05,623,349
Raw,4.81057902e+05,624,349
Raw,4.40894686e+05,625,349
Raw,4.28592012e+05,626,349
Raw,3.2812981e+05,627,349
Raw,3.55334969e+05,628,349
Raw,3.94086026e+05,630,349
Raw,3.18567181e+05,631,349
Raw,3.88520671e+05,632,349
Raw,3.03619559e+05,633,349
Raw,3.18293743e+05,634,349
Raw,3.01921331e+05,635,349
Raw,3.72492175e+05,636,349
Raw,3.89092049e+05,638,349
Raw,3.78860171e+05,641,349
Raw,1.9836732e+05,642,349
Raw,3.63798909e+05,643,349
Raw,3.48313382e+05,644,349
Raw,3.09632844e+05,645,349
Raw,5.20273959e+05,646,349
Raw,4.33259908e+05,647,349
Raw,1.21673193e+05,647,349
Raw,4.14010536e+05,648,349
Raw,3.21837021e+05,649,349
Raw,2.79639978e+05,650,349
Raw,4.29913783e+05,651,349
Raw,4.203013e+05,652,349
Raw,2.545077e+05,653,349
Raw,6.47009218e+05,654,349
Raw,3.74407895e+05,655,349
Raw,3.09775255e+05,656,349
Raw,3.45196449e+05,657,349
Raw,2.98229539e+05,658,349
Raw,1.60456953e+05,658,349
Raw,3.56089201e+05,659,349
Raw,4.19495078e+05,660,349
Raw,2.86032348e+05,661,349
Raw,4.76505091e+05,662,349
Raw,5.19631324e+05,663,349
Raw,1.70996419e+05,664,349
Raw,2.37258022e+05,664,349
Raw,3.18157663e+05,665,349
Raw,3.37873299e+05,666,349
Raw,4.45691146e+05,667,349
Raw,4.62420783e+05,668,349
Raw,3.45110298e+05,669,349
Raw,4.3316681e+05,670,349
Raw,4.18777731e+05,671,349
Raw,5.7551771e+05,672,349
Raw,5.25984785e+05,673,349
Raw,4.50059586e+05,674,349
Raw,2.56595837e+05,675,349
Raw,4.21092686e+05,676,349
Raw,4.1861047e+05,677,349
Raw,5.31797223e+05,679,349
Raw,3.95334099e+05,680,349
Raw,2.6313675e+05,681,349
Raw,2.53027922e+05,682,349
Raw,3.53493826e+05,683,349
Raw,5.47243512e+05,684,349
Raw,3.95034325e+05,685,349
Raw,4.95066059e+05,686,349
Raw,3.32314955e+05,687,349
Raw,3.54307362e+05,688,349
Raw,3.74840411e+05,690,349
Raw,4.3464848e+05,691,349
Raw,2.80903735e+05,692,349
Raw,3.44537218e+05,693,349
Raw,2.43810773e+05,695,349
Raw,4.45362188e+05,696,349
Raw,1.22680679e+05,696,349
Raw,4.20893312e+05,697,349
Raw,2.99052528e+05,698,349
Raw,3.78575778e+05,699,349
Raw,3.59398767e+05,700,349
Raw,3.21279425e+05,701,349
Raw,3.09778272e+05,703,349
Raw,3.91914389e+05,704,349
Raw,4.37200849e+05,705,349
Raw,4.87653872e+05,706,349
Raw,4.76268208e+05,707,349
Raw,1.35292283e+05,707,349
Raw,4.60807126e+05,708,349
Raw,3.85296054e+05,709,349
Raw,3.50534795e+05,710,349
Raw,3.50056254e+05,711,349
Raw,1.83846454e+05,711,349
Raw,1.82360947e+05,712,349
Raw,2.26073211e+05,712,349
Raw,4.30968753e+05,713,349
Raw,3.80204622e+05,714,349
Raw,4.00863197e+05,715,349
Raw,4.49206786e+05,717,349
Raw,4.90559454e+05,718,349
Raw,3.70745647e+05,719,349
Raw,4.67334294e+05,720,349
Raw,4.35029106e+05,721,349
Raw,3.0653862e+05,722,349
Raw,3.83915745e+05,723,349
Raw,4.21251884e+05,724,349
Raw,4.80785384e+05,725,349
Raw,4.14097619e+05,726,349
Raw,3.79357283e+05,727,349
Raw,3.11325744e+05,728,349
Raw,3.81188311e+05,729,349
Raw,1.03778297e+05,729,349
Raw,3.72954237e+05,730,349
Raw,1.13008953e+05,730,349
Raw,3.77666729e+05,732,349
Raw,3.47339294e+05,733,349
Raw,4.08293156e+05,734,349
Raw,4.37475384e+05,735,349
Raw,4.2455401e+05,736,349
Raw,4.09750611e+05,737,349
Raw,3.15505047e+05,738,349
Raw,4.59554558e+05,739,349
Raw,2.92881502e+05,740,349
Raw,5.33974443e+05,741,349
Raw,5.65021268e+05,742,349
Raw,1.11768728e+06,743,349
Raw,3.0629214e+05,745,349
Raw,3.78705329e+05,746,349
Raw,2.84566583e+05,747,349
Raw,3.72397498e+05,748,349
Raw,3.67593351e+05,749,349
Raw,3.43799597e+05,750,349
Raw,3.92382929e+05,751,349
Raw,3.95699394e+05,752,349
Raw,3.54582964e+05,753,349
Raw,3.77631347e+05,754,349
Raw,4.5333406e+05,756,349
Raw,3.77663839e+05,757,349
Raw,2.57098525e+05,758,349
Raw,3.46063298e+05,759,349
Raw,5.63416368e+05,760,349
Raw,4.7492716e+05,761,349
Raw,4.51816738e+05,762,349
Raw,5.40339242e+05,763,349
Raw,2.54768199e+05,764,349
Raw,2.76496754e+05,765,349
Raw,8.05934374e+05,766,349
Raw,4.81213006e+05,766,349
Raw,1.59564242e+05,766,349
Raw,3.40202882e+05,767,349
Raw,5.31745082e+05,768,349
Raw,3.73885652e+05,769,349
Raw,4.23682008e+05,770,349
Raw,4.04913976e+05,771,349
Raw,4.21687287e+05,772,349
Raw,2.41842928e+05,773,349
Raw,3.42119313e+05,774,349
Raw,85617.464,774,349
Raw,3.87733333e+05,775,349
Raw,3.65147298e+05,776,349
Raw,3.99052285e+05,777,349
Raw,2.94410658e+05,779,349
Raw,4.98340659e+05,780,349
Raw,5.09727974e+05,781,349
Raw,3.84780508e+05,782,349
Raw,4.20893545e+05,783,349
Raw,5.30505562e+05,784,349
Raw,4.95587005e+05,785,349
Raw,4.3577447e+05,786,349
Raw,4.46626382e+05,787,349
Raw,4.17771859e+05,788,349
Raw,4.00004059e+05,789,349
Raw,4.91646968e+05,790,349
Raw,4.35023322e+05,791,349
Raw,5.18536123e+05,792,349
Raw,3.6354932e+05,793,349
Raw,2.86343149e+05,794,349
Raw,4.49068267e+05,795,349
Raw,2.38531232e+05,796,349
Raw,3.33931457e+05,797,349
Raw,3.16967295e+05,798,349
Raw,3.74532799e+05,799,349
Raw,4.29787425e+05,800,349
Raw,3.57356859e+05,801,349
Raw,3.90549477e+05,802,349
Raw,4.52402283e+05,803,349
Raw,3.19106209e+05,804,349
Raw,4.04220899e+05,805,349
Raw,5.19131703e+05,806,349
Raw,3.55626168e+05,807,349
Raw,3.77564408e+05,808,349
Raw,2.93162175e+05,809,349
Raw,3.97376976e+05,810,349
Raw,3.83202962e+05,811,349
Raw,4.10737351e+05,812,349
Raw,3.15526824e+05,813,349
Raw,3.7669199e+05,815,349
Raw,4.15895509e+05,818,349
Raw,4.9305361e+05,819,349
Raw,3.02206241e+05,820,349
Raw,3.64733477e+05,821,349
Raw,4.23924049e+05,823,349
Raw,4.52137811e+05,824,349
Raw,3.57012871e+05,825,349
Raw,3.5652395e+05,826,349
Raw,4.88717554e+05,827,349
Raw,2.94255063e+05,828,349
Raw,3.58166687e+05,829,349
Raw,3.53253472e+05,830,349
Raw,3.56659694e+05,831,349
Raw,4.36208957e+05,832,349
Raw,4.51243347e+05,833,349
Raw,3.86106308e+05,834,349
Raw,5.27999702e+05,835,349
Raw,6.30209979e+05,836,349
Raw,3.45070263e+05,837,349
Raw,4.93762728e+05,838,349
Raw,4.89327799e+05,839,349
Raw,3.37233015e+05,840,349
Raw,2.53297429e+05,841,349
Raw,3.42537926e+05,842,349
Raw,5.02433734e+05,843,349
Raw,5.2310831e+05,844,349
Raw,3.77538321e+05,845,349
Raw,4.89452243e+05,846,349
Raw,2.45405244e+05,847,349
Raw,4.10190349e+05,848,349
Raw,4.83883866e+05,849,349
Raw,4.67522027e+05,850,349
Raw,4.0076613e+05,851,349
Raw,4.44409755e+05,852,349
Raw,3.95420592e+05,853,349
Raw,1.20166984e+05,853,349
Raw,4.3758218e+05,854,349
Raw,64593.84,854,349
Raw,4.18488275e+05,855,349
Raw,1.77785725e+05,855,349
Raw,2.06815495e+05,856,349
Raw,5.49372594e+05,857,349
Raw,4.4775474e+05,858,349
Raw,6.40420614e+05,859,349
Raw,2.76624893e+05,860,349
Raw,4.28298914e+05,862,349
Raw,4.66367111e+05,863,349
Raw,3.76479264e+05,864,349
Raw,4.73408636e+05,865,349
Raw,2.66806251e+05,866,349
Raw,4.53504382e+05,867,349
Raw,5.04748794e+05,868,349
Raw,3.5953144e+05,869,349
Raw,4.66417348e+05,870,349
Raw,4.3365806e+05,871,349
Raw,3.64054132e+05,872,349
Raw,4.48149961e+05,873,349
Raw,3.60001977e+05,874,349
Raw,3.80574615e+05,875,349
Raw,4.07188532e+05,876,349
Raw,4.9698744e+05,877,349
Raw,4.24623549e+05,878,349
Raw,4.81228898e+05,879,349
Raw,4.70438257e+05,880,349
Raw,6.55863141e+05,881,349
Raw,4.05823213e+05,882,349
Raw,3.80724258e+05,883,349
Raw,3.5864484e+05,884,349
Raw,4.46336041e+05,885,349
Raw,5.80396339e+05,886,349
Raw,4.31460576e+05,887,349
Raw,3.81858739e+05,888,349
Raw,2.64334744e+05,888,349
Raw,4.63962604e+05,889,349
Raw,3.73942166e+05,890,349
Raw,4.55926918e+05,891,349
Raw,4.13521496e+05,892,349
Raw,3.38817919e+05,893,349
Raw,4.25142676e+05,894,349
Raw,3.01335723e+05,895,349
Raw,4.67429331e+05,896,349
Raw,4.57863235e+05,897,349
Raw,4.12598042e+05,898,349
Raw,3.22480277e+05,899,349
Raw,4.60424518e+05,900,349
Raw,4.1197376e+05,901,349
Raw,3.96610132e+05,902,349
Raw,3.90992892e+05,903,349
Raw,3.70445038e+05,904,349
Raw,2.40961145e+05,905,349
Raw,2.08677382e+05,906,349
Raw,5.55186318e+05,907,349
Raw,3.29323315e+05,908,349
Raw,4.59027243e+05,909,349
Raw,4.0041441e+05,910,349
Raw,1.57609877e+05,910,349
Raw,3.74294708e+05,911,349
Raw,3.18609302e+05,912,349
Raw,3.26211865e+05,913,349
Raw,4.05141376e+05,914,349
Raw,3.53018151e+05,915,349
Raw,4.52432404e+05,916,349
Raw,4.26192734e+05,918,349
Raw,3.88399694e+05,919,349
Raw,4.49102761e+05,920,349
Raw,3.64958982e+05,921,349
Raw,3.37014829e+05,922,349
Raw,4.58834903e+05,923,349
Raw,4.44874009e+05,924,349
Raw,2.82865021e+05,925,349
Raw,3.7708561e+05,926,349
Raw,4.07060174e+05,927,349
Raw,4.0141108e+05,928,349
Raw,4.49980745e+05,929,349
Raw,5.54205705e+05,930,349
Raw,3.81135904e+05,931,349
Raw,3.95630205e+05,932,349
Raw,4.15956119e+05,933,349
Raw,4.06466726e+05,934,349
Raw,3.7697083e+05,935,349
Raw,3.58979112e+05,936,349
Raw,3.24112283e+05,937,349
Raw,4.91502459e+05,938,349
Raw,2.57065086e+05,939,349
Raw,4.90048548e+05,940,349
Raw,3.51177207e+05,941,349
Raw,3.52591568e+05,942,349
Raw,4.59382278e+05,943,349
Raw,3.64436446e+05,944,349
Raw,3.22103017e+05,945,349
Raw,4.66354004e+05,946,349
Raw,4.56705266e+05,947,349
Raw,3.80295571e+05,948,349
Raw,4.21709437e+05,949,349
Raw,4.26962096e+05,950,349
Raw,4.28284784e+05,951,349
Raw,4.50873854e+05,952,349
Raw,4.75275513e+05,953,349
Raw,4.17625316e+05,954,349
Raw,3.51110966e+05,955,349
Raw,2.89371894e+05,956,349
Raw,3.96524284e+05,957,349
Raw,3.42740917e+05,958,349
Raw,78092.72,959,349
Raw,2.21723623e+05,959,349
Raw,3.33477578e+05,960,349
Raw,3.96806519e+05,961,349
Raw,4.08879517e+05,962,349
Raw,3.59146274e+05,963,349
Raw,3.75340702e+05,964,349
Raw,3.483725e+05,965,349
Raw,3.50988066e+05,966,349
Raw,5.12101193e+05,967,349
Raw,48202.92,967,349
Raw,4.40202533e+05,968,349
Raw,3.8066604e+05,969,349
Raw,4.43111453e+05,970,349
Raw,1.55315121e+05,971,349
Raw,5.35978929e+05,971,349
Raw,3.72949057e+05,973,349
Raw,3.13621963e+05,974,349
Raw,3.84829614e+05,975,349
Raw,4.19849532e+05,976,349
Raw,3.35457488e+05,977,349
Raw,3.97492442e+05,978,349
Raw,4.51452927e+05,979,349
Raw,3.45500342e+05,980,349
Raw,3.94152675e+05,981,349
Raw,3.42761568e+05,982,349
Raw,6.5752701e+05,983,349
Raw,4.50435514e+05,984,349
Raw,3.5781753e+05,985,349
Raw,4.59506412e+05,986,349
Raw,3.81328023e+05,987,349
Raw,4.21494699e+05,988,349
Raw,3.29943594e+05,989,349
Raw,4.54789676e+05,990,349
Raw,3.91210517e+05,991,349
Raw,4.52148036e+05,992,349
Raw,3.26111864e+05,993,349
Raw,3.70478095e+05,994,349
Raw,3.00862427e+05,995,349
Raw,3.02842765e+05,996,349
Raw,3.8796773e+05,997,349
Raw,4.41061638e+05,998,349
Raw,2.42813575e+05,999,349
Raw,4.4016519e+05,1000,349
Raw,4.10707094e+05,1001,349
Raw,3.73027978e+05,1002,349
Raw,3.77974433e+05,1003,349
Raw,3.98207382e+05,1004,349
Raw,3.5666875e+05,1005,349
Raw,3.3988493e+05,1006,349
Raw,5.38764139e+05,1007,349
Raw,3.53742276e+05,1009,349
Raw,3.38291621e+05,1011,349
Raw,3.02832994e+05,1012,349
Raw,3.79176589e+05,1014,349
Raw,3.04859355e+05,1015,349
Raw,5.66786408e+05,1016,349
Raw,4.67624694e+05,1017,349
Raw,4.06397834e+05,1018,349
Raw,3.33620429e+05,1020,349
Raw,4.04375359e+05,1021,349
Raw,4.20050819e+05,1022,349
Raw,5.94849778e+05,1023,349
Raw,1.04302148e+05,1023,349
Raw,5.50549919e+05,1024,349
Raw,3.3111803e+05,1025,349
Raw,4.08163287e+05,1026,349
Raw,3.55318239e+05,1027,349
Raw,3.8228437e+05,1028,349
Raw,4.42988684e+05,1029,349
Raw,3.17651111e+05,1030,349
Raw,4.50727599e+05,1031,349
Raw,4.73041211e+05,1032,349
Raw,3.05810436e+05,1033,349
Raw,3.46303651e+05,1034,349
Raw,4.17893532e+05,1035,349
Raw,3.45555135e+05,1036,349
Raw,4.13513473e+05,1037,349
Raw,3.32266457e+05,1038,349
Raw,2.82025244e+05,1039,349
Raw,1.51709247e+05,1039,349
Raw,4.49352205e+05,1040,349
Raw,2.8140782e+05,1041,349
Raw,4.57471365e+05,1042,349
Raw,3.82689459e+05,1043,349
Raw,3.82282941e+05,1044,349
Raw,1.04980909e+05,1044,349
Raw,2.35084743e+05,1045,349
Raw,2.8846672e+05,1046,349
Raw,2.79234324e+05,1047,349
Raw,4.20203924e+05,1048,349
Raw,4.19708412e+05,1049,349
Raw,2.85652639e+05,1050,349
Raw,3.27257922e+05,1051,349
Raw,5.80880787e+05,1052,349
Raw,4.0651375e+05,1053,349
Raw,6.29567557e+05,1054,349
Raw,2.4059902e+05,1055,349
Raw,3.31844386e+05,1056,349
Raw,4.03941009e+05,1057,349
Raw,2.97494102e+05,1058,349
Raw,4.59982372e+05,1059,349
Raw,2.96967143e+05,1060,349
Raw,3.0957321e+05,1061,349
Raw,4.47446981e+05,1062,349
Raw,3.73472542e+05,1063,349
Raw,3.83156451e+05,1064,349
Raw,4.74296871e+05,1065,349
Raw,4.34424979e+05,1066,349
Raw,3.26106133e+05,1067,349
Raw,4.70514399e+05,1068,349
Raw,4.04475368e+05,1069,349
Raw,4.35617553e+05,1070,349
Raw,4.4832804e+05,1071,349
Raw,4.07663629e+05,1072,349
Raw,3.924973e+05,1074,349
Raw,3.65226253e+05,1075,349
Raw,4.37490819e+05,1076,349
Raw,3.4423256e+05,1077,349
Raw,82648.203,1077,349
Raw,3.93664795e+05,1080,349
Raw,3.63780407e+05,1081,349
Raw,4.17717173e+05,1082,349
Raw,4.05254035e+05,1083,349
Raw,3.23815304e+05,1084,349
Raw,1.59462582e+05,1084,349
Raw,3.57874989e+05,1086,349
Raw,4.38131828e+05,1087,349
Raw,2.84442599e+05,1088,349
Raw,4.79859109e+05,1089,349
Raw,4.12074634e+05,1090,349
Raw,4.99357976e+05,1091,349
Raw,3.84595172e+05,1092,349
Raw,3.88287139e+05,1093,349
Raw,1.7435236e+05,1093,349
Raw,3.55191498e+05,1094,349
Raw,1.46040712e+05,1094,349
Raw,3.19792117e+05,1096,349
Raw,4.9125225e+05,1097,349
Raw,3.7789091e+05,1098,349
Raw,1.1722017e+05,1098,349
Raw,3.70356778e+05,1099,349
Raw,4.77133838e+05,1100,349
Raw,4.15013561e+05,1101,349
Raw,4.27862403e+05,1102,349
Raw,3.47791383e+05,1103,349
Raw,3.56495257e+05,1104,349
Raw,3.85624083e+05,1105,349
Raw,3.78081254e+05,1106,349
Raw,2.96038324e+05,1107,349
Raw,3.18189877e+05,1108,349
Raw,4.26260661e+05,1109,349
Raw,3.08476085e+05,1111,349
Raw,3.83637544e+05,1112,349
Raw,3.54402795e+05,1113,349
Raw,2.48756674e+05,1114,349
Raw,3.56604925e+05,1115,349
Raw,4.32775587e+05,1116,349
Raw,3.27809511e+05,1117,349
Raw,3.91296011e+05,1118,349
Raw,3.52099411e+05,1119,349
Raw,4.53143615e+05,1120,349
Raw,4.1551587e+05,1121,349
Raw,4.49910855e+05,1122,349
Raw,4.34530134e+05,1123,349
Raw,4.75198623e+05,1124,349
Raw,4.26258352e+05,1125,349
Raw,3.92111191e+05,1126,349
Raw,3.00600796e+05,1127,349
Raw,3.39160613e+05,1128,349
Raw,28547.585,1128,349
Raw,2.65477217e+05,1129,349
Raw,4.2946233e+05,1130,349
Raw,3.08703981e+05,1131,349
Raw,4.23532307e+05,1132,349
Raw,4.42353038e+05,1133,349
Raw,2.82594321e+05,1134,349
Raw,3.96263368e+05,1135,349
Raw,4.04497271e+05,1136,349
Raw,4.89151634e+05,1137,349
Raw,3.14417452e+05,1138,349
Raw,4.6563755e+05,1139,349
Raw,3.92749244e+05,1140,349
Raw,3.78348831e+05,1141,349
Raw,1.81742355e+05,1143,349
Raw,2.56807059e+05,1143,349
Raw,3.49539278e+05,1144,349
Raw,6.28022619e+05,1145,349
Raw,2.18483675e+05,1146,349
Raw,3.77758923e+05,1147,349
Raw,4.57340883e+05,1148,349
Raw,4.33018316e+05,1149,349
Raw,4.10639688e+05,1150,349
Raw,4.21932638e+05,1151,349
Raw,2.51996621e+05,1152,349
Raw,4.69975305e+05,1153,349
Raw,3.89996487e+05,1154,349
Raw,3.93491348e+05,1155,349
Raw,3.42322021e+05,1157,349
Raw,4.14745168e+05,1158,349
Raw,3.66265988e+05,1159,349
Raw,5.46739903e+05,1160,349
Raw,5.21196735e+05,1161,349
Raw,4.37022147e+05,1162,349
Raw,4.05744798e+05,1163,349
Raw,2.38120083e+05,1164,349
Raw,4.8978839e+05,1165,349
Raw,4.38279044e+05,1166,349
Raw,3.84877768e+05,1167,349
Raw,2.72949112e+05,1168,349
Raw,3.17880849e+05,1169,349
Raw,3.93074435e+05,1170,349
Raw,3.57561564e+05,1171,349
Raw,3.61151682e+05,1172,349
Raw,4.54524878e+05,1173,349
Raw,3.79141928e+05,1174,349
Raw,3.23836168e+05,1175,349
Raw,3.74930468e+05,1176,349
Raw,6.95510469e+05,1177,349
Raw,5.60456379e+05,1178,349
Raw,1.7873154e+05,1178,349
Raw,3.59144786e+05,1179,349
Raw,4.59020548e+05,1180,349
Raw,2.84945257e+05,1181,349
Raw,2.97905423e+05,1182,349
Raw,4.20743535e+05,1184,349
Raw,4.13862666e+05,1185,349
Raw,3.86815067e+05,1186,349
Raw,3.4114514e+05,1187,349
Raw,3.46621164e+05,1188,349
Raw,4.87806493e+05,1189,349
Raw,30495.877,1189,349
Raw,5.49759607e+05,1190,349
Raw,21859.398,1190,349
Raw,3.29738676e+05,1191,349
Raw,2.98192287e+05,1192,349
Raw,3.26035627e+05,1193,349
Raw,4.07116732e+05,1194,349
Raw,3.9429279e+05,1196,349
Raw,4.05843754e+05,1197,349
Raw,3.5351531e+05,1198,349
Raw,2.59198648e+05,1200,349
Raw,3.62661098e+05,1202,349
Raw,3.71935701e+05,1203,349
Raw,3.8579826e+05,1204,349
Raw,3.74335856e+05,1205,349
Raw,4.20828598e+05,1206,349
Raw,3.10794679e+05,1207,349
Raw,5.32511798e+05,1208,349
Raw,4.08043103e+05,1209,349
Raw,3.63555674e+05,1210,349
Raw,3.95535547e+05,1211,349
Raw,1.24680793e+05,1211,349
Raw,2.69737996e+05,1212,349
Raw,4.28468046e+05,1213,349
Raw,98590.154,1213,349
Raw,4.50354121e+05,1214,349
Raw,4.55226316e+05,1215,349
Raw,4.74196307e+05,1216,349
Raw,4.25452841e+05,1217,349
Raw,3.95724875e+05,1218,349
Raw,5.5104221e+05,1219,349
Raw,2.26847897e+05,1220,349
Raw,5.33164419e+05,1221,349
Raw,3.69070153e+05,1222,349
Raw,4.14236499e+05,1223,349
Raw,4.15581586e+05,1224,349
Raw,3.7155145e+05,1226,349
Raw,3.57918311e+05,1227,349
Raw,4.20102203e+05,1228,349
Raw,3.39755784e+05,1229,349
Raw,5.67377308e+05,1230,349
Raw,2.85963755e+05,1231,349
Raw,4.03108421e+05,1232,349
Raw,4.64568512e+05,1233,349
Raw,3.57272836e+05,1234,349
Raw,4.12160076e+05,1235,349
Raw,3.43632721e+05,1236,349
Raw,3.87682239e+05,1237,349
Raw,5.87828439e+05,1238,349
Raw,4.3948533e+05,1239,349
Raw,4.49152809e+05,1240,349
Raw,5.16453072e+05,1241,349
Raw,1.56012541e+05,1241,349
Raw,4.04525823e+05,1242,349
Raw,3.27000855e+05,1243,349
Raw,3.73611408e+05,1244,349
Raw,3.95717636e+05,1245,349
Raw,3.93320223e+05,1246,349
Raw,3.53780595e+05,1247,349
Raw,2.20604725e+05,1247,349
Raw,4.85896999e+05,1248,349
Raw,4.23673977e+05,1249,349
Raw,4.59076896e+05,1250,349
Raw,1.90335151e+05,1250,349
Raw,3.56541581e+05,1251,349
Raw,3.65511061e+05,1252,349
Raw,4.0409323e+05,1253,349
Raw,3.05474038e+05,1254,349
Raw,3.85611356e+05,1255,349
Raw,2.02825915e+05,1256,349
Raw,3.56203506e+05,1257,349
Raw,2.27467735e+05,1258,349
Raw,3.29668625e+05,1260,349
Raw,3.90531205e+05,1261,349
Raw,4.81487053e+05,1262,349
Raw,4.24416977e+05,1263,349
Raw,4.6174313e+05,1264,349
Raw,4.90513871e+05,1265,349
Raw,4.46199003e+05,1266,349
Raw,3.15083303e+05,1267,349
Raw,3.64686501e+05,1268,349
Raw,2.62707689e+05,1269,349
Raw,4.09216567e+05,1270,349
Raw,4.05510824e+05,1271,349
Raw,4.49151974e+05,1272,349
Raw,4.11899279e+05,1273,349
Raw,3.26680452e+05,1274,349
Raw,3.81146808e+05,1275,349
Raw,2.33133613e+05,1276,349
Raw,3.14992094e+05,1277,349
Raw,2.81724677e+05,1278,349
Raw,4.72845175e+05,1279,349
Raw,3.29349482e+05,1280,349
Raw,3.18409895e+05,1281,349
Raw,4.71526003e+05,1282,349
Raw,3.27978255e+05,1283,349
Raw,4.92754281e+05,1284,349
Raw,2.59809873e+05,1285,349
Raw,4.3370442e+05,1287,349
Raw,4.18955546e+05,1288,349
Raw,4.5810636e+05,1289,349
Raw,4.84261853e+05,1290,349
Raw,3.51811961e+05,1291,349
Raw,4.45077172e+05,1292,349
Raw,3.50361251e+05,1293,349
Raw,3.42976469e+05,1294,349
Raw,2.82921255e+05,1295,349
Raw,4.21280803e+05,1296,349
Raw,3.50455849e+05,1297,349
Raw,4.7004235e+05,1298,349
Raw,4.25468375e+05,1299,349
Raw,5.55740371e+05,1300,349
Raw,4.05328451e+05,1301,349
Raw,4.21329633e+05,1302,349
Raw,3.88902249e+05,1303,349
Raw,5.79543209e+05,1304,349
Raw,2.83761417e+05,1305,349
Raw,4.87855362e+05,1306,349
Raw,3.31447662e+05,1307,349
Raw,1.57280127e+05,1308,349
Raw,2.83651728e+05,1308,349
Raw,3.6670909e+05,1309,349
Raw,3.83879003e+05,1310,349
Raw,3.47733002e+05,1311,349
Raw,3.34285866e+05,1312,349
Raw,4.02314239e+05,1313,349
Raw,2.98302598e+05,1314,349
Raw,5.0383318e+05,1315,349
Raw,4.71284505e+05,1316,349
Raw,3.07659413e+05,1317,349
Raw,3.63445939e+05,1318,349
Raw,2.68370198e+05,1320,349
Raw,3.85917536e+05,1322,349
Raw,5.30230669e+05,1323,349
Raw,3.11530013e+05,1324,349
Raw,4.59197621e+05,1325,349
Raw,3.44394449e+05,1326,349
Raw,3.35748352e+05,1327,349
Raw,4.3433957e+05,1328,349
Raw,4.29711269e+05,1329,349
Raw,3.67891983e+05,1330,349
Raw,3.63626419e+05,1331,349
Raw,3.46054131e+05,1332,349
Raw,4.10255454e+05,1333,349
Raw,2.42965563e+05,1334,349
Raw,4.02792826e+05,1335,349
Raw,4.20892128e+05,1337,349
Raw,4.10079242e+05,1338,349
Raw,2.79154029e+05,1339,349
Raw,3.74728996e+05,1340,349
Raw,3.3961632e+05,1341,349
Raw,4.27930336e+05,1342,349
Raw,1.37443175e+05,1342,349
Raw,4.4417079e+05,1343,349
Raw,5.27301824e+05,1344,349
Raw,4.8777606e+05,1345,349
Raw,8.54535971e+05,1346,349
Raw,7.45005825e+05,1347,349
Raw,3.99428499e+05,1348,349
Raw,4.550698e+05,1349,349
Raw,3.80987611e+05,1350,349
Raw,17876.638,1350,349
Raw,4.37821983e+05,1351,349
Raw,3.72116298e+05,1352,349
Raw,4.58277397e+05,1353,349
Raw,4.44051373e+05,1354,349
Raw,4.2269434e+05,1355,349
Raw,3.95626881e+05,1356,349
Raw,3.20174786e+05,1358,349
Raw,5.94667241e+05,1359,349
Raw,3.4313745e+05,1360,349
Raw,7.37803853e+05,1361,349
Raw,4.07382501e+05,1362,349
Raw,3.2462183e+05,1363,349
Raw,3.80336761e+05,1364,349
Raw,4.42001875e+05,1365,349
Raw,2.76609002e+05,1366,349
Raw,4.76627923e+05,1367,349
Raw,3.46453337e+05,1368,349
Raw,3.67702796e+05,1369,349
Raw,3.86135852e+05,1370,349
Raw,3.47022258e+05,1371,349
Raw,4.00616157e+05,1373,349
Raw,3.78520361e+05,1374,349
Raw,3.95303304e+05,1375,349
Raw,4.67431485e+05,1376,349
Raw,4.2118992e+05,1377,349
Raw,4.59933281e+05,1378,349
Raw,3.98190786e+05,1379,349
Raw,3.65504852e+05,1380,349
Raw,4.08998159e+05,1381,349
Raw,5.42652281e+05,1382,349
Raw,4.04800173e+05,1383,349
Raw,1.52816095e+05,1383,349
Raw,28336.487,1383,349
Raw,4.42890924e+05,1384,349
Raw,3.57814136e+05,1385,349
Raw,3.51879543e+05,1386,349
Raw,4.50296487e+05,1387,349
Raw,4.49422712e+05,1388,349
Raw,3.829766e+05,1389,349
Raw,4.74721292e+05,1390,349
Raw,3.86292985e+05,1391,349
Raw,3.90431513e+05,1392,349
Raw,22747.38,1392,349
Raw,4.75585061e+05,1393,349
Raw,4.01325044e+05,1394,349
Raw,2.96412976e+05,1395,349
Raw,4.11487163e+05,1396,349
Raw,4.59685715e+05,1397,349
Raw,3.4223753e+05,1398,349
Raw,3.81230712e+05,1399,349
Raw,4.72411993e+05,1400,349
Raw,4.10979021e+05,1401,349
Raw,3.97491713e+05,1402,349
Raw,4.30435082e+05,1403,349
Raw,1.16214259e+05,1403,349
Raw,4.49787177e+05,1405,349
Raw,4.31581966e+05,1406,349
Raw,2.39645712e+05,1407,349
Raw,2.58618162e+05,1408,349
Raw,4.77733352e+05,1410,349
Raw,2.84481718e+05,1411,349
Raw,3.40764187e+05,1412,349
Raw,7.18565852e+05,1413,349
Raw,2.90992417e+05,1414,349
Raw,5.18636768e+05,1415,349
Raw,3.4915159e+05,1416,349
Raw,4.21752032e+05,1417,349
Raw,4.99521676e+05,1418,349
Raw,3.37669903e+05,1419,349
Raw,4.18265993e+05,1420,349
Raw,4.57407443e+05,1421,349
Raw,2.500108e+05,1422,349
Raw,3.75572858e+05,1424,349
Raw,3.31808084e+05,1425,349
Raw,3.06091083e+05,1426,349
Raw,3.79038257e+05,1427,349
Raw,3.99276212e+05,1429,349
Raw,3.4138017e+05,1430,349
Raw,3.79518836e+05,1431,349
Raw,64147.603,1432,349
Raw,3.75709309e+05,1433,349
Raw,4.6363867e+05,1434,349
Raw,3.44308088e+05,1435,349
Raw,4.11600734e+05,1436,349
Raw,3.5804461e+05,1437,349
Raw,4.49654762e+05,1438,349
Raw,2.75682047e+05,1439,349
Raw,3.89695771e+05,1440,349
Raw,3.84207244e+05,1441,349
Raw,9.46149225e+05,1442,349
Raw,4.24108497e+05,1443,349
Raw,2.72185254e+05,1444,349
Raw,3.13121852e+05,1445,349
Raw,4.29979596e+05,1446,349
Raw,4.20162985e+05,1447,349
Raw,3.94708849e+05,1448,349
Raw,3.28680138e+05,1449,349
Raw,1.38660776e+05,1449,349
Raw,3.28512881e+05,1450,349
Raw,4.30645299e+05,1451,349
Raw,1.84069351e+05,1451,349
Raw,4.27158997e+05,1452,349
Raw,5.0639764e+05,1453,349
Raw,3.37702313e+05,1454,349
Raw,4.28257924e+05,1455,349
Raw,4.289228e+05,1456,349
Raw,4.70261759e+05,1457,349
Raw,3.85874611e+05,1458,349
Raw,4.91328654e+05,1459,349
Raw,3.96675669e+05,1460,349
Raw,4.13923573e+05,1461,349
Raw,5.3592412e+05,1462,349
Raw,4.93980748e+05,1463,349
Raw,3.54523998e+05,1464,349
Raw,4.1855598e+05,1465,349
Raw,4.24217236e+05,1466,349
Raw,3.93337913e+05,1467,349
Raw,4.21355834e+05,1468,349
Raw,3.67906194e+05,1469,349
Raw,3.97006583e+05,1470,349
Raw,6.00923077e+05,1471,349
Raw,4.6475919e+05,1472,349
Raw,3.91226166e+05,1473,349
Raw,3.9419459e+05,1474,349
Raw,3.51756066e+05,1475,349
Raw,4.66116877e+05,1476,349
Raw,3.59964977e+05,1477,349
Raw,4.11606263e+05,1478,349
Raw,4.0585263e+05,1479,349
Raw,3.84275704e+05,1480,349
Raw,3.75822158e+05,1482,349
Raw,4.07107444e+05,1483,349
Raw,3.16862402e+05,1484,349
Raw,3.49790705e+05,1485,349
Raw,3.79364306e+05,1486,349
Raw,5.05423237e+05,1487,349
Raw,3.81604257e+05,1488,349
Raw,1.06128039e+05,1488,349
Raw,3.9349007e+05,1489,349
Raw,5.19279074e+05,1490,349
Raw,5.81084006e+05,1491,349
Raw,4.06268365e+05,1492,349
Raw,4.24281534e+05,1493,349
Raw,4.97240577e+05,1494,349
Raw,4.3551089e+05,1495,349
Raw,4.35582405e+05,1496,349
Raw,4.02333368e+05,1497,349
Raw,3.8620317e+05,1498,349
Raw,3.88870143e+05,1499,349
Raw,2.56284935e+05,1500,349
Raw,4.36671058e+05,1501,349
Raw,3.69603147e+05,1502,349
Raw,3.75661204e+05,1503,349
Raw,4.35537774e+05,1504,349
Raw,3.01120286e+05,1505,349
Raw,3.25272771e+05,1506,349
Raw,3.43276956e+05,1507,349
Raw,3.49513055e+05,1508,349
Raw,4.47233765e+05,1509,349
Raw,3.45643829e+05,1510,349
Raw,4.54897156e+05,1511,349
Raw,4.79254253e+05,1512,349
Raw,3.6104981e+05,1513,349
Raw,3.49614967e+05,1514,349
Raw,2.62396584e+05,1515,349
Raw,3.0888909e+05,1516,349
Raw,4.17206663e+05,1517,349
Raw,3.62074481e+05,1519,349
Raw,4.03108321e+05,1520,349
Raw,3.9953536e+05,1521,349
Raw,4.28309675e+05,1522,349
Raw,4.25913174e+05,1523,349
Raw,3.77549731e+05,1524,349
Raw,4.56053471e+05,1525,349
Raw,3.39381046e+05,1526,349
Raw,2.33907535e+05,1527,349
Raw,4.04059375e+05,1528,349
Raw,3.13337142e+05,1529,349
Raw,4.54152421e+05,1530,349
Raw,4.37811272e+05,1531,349
Raw,2.47430005e+05,1531,349
Raw,4.04460396e+05,1532,349
Raw,5.41117552e+05,1534,349
Raw,1.49720804e+05,1534,349
Raw,3.324301e+05,1535,349
Raw,3.29977705e+05,1536,349
Raw,5.36718022e+05,1537,349
Raw,3.50111416e+05,1538,349
Raw,4.0265544e+05,1539,349
Raw,4.86024665e+05,1540,349
Raw,2.52053597e+05,1542,349
Raw,4.07097403e+05,1543,349
Raw,1.56305188e+05,1543,349
Raw,4.29956578e+05,1544,349
Raw,3.01007201e+05,1545,349
Raw,3.55467218e+05,1546,349
Raw,3.9698941e+05,1547,349
Raw,3.22392291e+05,1548,349
Raw,4.50137067e+05,1550,349
Raw,2.50509767e+05,1550,349
Raw,3.15103805e+05,1551,349
Raw,3.58606248e+05,1552,349
Raw,4.90056634e+05,1553,349
Raw,3.56367365e+05,1554,349
Raw,8.38687462e+05,1555,349
Raw,3.87800683e+05,1556,349
Raw,2.56893875e+05,1557,349
Raw,3.90916611e+05,1558,349
Raw,5.5965419e+05,1559,349
Raw,3.71795379e+05,1560,349
Raw,4.21143464e+05,1561,349
Raw,4.34026321e+05,1562,349
Raw,3.3195633e+05,1563,349
Raw,4.20926889e+05,1565,349
Raw,4.27425608e+05,1566,349
Raw,3.5274578e+05,1568,349
Raw,5.12191204e+05,1569,349
Raw,5.15548048e+05,1570,349
Raw,4.27862048e+05,1571,349
Raw,3.59110018e+05,1572,349
Raw,4.05060075e+05,1573,349
Raw,3.06226808e+05,1574,349
Raw,2.99967869e+05,1575,349
Raw,5.38689065e+05,1576,349
Raw,4.3499695e+05,1577,349
Raw,3.43390012e+05,1578,349
Raw,2.27476467e+05,1579,349
Raw,4.27418518e+05,1580,349
Raw,3.22669244e+05,1581,349
Raw,3.24715264e+05,1582,349
Raw,3.69771184e+05,1583,349
Raw,3.8074984e+05,1584,349
Raw,3.7172135e+05,1585,349
Raw,2.67782868e+05,1587,349
Raw,3.97421253e+05,1588,349
Raw,4.16249063e+05,1589,349
Raw,2.76176102e+05,1590,349
Raw,3.36054559e+05,1591,349
Raw,5.0572403e+05,1592,349
Raw,3.01274126e+05,1593,349
Raw,4.71112955e+05,1594,349
Raw,3.81160467e+05,1595,349
Raw,4.24765011e+05,1596,349
Raw,2.12989878e+05,1597,349
Raw,3.39123175e+05,1598,349
Raw,1.43426751e+05,1598,349
Raw,3.80271533e+05,1599,349
Raw,3.17769668e+05,1600,349
Raw,3.38529301e+05,1601,349
Raw,3.95140139e+05,1603,349
Raw,3.99997924e+05,1604,349
Raw,5.32655253e+05,1605,349
Raw,3.99620374e+05,1606,349
Raw,5.74087359e+05,1607,349
Raw,2.57777846e+05,1608,349
Raw,6.092147e+05,1609,349
Raw,4.06993865e+05,1609,349
Raw,4.71474677e+05,1610,349
Raw,4.37272353e+05,1611,349
Raw,4.21245926e+05,1612,349
Raw,3.11820394e+05,1613,349
Raw,4.19206569e+05,1614,349
Raw,2.3833326e+05,1615,349
Raw,4.62478572e+05,1616,349
Raw,4.88911618e+05,1617,349
Raw,3.61041171e+05,1618,349
Raw,1.53502566e+05,1618,349
Raw,3.72167361e+05,1619,349
Raw,4.51357379e+05,1620,349
Raw,3.95306945e+05,1621,349
Raw,4.35669702e+05,1622,349
Raw,3.86569903e+05,1623,349
Raw,2.85364717e+05,1624,349
Raw,4.26961012e+05,1625,349
Raw,3.7418635e+05,1626,349
Raw,3.87451034e+05,1627,349
Raw,6.03864497e+05,1628,349
Raw,4.22052334e+05,1629,349
Raw,3.96255857e+05,1630,349
Raw,4.116589e+05,1631,349
Raw,3.89362141e+05,1632,349
Raw,4.19181054e+05,1633,349
Raw,3.73812659e+05,1634,349
Raw,3.94635428e+05,1635,349
Raw,5.11346041e+05,1636,349
Raw,3.50994797e+05,1637,349
Raw,4.20086372e+05,1639,349
Raw,2.16268863e+05,1640,349
Raw,3.58921783e+05,1641,349
Raw,3.6508345e+05,1642,349
Raw,5.44567734e+05,1643,349
Raw,3.65524338e+05,1644,349
Raw,3.6857733e+05,1645,349
Raw,4.73921058e+05,1646,349
Raw,4.18692468e+05,1648,349
Raw,2.20903785e+05,1649,349
Raw,4.40973757e+05,1650,349
Raw,3.01396036e+05,1651,349
Raw,4.42136896e+05,1652,349
Raw,3.06582045e+05,1653,349
Raw,4.03237759e+05,1655,349
Raw,3.57322062e+05,1656,349
Raw,4.06425678e+05,1657,349
Raw,3.5468041e+05,1658,349
Raw,3.10677622e+05,1658,349
Raw,3.01687084e+05,1659,349
Raw,4.03197702e+05,1660,349
Raw,3.78640356e+05,1661,349
Raw,3.35621109e+05,1662,349
Raw,2.54204474e+05,1663,349
Raw,4.32017142e+05,1664,349
Raw,6.25303012e+05,1665,349
Raw,4.23032192e+05,1666,349
Raw,3.22603178e+05,1667,349
Raw,3.28174504e+05,1668,349
Raw,3.61670901e+05,1669,349
Raw,3.74796282e+05,1670,349
Raw,3.35963966e+05,1671,349
Raw,3.92953547e+05,1672,349
Raw,3.61308706e+05,1673,349
Raw,3.96410879e+05,1674,349
Raw,4.2592777e+05,1675,349
Raw,3.17977149e+05,1676,349
Raw,3.8763746e+05,1677,349
Raw,3.695265e+05,1678,349
Raw,4.16364677e+05,1679,349
Raw,4.68898218e+05,1680,349
Raw,4.25044091e+05,1681,349
Raw,6.31386655e+05,1682,349
Raw,4.15203737e+05,1683,349
Raw,4.02225539e+05,1684,349
Raw,2.48508561e+05,1685,349
Raw,4.38638496e+05,1686,349
Raw,2.60540781e+05,1687,349
Raw,3.86474715e+05,1688,349
Raw,2.85787201e+05,1689,349
Raw,87796.16,1689,349
Raw,4.75174361e+05,1690,349
Raw,4.0989908e+05,1691,349
Raw,6.19575472e+05,1692,349
Raw,4.34591565e+05,1693,349
Raw,4.69751345e+05,1694,349
Raw,3.39032229e+05,1695,349
Raw,3.58476447e+05,1696,349
Raw,3.67476412e+05,1697,349
Raw,4.2380367e+05,1698,349
Raw,3.53475382e+05,1699,349
Raw,4.87976176e+05,1700,349
Raw,4.08138872e+05,1701,349
Raw,3.79626249e+05,1702,349
Raw,3.06130268e+05,1703,349
Raw,2.63684396e+05,1704,349
Raw,8.46306005e+05,1705,349
Raw,1.84211844e+05,1706,349
Raw,4.4341216e+05,1707,349
Raw,3.99032532e+05,1708,349
Raw,2.20570449e+05,1709,349
Raw,3.97162236e+05,1710,349
Raw,4.00240968e+05,1711,349
Raw,4.4538691e+05,1712,349
Raw,2.40021112e+05,1713,349
Raw,2.65337219e+05,1714,349
Raw,3.59093222e+05,1715,349
Raw,4.11766583e+05,1716,349
Raw,4.49908958e+05,1717,349
Raw,3.54701417e+05,1718,349
Raw,3.88062734e+05,1719,349
Raw,3.90841953e+05,1720,349
Raw,4.55859954e+05,1721,349
Raw,3.96909397e+05,1722,349
Raw,3.29995055e+05,1723,349
Raw,3.59207475e+05,1724,349
Raw,4.22717553e+05,1725,349
Raw,4.18461626e+05,1726,349
Raw,3.84426457e+05,1728,349
Raw,4.33662256e+05,1729,349
Raw,3.59470713e+05,1730,349
Raw,1.99714913e+05,1730,349
Raw,4.09341675e+05,1731,349
Raw,3.85388745e+05,1732,349
Raw,4.16575912e+05,1734,349
Raw,4.15255186e+05,1735,349
Raw,1.57085666e+05,1735,349
Raw,4.90510154e+05,1736,349
Raw,2.29938809e+05,1737,349
Raw,4.7472668e+05,1738,349
Raw,3.9976641e+05,1739,349
Raw,3.87732807e+05,1740,349
Raw,3.44830408e+05,1741,349
Raw,3.2576224e+05,1742,349
Raw,3.41432668e+05,1743,349
Raw,4.51217312e+05,1744,349
Raw,6.91290501e+05,1745,349
Raw,5.27536586e+05,1746,349
Raw,2.26259684e+05,1748,349
Raw,3.41258051e+05,1749,349
Raw,2.83895444e+05,1750,349
Raw,4.55988941e+05,1752,349
Raw,4.40493092e+05,1753,349
Raw,3.34721147e+05,1755,349
Raw,3.596174e+05,1756,349
Raw,3.04087454e+05,1757,349
Raw,4.06684041e+05,1758,349
Raw,4.2567033e+05,1759,349
Raw,1.48477151e+05,1759,349
Raw,4.27876264e+05,1760,349
Raw,2.97346149e+05,1761,349
Raw,97605.281,1761,349
Raw,3.74516555e+05,1762,349
Raw,3.59261573e+05,1763,349
Raw,3.29853497e+05,1764,349
Raw,3.10799416e+05,1765,349
Raw,3.57333897e+05,1766,349
Raw,2.82959126e+05,1767,349
Raw,4.19272715e+05,1769,349
Raw,5.38734379e+05,1770,349
Raw,4.17076998e+05,1771,349
Raw,1.58684358e+05,1771,349
Raw,4.49354033e+05,1772,349
Raw,3.76382458e+05,1773,349
Raw,3.6210235e+05,1774,349
Raw,4.8735271e+05,1775,349
Raw,4.11100886e+05,1776,349
Raw,4.28411782e+05,1777,349
Raw,3.98960368e+05,1778,349
Raw,3.99898714e+05,1779,349
Raw,3.3315156e+05,1780,349
Raw,3.79310344e+05,1781,349
Raw,3.09108208e+05,1782,349
Raw,3.15499857e+05,1783,349
Raw,3.71438192e+05,1784,349
Raw,3.23854503e+05,1785,349
Raw,3.17669968e+05,1786,349
Raw,4.41814859e+05,1787,349
Raw,3.22093542e+05,1788,349
Raw,5.6666836e+05,1789,349
Raw,4.69470955e+05,1790,349
Raw,4.92498122e+05,1791,349
Raw,1.92146302e+05,1791,349
Raw,3.6937091e+05,1792,349
Raw,1.91655298e+05,1793,349
Raw,61897.636,1793,349
Raw,3.14923097e+05,1794,349
Raw,3.0374223e+05,1795,349
Raw,2.85382149e+05,1796,349
Raw,1.54188068e+05,1796,349
Raw,2.52871489e+05,1797,349
Raw,3.3341825e+05,1798,349
Raw,4.03106179e+05,1799,349
Raw,4.1940976e+05,1800,349
Raw,3.8000357e+05,1801,349
Raw,3.48376989e+05,1802,349
Raw,5.77824257e+05,1803,349
Raw,4.02340913e+05,1804,349
Raw,3.57854466e+05,1805,349
Raw,3.39960854e+05,1806,349
Raw,4.25796656e+05,1807,349
Raw,4.23136316e+05,1808,349
Raw,5.33659035e+05,1809,349
Raw,4.86567876e+05,1810,349
Raw,3.83755767e+05,1811,349
Raw,5.0134903e+05,1812,349
Raw,4.73046096e+05,1813,349
Raw,3.18498043e+05,1814,349
Raw,4.24977037e+05,1815,349
Raw,4.17806471e+05,1816,349
Raw,3.91602711e+05,1817,349
Raw,3.4492061e+05,1818,349
Raw,3.8193682e+05,1819,349
Raw,3.10050555e+05,1820,349
Raw,4.73377911e+05,1821,349
Raw,4.21698712e+05,1821,349
Raw,4.63277235e+05,1822,349
Raw,3.82882424e+05,1823,349
Raw,91131.022,1823,349
Raw,3.98358317e+05,1824,349
Raw,3.64233431e+05,1825,349
Raw,3.41364691e+05,1826,349
Raw,2.69844352e+05,1826,349
Raw,3.86014273e+05,1827,349
Raw,4.14291341e+05,1828,349
Raw,4.17421924e+05,1829,349
Raw,6.02812576e+05,1830,349
Raw,3.05451778e+05,1831,349
Raw,2.72638183e+05,1832,349
Raw,2.92088119e+05,1833,349
Raw,3.65949312e+05,1834,349
Raw,4.27252621e+05,1835,349
Raw,1.65369181e+05,1835,349
Raw,3.28850328e+05,1836,349
Raw,1.73173707e+05,1836,349
Raw,3.96859459e+05,1837,349
Raw,3.75807001e+05,1838,349
Raw,4.59973507e+05,1839,349
Raw,3.90523757e+05,1840,349
Raw,3.65902134e+05,1841,349
Raw,2.33704731e+05,1842,349
Raw,3.39118212e+05,1843,349
Raw,4.67738341e+05,1844,349
Raw,3.74893374e+05,1845,349
Raw,3.73489045e+05,1846,349
Raw,3.60973496e+05,1847,349
Raw,3.26588409e+05,1848,349
Raw,4.00941395e+05,1849,349
Raw,2.32751442e+05,1850,349
Raw,3.53241353e+05,1851,349
Raw,4.75288182e+05,1852,349
Raw,4.45491836e+05,1853,349
Raw,3.78576485e+05,1854,349
Raw,3.72354678e+05,1855,349
Raw,5.04676425e+05,1856,349
Raw,3.98387108e+05,1857,349
Raw,4.18730395e+05,1858,349
Raw,3.27208201e+05,1859,349
Raw,2.56661004e+05,1860,349
Raw,2.95455368e+05,1861,349
Raw,4.44370254e+05,1862,349
Raw,4.02711783e+05,1863,349
Raw,4.16673913e+05,1864,349
Raw,3.15691184e+05,1865,349
Raw,5.23703491e+05,1866,349
Raw,3.08851062e+05,1867,349
Raw,3.17088791e+05,1868,349
Raw,3.38058055e+05,1870,349
Raw,3.90866488e+05,1871,349
Raw,4.35526786e+05,1872,349
Raw,6.20683884e+05,1873,349
Raw,3.99375562e+05,1874,349
Raw,4.09108316e+05,1875,349
Raw,3.28150416e+05,1876,349
Raw,4.01466719e+05,1877,349
Raw,3.60104003e+05,1878,349
Raw,3.19164191e+05,1879,349
Raw,2.87437299e+05,1880,349
Raw,3.86579281e+05,1881,349
Raw,4.18695167e+05,1882,349
Raw,4.31732369e+05,1884,349
Raw,1.83417969e+05,1884,349
Raw,3.43181239e+05,1885,349
Raw,4.01109433e+05,1886,349
Raw,4.30066955e+05,1887,349
Raw,4.361438e+05,1888,349
Raw,3.15256227e+05,1889,349
Raw,1.20386015e+05,1889,349
Raw,3.43834375e+05,1890,349
Raw,4.91696236e+05,1891,349
Raw,3.94178246e+05,1892,349
Raw,3.94822718e+05,1893,349
Raw,3.73409961e+05,1894,349
Raw,2.89467831e+05,1895,349
Raw,4.11747351e+05,1896,349
Raw,1.4200431e+05,1896,349
Raw,2.4889733e+05,1897,349
Raw,4.65983128e+05,1898,349
Raw,2.96207418e+05,1899,349
Raw,3.20099097e+05,1900,349
Raw,6.94998707e+05,1901,349
Raw,4.34877608e+05,1903,349
Raw,4.38340198e+05,1904,349
Raw,1.04892825e+05,1904,349
Raw,1.94349662e+05,1905,349
Raw,3.5267823e+05,1906,349
Raw,93526.366,1906,349
Raw,6.86353043e+05,1907,349
Raw,3.62962203e+05,1908,349
Raw,3.6839888e+05,1909,349
Raw,4.04628076e+05,1910,349
Raw,3.54876287e+05,1911,349
Raw,2.99229479e+05,1912,349
Raw,7.90935998e+05,1913,349
Raw,3.67423298e+05,1915,349
Raw,4.13830251e+05,1917,349
Raw,5.57279892e+05,1918,349
Raw,4.98788109e+05,1919,349
Raw,2.83434572e+05,1920,349
Raw,3.30319307e+05,1921,349
Raw,4.11367579e+05,1922,349
Raw,3.57651593e+05,1923,349
Raw,3.73342562e+05,1924,349
Raw,3.50286446e+05,1925,349
Raw,3.76016241e+05,1926,349
Raw,4.31935462e+05,1927,349
Raw,3.13583075e+05,1928,349
Raw,3.76422983e+05,1930,349
Raw,3.2671307e+05,1931,349
Raw,2.21422191e+05,1932,349
Raw,4.00363822e+05,1933,349
Raw,3.93560689e+05,1934,349
Raw,4.98127978e+05,1935,349
Raw,4.9774e+05,1936,349
Raw,3.26295263e+05,1937,349
Raw,3.9203472e+05,1938,349
Raw,1.00392522e+05,1939,349
Raw,2.51446012e+05,1939,349
Raw,2.94799742e+05,1940,349
Raw,3.22281303e+05,1941,349
Raw,4.76023116e+05,1942,349
Raw,2.68048525e+05,1943,349
Raw,3.00676663e+05,1944,349
Raw,4.85707539e+05,1945,349
Raw,3.75298077e+05,1946,349
Raw,3.41741741e+05,1947,349
Raw,3.35280591e+05,1948,349
Raw,3.40043829e+05,1949,349
Raw,4.64760224e+05,1950,349
Raw,4.87060207e+05,1952,349
Raw,1.61664518e+05,1952,349
Raw,2.48475516e+05,1953,349
Raw,3.7773286e+05,1954,349
Raw,4.29285234e+05,1955,349
Raw,3.89285619e+05,1956,349
Raw,4.18506496e+05,1957,349
Raw,3.64061898e+05,1958,349
Raw,3.54403481e+05,1959,349
Raw,4.3089366e+05,1960,349
Raw,3.26019413e+05,1961,349
Raw,4.0443372e+05,1962,349
Raw,2.93842375e+05,1963,349
Raw,3.7965823e+05,1964,349
Raw,1.31418779e+05,1966,349
Raw,2.63386639e+05,1966,349
Raw,4.55755095e+05,1967,349
Raw,4.63251674e+05,1968,349
Raw,4.22461359e+05,1969,349
Raw,2.95782463e+05,1970,349
Raw,2.57983792e+05,1971,349
Raw,4.36057014e+05,1972,349
Raw,3.55365798e+05,1973,349
Raw,3.30055244e+05,1974,349
Raw,3.82805007e+05,1975,349
Raw,3.79453229e+05,1976,349
Raw,4.36561384e+05,1977,349
Raw,4.02834535e+05,1978,349
Raw,3.19375931e+05,1979,349
Raw,3.29172683e+05,1980,349
Raw,4.74014169e+05,1982,349
Raw,5.2030538e+05,1983,349
Raw,5.41685508e+05,1984,349
Raw,6.1004911e+05,1985,349
Raw,4.05149855e+05,1986,349
Raw,4.1780925e+05,1987,349
Raw,3.73318703e+05,1988,349
Raw,4.99499998e+05,1989,349
Raw,5.02473958e+05,1990,349
Raw,2.63765988e+05,1992,349
Raw,3.28083457e+05,1993,349
Raw,2.33990111e+05,1994,349
Raw,4.13610221e+05,1995,349
Raw,3.37637096e+05,1996,349
Raw,2.52621478e+05,1997,349
Raw,3.17876122e+05,1998,349
Raw,3.89001123e+05,1999,349
Raw,4.08688876e+05,2000,349
Raw,4.15112591e+05,2001,349
Raw,4.19812225e+05,2002,349
Raw,4.08393493e+05,2003,349
Raw,4.31118376e+05,2004,349
Raw,77514.858,2004,349
Raw,4.00534371e+05,2005,349
Raw,3.54192385e+05,2007,349
Raw,5.75644704e+05,2008,349
Raw,3.27198831e+05,2009,349
Raw,4.83534001e+05,2010,349
Raw,5.05952548e+05,2011,349
Raw,3.17830629e+05,2012,349
Raw,3.9776207e+05,2013,349
Raw,3.67977087e+05,2014,349
Raw,4.42412797e+05,2015,349
Raw,3.5912859e+05,2016,349
Raw,3.81192691e+05,2017,349
Raw,2.8968371e+05,2018,349
Raw,4.5704128e+05,2019,349
Raw,4.30441899e+05,2020,349
Raw,4.16877863e+05,2021,349
Raw,5.09522892e+05,2023,349
Raw,3.93128961e+05,2024,349
Raw,3.55592218e+05,2025,349
Raw,3.81146573e+05,2026,349
Raw,5.13429356e+05,2028,349
Raw,3.35995184e+05,2029,349
Raw,4.27948929e+05,2030,349
Raw,3.16522083e+05,2031,349
Raw,2.41764417e+05,2032,349
Raw,3.02487468e+05,2033,349
Raw,4.06614945e+05,2034,349
Raw,3.00040418e+05,2036,349
Raw,1.65874188e+05,2036,349
Raw,5.01996707e+05,2038,349
Raw,4.45730628e+05,2040,349
Raw,4.43382723e+05,2041,349
Raw,4.29313052e+05,2042,349
Raw,4.13653175e+05,2043,349
Raw,3.5528336e+05,2044,349
Raw,5.75241499e+05,2046,349
Raw,3.1717892e+05,2048,349
Raw,3.99078063e+05,2049,349
Raw,6.14673098e+05,2050,349
Raw,4.22793489e+05,2051,349
Raw,2.09645591e+05,2052,349
Raw,3.79919353e+05,2053,349
Raw,3.25227731e+05,2054,349
Raw,6.97702941e+05,2055,349
Raw,4.20566417e+05,2056,349
Raw,3.75402423e+05,2057,349
Raw,4.22202283e+05,2058,349
Raw,3.59696122e+05,2059,349
Raw,4.13310998e+05,2060,349
Raw,3.98122694e+05,2061,349
Raw,5.05841311e+05,2062,349
Raw,4.61744689e+05,2063,349
Raw,7.95760321e+05,2064,349
Raw,3.7744565e+05,2065,349
Raw,4.57243578e+05,2066,349
Raw,4.62849545e+05,2067,349
Raw,3.20789457e+05,2068,349
Raw,3.66610626e+05,2069,349
Raw,1.08695073e+06,2070,349
Raw,4.0304641e+05,2071,349
Raw,2.37590574e+05,2072,349
Raw,3.40993599e+05,2073,349
Raw,3.05655107e+05,2074,349
Raw,4.05347871e+05,2075,349
Raw,2.87489953e+05,2076,349
Raw,4.76119773e+05,2077,349
Raw,4.15741966e+05,2078,349
Raw,4.2217925e+05,2079,349
Raw,5.56362727e+05,2080,349
Raw,11917.957,2080,349
Raw,3.50467118e+05,2081,349
Raw,2.8052238e+05,2082,349
Raw,3.54415311e+05,2083,349
Raw,3.78094451e+05,2084,349
Raw,3.2524257e+05,2085,349
Raw,3.68279912e+05,2086,349
Raw,6.6853796e+05,2087,349
Raw,3.77549922e+05,2088,349
Raw,4.11482055e+05,2089,349
Raw,1.32655741e+05,2089,349
Raw,4.25350041e+05,2090,349
Raw,4.19251762e+05,2091,349
Raw,4.32947701e+05,2092,349
Raw,3.32356907e+05,2093,349
Raw,2.05957714e+05,2093,349
Raw,3.51367996e+05,2094,349
Raw,3.22334554e+05,2095,349
Raw,8.10170817e+05,2096,349
Raw,3.26094906e+05,2097,349
Raw,3.38952665e+05,2098,349
Raw,3.59966377e+05,2099,349
Raw,4.40431207e+05,2100,349
Raw,4.44846448e+05,2102,349
Raw,3.86421363e+05,2103,349
Raw,1.06896743e+05,2103,349
Raw,4.6284521e+05,2104,349
Raw,4.72921229e+05,2105,349
Raw,4.57710786e+05,2106,349
Raw,3.74544686e+05,2107,349
Raw,3.74838211e+05,2108,349
Raw,4.96706116e+05,2109,349
Raw,3.38687208e+05,2110,349
Raw,1.86989511e+05,2110,349
Raw,4.72201492e+05,2111,349
Raw,4.46820884e+05,2112,349
Raw,3.65242862e+05,2113,349
Raw,2.24522089e+05,2114,349
Raw,2.99361445e+05,2115,349
Raw,4.05000384e+05,2116,349
Raw,3.4467521e+05,2117,349
Raw,79432.781,2117,349
Raw,4.06787126e+05,2118,349
Raw,4.3489486e+05,2119,349
Raw,3.44850435e+05,2120,349
Raw,3.90950176e+05,2121,349
Raw,3.95492115e+05,2122,349
Raw,4.04125021e+05,2123,349
Raw,4.39721205e+05,2124,349
Raw,5.892042e+05,2125,349
Raw,4.0484552e+05,2126,349
Raw,3.26251486e+05,2127,349
Raw,3.70193405e+05,2128,349
Raw,1.18447304e+05,2128,349
Raw,3.03916258e+05,2129,349
Raw,64440.469,2129,349
Raw,3.6410241e+05,2130,349
Raw,2.6164136e+05,2131,349
Raw,3.2832239e+05,2132,349
Raw,4.73247426e+05,2133,349
Raw,90301.266,2133,349
Raw,5.37498661e+05,2134,349
Raw,3.59327649e+05,2135,349
Raw,3.67625606e+05,2136,349
Raw,1.19002297e+05,2136,349
Raw,3.89735103e+05,2137,349
Raw,3.78569842e+05,2138,349
Raw,1.38266585e+05,2138,349
Raw,3.85783285e+05,2139,349
Raw,4.47254385e+05,2140,349
Raw,3.91847321e+05,2141,349
Raw,4.31622601e+05,2142,349
Raw,3.40589155e+05,2143,349
Raw,3.18214674e+05,2144,349
Raw,2.73518876e+05,2145,349
Raw,3.5569708e+05,2146,349
Raw,73001.836,2146,349
Raw,3.28716574e+05,2147,349
Raw,2.33042322e+05,2148,349
Raw,4.37396795e+05,2149,349
Raw,4.10217583e+05,2150,349
Raw,3.77632572e+05,2151,349
Raw,5.69520191e+05,2152,349
Raw,2.68248333e+05,2153,349
Raw,4.47742823e+05,2154,349
Raw,3.80985732e+05,2155,349
Raw,3.63895466e+05,2156,349
Raw,3.66143254e+05,2157,349
Raw,3.42631107e+05,2158,349
Raw,4.40992703e+05,2159,349
Raw,4.10219656e+05,2160,349
Raw,4.22952079e+05,2161,349
Raw,3.85407469e+05,2162,349
Raw,3.11145454e+05,2163,349
Raw,4.01846927e+05,2164,349
Raw,5.10669952e+05,2165,349
Raw,4.49216669e+05,2166,349
Raw,4.11180527e+05,2167,349
Raw,4.75738027e+05,2168,349
Raw,1.74821368e+05,2168,349
Raw,3.84151362e+05,2169,349
Raw,4.13603576e+05,2170,349
Raw,3.40501865e+05,2171,349
Raw,5.28106479e+05,2172,349
Raw,3.89868931e+05,2173,349
Raw,3.1198533e+05,2174,349
Raw,1.44197553e+05,2174,349
Raw,2.17190867e+05,2175,349
Raw,4.57530168e+05,2176,349
