Cut?,Counts,eventNumber,runNumber
Raw,4.36631631e+05,4,325
Raw,4.51598543e+05,6,325
Raw,4.39233337e+05,9,325
Raw,4.60017035e+05,10,325
Raw,5.18773311e+05,11,325
Raw,6.0248251e+05,14,325
Raw,2.06721103e+05,15,325
Raw,5.01224488e+05,16,325
Raw,5.72312733e+05,18,325
Raw,4.9354111e+05,19,325
Raw,4.95510996e+05,21,325
Raw,3.96398859e+05,26,325
Raw,4.6284592e+05,27,325
Raw,4.37537647e+05,28,325
Raw,2.09463589e+05,31,325
Raw,4.5406168e+05,35,325
Raw,5.20560405e+05,36,325
Raw,5.04010868e+05,37,325
Raw,3.31760763e+05,38,325
Raw,6.05509204e+05,39,325
Raw,5.48678576e+05,40,325
Raw,5.05055304e+05,41,325
Raw,4.03080138e+05,43,325
Raw,1.36281344e+05,45,325
Raw,4.14519642e+05,46,325
Raw,5.24992101e+05,47,325
Raw,4.29200568e+05,49,325
Raw,9.72863151e+05,50,325
Raw,5.70490908e+05,54,325
Raw,1.39280717e+05,56,325
Raw,4.5734563e+05,59,325
Raw,1.80557084e+05,61,325
Raw,5.23678031e+05,68,325
Raw,4.79809504e+05,69,325
Raw,2.1334168e+05,77,325
Raw,5.68782103e+05,78,325
Raw,4.57923514e+05,79,325
Raw,1.7773389e+05,80,325
Raw,4.93474495e+05,83,325
Raw,4.45850863e+05,84,325
Raw,6.22410559e+05,86,325
Raw,6.49442227e+05,92,325
Raw,7.7368914e+05,95,325
Raw,4.2958238e+05,96,325
Raw,4.88384158e+05,98,325
Raw,4.2262888e+05,102,325
Raw,1.09564627e+05,103,325
Raw,4.37642896e+05,104,325
Raw,5.78593001e+05,105,325
Raw,4.36385263e+05,107,325
Raw,5.03167623e+05,108,325
Raw,5.0524663e+05,109,325
Raw,5.89431929e+05,110,325
Raw,5.48359954e+05,116,325
Raw,2.94147453e+05,120,325
Raw,3.84143951e+05,121,325
Raw,4.00602574e+05,124,325
Raw,17430.214,126,325
Raw,5.42537082e+05,128,325
Raw,6.42587943e+05,129,325
Raw,6.08826338e+05,130,325
Raw,1.84440533e+05,134,325
Raw,5.40126075e+05,137,325
Raw,4.58733815e+05,138,325
Raw,5.58116837e+05,143,325
Raw,4.98702945e+05,144,325
Raw,4.46698919e+05,145,325
Raw,5.51720467e+05,146,325
Raw,3.73725073e+05,148,325
Raw,5.15463842e+05,149,325
Raw,2.14355572e+05,152,325
Raw,2.04477389e+05,154,325
Raw,4.7440713e+05,155,325
Raw,5.59948568e+05,156,325
Raw,3.85579342e+05,157,325
Raw,5.78078624e+05,158,325
Raw,5.00548314e+05,159,325
Raw,4.68637525e+05,162,325
Raw,4.20499028e+05,164,325
Raw,3.53151107e+05,166,325
Raw,5.66458891e+05,167,325
Raw,4.82396235e+05,168,325
Raw,4.4126781e+05,170,325
Raw,4.66960426e+05,171,325
Raw,5.07654166e+05,172,325
Raw,4.44191033e+05,173,325
Raw,6.54005389e+05,174,325
Raw,6.29815166e+05,175,325
Raw,2.16454522e+05,177,325
Raw,4.09406398e+05,178,325
Raw,1.18350359e+05,178,325
Raw,23398.213,181,325
Raw,5.50576511e+05,182,325
Raw,3.47962902e+05,185,325
Raw,4.67262731e+05,186,325
Raw,87207.353,187,325
Raw,5.64720825e+05,188,325
Raw,4.73838218e+05,190,325
Raw,1.18372461e+05,191,325
Raw,2.59310378e+05,192,325
Raw,3.91149684e+05,193,325
Raw,5.86472386e+05,194,325
Raw,3.81942744e+05,196,325
Raw,5.00877404e+05,199,325
Raw,4.83745808e+05,200,325
Raw,4.7940052e+05,201,325
Raw,2.5056435e+05,203,325
Raw,8.59079241e+05,206,325
Raw,2.92589259e+05,208,325
Raw,5.08776567e+05,209,325
Raw,4.92628376e+05,211,325
Raw,3.44280962e+05,213,325
Raw,5.61712669e+05,215,325
Raw,2.83829702e+05,216,325
Raw,4.39238406e+05,217,325
Raw,1.87456674e+05,219,325
Raw,5.04735166e+05,220,325
Raw,8.6259779e+05,221,325
Raw,4.52447126e+05,224,325
Raw,5.66207287e+05,225,325
Raw,3.64819145e+05,226,325
Raw,4.91362336e+05,227,325
Raw,4.66936123e+05,235,325
Raw,5.57961462e+05,239,325
Raw,5.27937596e+05,242,325
Raw,1.55341974e+05,245,325
Raw,4.78061009e+05,246,325
Raw,90797.288,248,325
Raw,4.78756196e+05,249,325
Raw,1.74225245e+05,252,325
Raw,5.00656812e+05,253,325
Raw,5.83358661e+05,254,325
Raw,5.34499161e+05,256,325
Raw,3.21781996e+05,257,325
Raw,5.28944552e+05,258,325
Raw,4.8458939e+05,259,325
Raw,3.78465399e+05,261,325
Raw,2.01801616e+05,263,325
Raw,5.26155003e+05,266,325
Raw,4.30431924e+05,268,325
Raw,4.86092026e+05,270,325
Raw,4.41208694e+05,272,325
Raw,4.67768364e+05,274,325
Raw,6.88126302e+05,275,325
Raw,5.42524399e+05,279,325
Raw,5.17409153e+05,280,325
Raw,4.62917172e+05,281,325
Raw,5.51539274e+05,282,325
Raw,4.37609634e+05,284,325
Raw,5.94741654e+05,285,325
Raw,6.08882051e+05,287,325
Raw,4.94822194e+05,289,325
Raw,4.56101347e+05,290,325
Raw,4.74150509e+05,292,325
Raw,1.32859912e+05,294,325
Raw,5.65868759e+05,295,325
Raw,5.11045499e+05,298,325
Raw,3.50460225e+05,300,325
Raw,5.34874418e+05,303,325
Raw,4.55908966e+05,305,325
Raw,4.87808004e+05,309,325
Raw,2.92396054e+05,312,325
Raw,5.04178064e+05,313,325
Raw,5.509566e+05,314,325
Raw,4.97063567e+05,315,325
Raw,1.22777089e+05,317,325
Raw,4.19942143e+05,319,325
Raw,4.24325241e+05,321,325
Raw,4.70589072e+05,323,325
Raw,5.15724948e+05,324,325
Raw,88626.374,325,325
Raw,5.29233105e+05,327,325
Raw,4.23787796e+05,328,325
Raw,4.7977078e+05,329,325
Raw,5.03270273e+05,332,325
Raw,4.66243474e+05,337,325
Raw,5.24639791e+05,339,325
Raw,4.79285875e+05,341,325
Raw,3.28397071e+05,342,325
Raw,5.17258064e+05,343,325
Raw,5.33032417e+05,344,325
Raw,5.19469244e+05,345,325
Raw,3.21811409e+05,347,325
Raw,5.00305021e+05,354,325
Raw,3.98723933e+05,356,325
Raw,4.2050004e+05,358,325
Raw,5.2263082e+05,360,325
Raw,4.63321253e+05,361,325
Raw,4.5898773e+05,362,325
Raw,4.83358211e+05,363,325
Raw,2.78196248e+05,364,325
Raw,3.6623833e+05,365,325
Raw,5.32744018e+05,366,325
Raw,4.26561314e+05,367,325
Raw,4.9606519e+05,370,325
Raw,5.75731179e+05,372,325
Raw,1.85594918e+05,373,325
Raw,4.43329182e+05,374,325
Raw,3.56876886e+05,375,325
Raw,3.67919417e+05,376,325
Raw,5.89666334e+05,377,325
Raw,5.99356187e+05,378,325
Raw,4.68721856e+05,379,325
Raw,1.95917944e+05,380,325
Raw,5.92017679e+05,381,325
Raw,5.10430746e+05,383,325
Raw,2.09974776e+05,385,325
Raw,4.41426517e+05,390,325
Raw,5.31946362e+05,392,325
Raw,4.64597188e+05,393,325
Raw,4.93107287e+05,396,325
Raw,2.1001914e+05,398,325
Raw,4.67958687e+05,399,325
Raw,5.36226201e+05,400,325
Raw,4.90020773e+05,401,325
Raw,1.38371393e+05,403,325
Raw,1.43298103e+05,403,325
Raw,3.65769977e+05,407,325
Raw,5.64048812e+05,411,325
Raw,4.84128894e+05,413,325
Raw,3.73242478e+05,415,325
Raw,4.86856074e+05,419,325
Raw,4.76317471e+05,421,325
Raw,1.67314816e+05,422,325
Raw,4.90550232e+05,423,325
Raw,4.35650801e+05,424,325
Raw,4.83390294e+05,425,325
Raw,4.8618519e+05,425,325
Raw,5.09905283e+05,427,325
Raw,4.97332542e+05,428,325
Raw,4.24320205e+05,429,325
Raw,5.49604974e+05,430,325
Raw,5.05211733e+05,431,325
Raw,3.21352345e+05,435,325
Raw,3.40600249e+05,436,325
Raw,5.48923334e+05,438,325
Raw,3.8924142e+05,439,325
Raw,1.23820705e+05,439,325
Raw,3.53926839e+05,440,325
Raw,2.7035295e+05,449,325
Raw,1.89650301e+05,450,325
Raw,5.51447004e+05,451,325
Raw,5.52020461e+05,452,325
Raw,5.56340037e+05,453,325
Raw,3.26706009e+05,454,325
Raw,5.39960566e+05,455,325
Raw,1.45789731e+05,456,325
Raw,3.99493184e+05,458,325
Raw,2.08670062e+05,461,325
Raw,2.23855984e+05,462,325
Raw,5.04222674e+05,463,325
Raw,3.75978235e+05,464,325
Raw,1.89131073e+05,468,325
Raw,4.26228925e+05,469,325
Raw,3.38575793e+05,471,325
Raw,1.49011055e+05,472,325
Raw,3.70901238e+05,475,325
Raw,4.52881376e+05,481,325
Raw,5.01206086e+05,482,325
Raw,1.30851069e+05,482,325
Raw,4.61402304e+05,484,325
Raw,6.02575014e+05,486,325
Raw,1.17476113e+05,489,325
Raw,4.61017354e+05,490,325
Raw,3.78288833e+05,493,325
Raw,4.97922877e+05,495,325
Raw,52455.068,496,325
Raw,5.02953437e+05,499,325
Raw,2.2869591e+05,500,325
Raw,1.44080836e+05,501,325
Raw,5.06126002e+05,504,325
Raw,5.00910453e+05,505,325
Raw,4.56949206e+05,506,325
Raw,1.25884556e+05,507,325
Raw,3.68883539e+05,508,325
Raw,4.42126358e+05,513,325
Raw,5.53438297e+05,515,325
Raw,5.08486973e+05,516,325
Raw,5.86221594e+05,517,325
Raw,5.18809142e+05,518,325
Raw,2.30417431e+05,519,325
Raw,1.7860165e+05,521,325
Raw,1.61552288e+05,521,325
Raw,4.6246785e+05,524,325
Raw,4.6601217e+05,526,325
Raw,7.94760895e+05,527,325
Raw,5.07460315e+05,528,325
Raw,5.21855487e+05,532,325
Raw,9.93184622e+05,533,325
Raw,5.13568326e+05,534,325
Raw,4.45623273e+05,535,325
Raw,5.58873212e+05,537,325
Raw,5.9485893e+05,538,325
Raw,4.69639385e+05,539,325
Raw,5.04806711e+05,540,325
Raw,5.45999025e+05,543,325
Raw,4.47510366e+05,544,325
Raw,5.92354831e+05,551,325
Raw,4.7481447e+05,552,325
Raw,4.73684809e+05,554,325
Raw,5.01203577e+05,555,325
Raw,4.23453227e+05,556,325
Raw,1.36452221e+05,557,325
Raw,6.05430544e+05,558,325
Raw,2.55280061e+05,560,325
Raw,5.3189221e+05,561,325
Raw,4.84199835e+05,563,325
Raw,5.01293559e+05,566,325
Raw,4.79330391e+05,567,325
Raw,6.14932033e+05,568,325
Raw,1.39289866e+05,569,325
Raw,4.48874557e+05,570,325
Raw,11736.374,571,325
Raw,5.39699947e+05,572,325
Raw,5.82327544e+05,574,325
Raw,5.06838024e+05,575,325
Raw,4.94536602e+05,576,325
Raw,4.07656158e+05,578,325
Raw,5.20368062e+05,581,325
Raw,2.18839028e+05,586,325
Raw,1.92586054e+05,588,325
Raw,6.6121851e+05,589,325
Raw,4.76627897e+05,592,325
Raw,5.66229279e+05,596,325
Raw,5.50591018e+05,600,325
Raw,6.08344337e+05,601,325
Raw,5.67752255e+05,605,325
Raw,1.13037325e+05,609,325
Raw,3.09263831e+05,610,325
Raw,4.55133787e+05,612,325
Raw,4.64167581e+05,615,325
Raw,2.38150014e+05,616,325
Raw,2.13910036e+05,617,325
Raw,4.09051197e+05,618,325
Raw,1.7206916e+05,619,325
Raw,4.12272451e+05,620,325
Raw,36185.323,621,325
Raw,1.51419019e+05,624,325
Raw,4.30845143e+05,625,325
Raw,4.81036955e+05,626,325
Raw,3.77038534e+05,627,325
Raw,1.61270734e+05,629,325
Raw,4.74085159e+05,630,325
Raw,3.74378624e+05,633,325
Raw,2.42925299e+05,634,325
Raw,4.72391202e+05,637,325
Raw,4.70476361e+05,638,325
Raw,4.46522649e+05,639,325
Raw,4.636838e+05,643,325
Raw,2.10230841e+05,644,325
Raw,4.81266354e+05,646,325
Raw,4.38342024e+05,649,325
Raw,5.84731045e+05,650,325
Raw,5.19751831e+05,653,325
Raw,1.35449064e+05,654,325
Raw,5.33579329e+05,656,325
Raw,5.3177406e+05,658,325
Raw,3.73297672e+05,661,325
Raw,5.02509376e+05,664,325
Raw,4.52501758e+05,665,325
Raw,1.00318018e+05,665,325
Raw,1.65443427e+05,667,325
Raw,5.07020612e+05,668,325
Raw,1.50723893e+05,669,325
Raw,5.33542315e+05,670,325
Raw,4.04582025e+05,672,325
Raw,1.31639977e+05,673,325
Raw,2.04234672e+05,674,325
Raw,4.74113374e+05,675,325
Raw,5.11520312e+05,678,325
Raw,7.69794988e+05,679,325
Raw,4.89140539e+05,680,325
Raw,3.88996295e+05,681,325
Raw,4.16761808e+05,684,325
Raw,4.35696737e+05,685,325
Raw,4.90742261e+05,687,325
Raw,4.18655471e+05,688,325
Raw,5.96874387e+05,689,325
Raw,4.91589634e+05,690,325
Raw,5.13153655e+05,694,325
Raw,4.60118255e+05,695,325
Raw,4.31184121e+05,696,325
Raw,4.06386626e+05,703,325
Raw,4.17528328e+05,706,325
Raw,3.97348591e+05,710,325
Raw,2.68410283e+05,711,325
Raw,4.75568272e+05,714,325
Raw,4.99616315e+05,716,325
Raw,2.24548602e+05,718,325
Raw,5.26407966e+05,722,325
Raw,2.92593129e+05,723,325
Raw,4.70145803e+05,724,325
Raw,4.68143701e+05,726,325
Raw,4.64717311e+05,728,325
Raw,4.83261275e+05,729,325
Raw,5.01883113e+05,730,325
Raw,4.36354997e+05,735,325
Raw,4.51017424e+05,737,325
Raw,3.34461675e+05,738,325
Raw,5.32165382e+05,742,325
Raw,3.06742065e+05,743,325
Raw,4.44350842e+05,744,325
Raw,1.31618696e+05,745,325
Raw,5.82120107e+05,746,325
Raw,2.32107971e+05,747,325
Raw,4.88902427e+05,749,325
Raw,5.42965776e+05,752,325
Raw,4.4280098e+05,756,325
Raw,4.86861034e+05,757,325
Raw,5.32071755e+05,758,325
Raw,5.55277194e+05,760,325
Raw,1.20604131e+05,764,325
Raw,1.41122002e+05,765,325
Raw,3.57186917e+05,766,325
Raw,6.21700926e+05,767,325
Raw,4.69179192e+05,769,325
Raw,4.06418358e+05,775,325
Raw,4.18397225e+05,779,325
Raw,75050.683,780,325
Raw,5.20449894e+05,785,325
Raw,9.60476748e+05,788,325
Raw,4.62668294e+05,789,325
Raw,2.67411399e+05,794,325
Raw,5.2601968e+05,795,325
Raw,5.10319135e+05,797,325
Raw,4.32266744e+05,798,325
Raw,4.40932249e+05,799,325
Raw,3.00935024e+05,809,325
Raw,2.5139429e+05,810,325
Raw,1.44528859e+05,814,325
Raw,5.869375e+05,817,325
Raw,4.90791172e+05,819,325
Raw,52265.752,821,325
Raw,5.03148073e+05,822,325
Raw,2.88093884e+05,825,325
Raw,4.90832884e+05,829,325
Raw,3.00376509e+05,830,325
Raw,3.76461134e+05,831,325
Raw,4.1335193e+05,833,325
Raw,1.07006007e+06,835,325
Raw,2.05343432e+05,836,325
Raw,4.81202342e+05,837,325
Raw,4.65308324e+05,838,325
Raw,5.30692578e+05,840,325
Raw,3.82291805e+05,841,325
Raw,4.02638626e+05,845,325
Raw,5.60478497e+05,846,325
Raw,4.5571792e+05,847,325
Raw,1.96173813e+05,848,325
Raw,5.25351505e+05,850,325
Raw,4.24991336e+05,854,325
Raw,4.65439902e+05,855,325
Raw,5.17924969e+05,856,325
Raw,14727.712,856,325
Raw,4.30246578e+05,863,325
Raw,1.27728435e+05,863,325
Raw,4.88742767e+05,867,325
Raw,4.91638017e+05,868,325
Raw,4.09167363e+05,870,325
Raw,1.80909443e+05,872,325
Raw,4.8772978e+05,873,325
Raw,5.40478039e+05,875,325
Raw,5.83046304e+05,876,325
Raw,5.03714505e+05,877,325
Raw,5.11223294e+05,880,325
Raw,11455.191,883,325
Raw,7717.2967,883,325
Raw,4.61156906e+05,886,325
Raw,1.08744838e+05,891,325
Raw,5.16989158e+05,892,325
Raw,4.86705682e+05,894,325
Raw,4.10022086e+05,895,325
Raw,5.70784352e+05,896,325
Raw,4.28012334e+05,899,325
Raw,6.8661804e+05,900,325
Raw,2.8757561e+05,901,325
Raw,1.44792417e+05,903,325
Raw,5.87042739e+05,906,325
Raw,4.89970145e+05,907,325
Raw,1.72826934e+05,908,325
Raw,4.44367145e+05,909,325
Raw,4.82885849e+05,910,325
Raw,3.70736237e+05,914,325
Raw,3.67097827e+05,916,325
Raw,4.21736285e+05,917,325
Raw,4.73754393e+05,918,325
Raw,3.62268505e+05,920,325
Raw,1.37318449e+05,923,325
Raw,4.11385898e+05,927,325
Raw,4.88636762e+05,929,325
Raw,1.19909571e+05,930,325
Raw,9.49911292e+05,931,325
Raw,4.01384364e+05,933,325
Raw,5.61982955e+05,935,325
Raw,4.48516207e+05,938,325
Raw,4.59667891e+05,939,325
Raw,4.95068649e+05,942,325
Raw,5.23237022e+05,948,325
Raw,5.91490454e+05,949,325
Raw,1.27647893e+05,950,325
Raw,4.71144394e+05,952,325
Raw,3.49329786e+05,953,325
Raw,5.37015246e+05,954,325
Raw,5.60347133e+05,955,325
Raw,5.17082549e+05,956,325
Raw,5.12687194e+05,957,325
Raw,4.64923127e+05,958,325
Raw,5.04062743e+05,960,325
Raw,3.86780334e+05,962,325
Raw,5.04464515e+05,963,325
Raw,5.63806326e+05,965,325
Raw,5.79162334e+05,966,325
Raw,5.1705658e+05,970,325
Raw,3.86874498e+05,971,325
Raw,4.06793905e+05,975,325
Raw,2.89949172e+05,977,325
Raw,5.3489913e+05,978,325
Raw,5.32571072e+05,979,325
Raw,4.38098091e+05,980,325
Raw,1.46535439e+05,981,325
Raw,5.34305029e+05,983,325
Raw,16860.077,984,325
Raw,3.86316073e+05,992,325
Raw,4.33153211e+05,994,325
Raw,4.34827536e+05,996,325
Raw,5.13761207e+05,997,325
Raw,1.63426175e+05,998,325
Raw,4.97322173e+05,999,325
Raw,5.21975771e+05,1003,325
Raw,4.69980682e+05,1010,325
Raw,2.04179923e+05,1020,325
Raw,5.13979338e+05,1021,325
Raw,2.04781297e+05,1023,325
Raw,2.94988975e+05,1024,325
Raw,3.97422148e+05,1030,325
Raw,2.97757239e+05,1031,325
Raw,3.88338492e+05,1035,325
Raw,1.38524646e+05,1037,325
Raw,4.69682334e+05,1038,325
Raw,1.54205562e+05,1039,325
Raw,90483.112,1040,325
Raw,5.11164277e+05,1041,325
Raw,1.42706929e+05,1042,325
Raw,1.20008015e+05,1043,325
Raw,4.30191236e+05,1044,325
Raw,3.91107025e+05,1046,325
Raw,5.20243011e+05,1047,325
Raw,5.29419886e+05,1048,325
Raw,4.61259563e+05,1049,325
Raw,3.22500789e+05,1049,325
Raw,5.54228899e+05,1051,325
Raw,3.15676517e+05,1053,325
Raw,4.84451603e+05,1054,325
Raw,4.80063776e+05,1055,325
Raw,2.54816495e+05,1056,325
Raw,3.83131018e+05,1057,325
Raw,5.15214741e+05,1058,325
Raw,3.79818637e+05,1059,325
Raw,2.73777682e+05,1059,325
Raw,3.25781391e+05,1061,325
Raw,4.72124028e+05,1063,325
Raw,4.31066948e+05,1066,325
Raw,2.56134483e+05,1067,325
Raw,3.00963584e+05,1069,325
Raw,5.04510285e+05,1071,325
Raw,5.54631629e+05,1072,325
Raw,3.66264553e+05,1073,325
Raw,57769.992,1073,325
Raw,2.86845319e+05,1074,325
Raw,5.39986193e+05,1075,325
Raw,5.31620135e+05,1079,325
Raw,2.75537754e+05,1081,325
Raw,4.15830429e+05,1082,325
Raw,4.89588191e+05,1085,325
Raw,5.74854607e+05,1086,325
Raw,4.79935833e+05,1088,325
Raw,4.68985242e+05,1095,325
Raw,5.52296366e+05,1097,325
Raw,87847.974,1099,325
Raw,4.5772905e+05,1100,325
Raw,1.88245821e+05,1104,325
Raw,5.16250522e+05,1108,325
Raw,4.91864736e+05,1110,325
Raw,4.82719474e+05,1111,325
Raw,6.02778086e+05,1112,325
Raw,3.58988663e+05,1115,325
Raw,3.37242571e+05,1116,325
Raw,4.58752118e+05,1117,325
Raw,4.95042387e+05,1118,325
Raw,2.02649005e+05,1121,325
Raw,2.57460744e+05,1122,325
Raw,4.89312478e+05,1124,325
Raw,4.95692575e+05,1125,325
Raw,5.08321248e+05,1126,325
Raw,4.16471698e+05,1129,325
Raw,4.08030091e+05,1131,325
Raw,5.79487064e+05,1132,325
Raw,7.42362402e+05,1133,325
Raw,4.07943902e+05,1134,325
Raw,96710.085,1135,325
Raw,3.44585127e+05,1136,325
Raw,84282.282,1137,325
Raw,4.70882499e+05,1140,325
Raw,4.4651171e+05,1141,325
Raw,4.45981861e+05,1143,325
Raw,3.85364023e+05,1145,325
Raw,70514.366,1148,325
Raw,3.44000361e+05,1150,325
Raw,4.1787751e+05,1157,325
Raw,3.57748238e+05,1162,325
Raw,3.02429853e+05,1163,325
Raw,4.07529817e+05,1164,325
Raw,5.42742895e+05,1165,325
Raw,4.59165019e+05,1166,325
Raw,3.97908092e+05,1167,325
Raw,97278.297,1168,325
Raw,4.0603219e+05,1169,325
Raw,4.64121231e+05,1171,325
Raw,5.25315409e+05,1172,325
Raw,4.31438998e+05,1173,325
Raw,2.96019966e+05,1174,325
Raw,2.3795719e+05,1178,325
Raw,5.23763469e+05,1180,325
Raw,1.756006e+05,1181,325
Raw,2.94553933e+05,1187,325
Raw,3.36065525e+05,1191,325
Raw,2.41582038e+05,1192,325
Raw,3.96153465e+05,1193,325
Raw,4.92939653e+05,1194,325
Raw,1.35859633e+05,1195,325
Raw,4.89036957e+05,1196,325
Raw,5.44728999e+05,1198,325
Raw,5.05459059e+05,1199,325
Raw,1.68912354e+05,1202,325
Raw,4.65920839e+05,1203,325
Raw,55892.1,1205,325
Raw,4.6878054e+05,1206,325
Raw,4.98705618e+05,1207,325
Raw,5.15960939e+05,1209,325
Raw,1.03857488e+05,1213,325
Raw,4.52899341e+05,1215,325
Raw,2.19360484e+05,1217,325
Raw,1.08380144e+05,1219,325
Raw,4.66202167e+05,1226,325
Raw,3.05204538e+05,1227,325
Raw,4.70723027e+05,1228,325
Raw,4.25662911e+05,1230,325
Raw,8.88246346e+05,1231,325
Raw,3.64031272e+05,1232,325
Raw,3.2528978e+05,1235,325
Raw,6.20092374e+05,1237,325
Raw,4.99682939e+05,1240,325
Raw,4.14712729e+05,1241,325
Raw,4.93252121e+05,1242,325
Raw,3.19583498e+05,1243,325
Raw,4.5290568e+05,1245,325
Raw,5.76127563e+05,1247,325
Raw,3.68650991e+05,1248,325
Raw,4.45986429e+05,1250,325
Raw,5.02601747e+05,1251,325
Raw,4.79907648e+05,1253,325
Raw,3.55778994e+05,1254,325
Raw,3.65925237e+05,1257,325
Raw,5.09230802e+05,1258,325
Raw,4.10186761e+05,1260,325
Raw,1.53426583e+05,1263,325
Raw,5.23194474e+05,1265,325
Raw,1.38693675e+05,1269,325
Raw,9.27995551e+05,1272,325
Raw,2.01898222e+05,1275,325
Raw,1.37685125e+05,1276,325
Raw,4.74542981e+05,1277,325
Raw,3.24098939e+05,1278,325
Raw,2.32691853e+05,1280,325
Raw,4.60260096e+05,1283,325
Raw,2.42416686e+05,1285,325
Raw,4.64554733e+05,1287,325
Raw,6.16122744e+05,1288,325
Raw,3.85934865e+05,1289,325
Raw,5.20585534e+05,1290,325
Raw,3.09082589e+05,1291,325
Raw,3.70168297e+05,1294,325
Raw,2.8720309e+05,1299,325
Raw,4.73826248e+05,1300,325
Raw,4.86663752e+05,1303,325
Raw,5.97105303e+05,1304,325
Raw,4.97953052e+05,1305,325
Raw,4.04639038e+05,1306,325
Raw,5.21446097e+05,1308,325
Raw,4.95827607e+05,1314,325
Raw,4.62667395e+05,1315,325
Raw,3.58347252e+05,1319,325
Raw,5.26340455e+05,1320,325
Raw,5.01989722e+05,1321,325
Raw,5.61516927e+05,1324,325
Raw,2.16371609e+05,1324,325
Raw,5.36416686e+05,1327,325
Raw,6.36202878e+05,1328,325
Raw,4.67303158e+05,1330,325
Raw,5.12926322e+05,1331,325
Raw,3.25432338e+05,1334,325
Raw,4.37000073e+05,1337,325
Raw,5.4595086e+05,1339,325
Raw,5.03779761e+05,1343,325
Raw,5.15063758e+05,1350,325
Raw,5.4682144e+05,1354,325
Raw,5.39161636e+05,1355,325
Raw,4.11838763e+05,1358,325
Raw,6.14948784e+05,1361,325
Raw,4.94362406e+05,1365,325
Raw,6.1400376e+05,1366,325
Raw,6.06155207e+05,1369,325
Raw,5.59477932e+05,1371,325
Raw,5.63366706e+05,1373,325
Raw,5.25495567e+05,1376,325
Raw,3.73679466e+05,1377,325
Raw,4.78504144e+05,1378,325
Raw,5.47102315e+05,1379,325
Raw,4.20719113e+05,1380,325
Raw,1.7097242e+05,1386,325
Raw,4.75329811e+05,1389,325
Raw,5.22950516e+05,1390,325
Raw,5.30473532e+05,1392,325
Raw,4.62155571e+05,1393,325
Raw,4.70348129e+05,1394,325
Raw,9.81109976e+05,1397,325
Raw,1.06796432e+05,1399,325
Raw,4.61513632e+05,1400,325
Raw,5.10440465e+05,1401,325
Raw,4.19354952e+05,1406,325
Raw,5.40462026e+05,1407,325
Raw,5.43735092e+05,1408,325
Raw,4.6799242e+05,1409,325
Raw,5.32132793e+05,1411,325
Raw,4.80895034e+05,1412,325
Raw,4.88757984e+05,1413,325
Raw,5.2686823e+05,1414,325
Raw,2.22228652e+05,1416,325
Raw,35868.742,1417,325
Raw,4.00256344e+05,1419,325
Raw,4.78513659e+05,1420,325
Raw,5.13875654e+05,1425,325
Raw,5.164841e+05,1427,325
Raw,3.67087551e+05,1428,325
Raw,5.11141545e+05,1429,325
Raw,3.33001582e+05,1433,325
Raw,32973.481,1436,325
Raw,9136.8286,1437,325
Raw,4.14099843e+05,1439,325
Raw,3.98715264e+05,1440,325
Raw,4.17387284e+05,1443,325
Raw,5.8352659e+05,1446,325
Raw,3.47029499e+05,1448,325
Raw,4.56728588e+05,1450,325
Raw,4.50757999e+05,1451,325
Raw,1.49110082e+05,1452,325
Raw,1.51320043e+05,1454,325
Raw,4.39696719e+05,1456,325
Raw,3.72592892e+05,1457,325
Raw,4.69767364e+05,1458,325
Raw,4.95003593e+05,1461,325
Raw,5.44122365e+05,1464,325
Raw,4.32765341e+05,1465,325
Raw,5.05218598e+05,1467,325
Raw,5.87566827e+05,1468,325
Raw,4.67625247e+05,1468,325
Raw,5.06064353e+05,1470,325
Raw,2.06305849e+05,1471,325
Raw,1.85650732e+05,1474,325
Raw,59610.437,1474,325
Raw,4.35540177e+05,1480,325
Raw,5.24750898e+05,1483,325
Raw,5.23934073e+05,1484,325
Raw,5.52156879e+05,1485,325
Raw,5.69880855e+05,1486,325
Raw,2.26111445e+05,1487,325
Raw,3.83093704e+05,1490,325
Raw,5.27851459e+05,1492,325
Raw,3.57306311e+05,1493,325
Raw,1.02481196e+05,1494,325
Raw,1.50726366e+05,1495,325
Raw,4.62652471e+05,1499,325
Raw,4.83939268e+05,1501,325
Raw,5.63199079e+05,1502,325
Raw,4.52151561e+05,1503,325
Raw,4.09382011e+05,1504,325
Raw,5.66089636e+05,1506,325
Raw,4.90348899e+05,1508,325
Raw,5.12596096e+05,1510,325
Raw,3.35561191e+05,1512,325
Raw,3.47967792e+05,1513,325
Raw,4.43391577e+05,1515,325
Raw,2.86504959e+05,1516,325
Raw,17018.024,1517,325
Raw,5.72106859e+05,1518,325
Raw,3.03677864e+05,1520,325
Raw,3.95739878e+05,1521,325
Raw,4.54706634e+05,1523,325
Raw,1.257509e+05,1525,325
Raw,3.48888125e+05,1525,325
Raw,4.47175999e+05,1526,325
Raw,3.04995018e+05,1527,325
Raw,3.58189204e+05,1532,325
Raw,6.14422039e+05,1534,325
Raw,3.25804049e+05,1535,325
Raw,4.64424139e+05,1536,325
Raw,4.37944681e+05,1541,325
Raw,3.19787691e+05,1545,325
Raw,4.66418242e+05,1546,325
Raw,2.92491622e+05,1547,325
Raw,3.58936433e+05,1548,325
Raw,3.70173016e+05,1550,325
Raw,4.00748391e+05,1551,325
Raw,3.46961497e+05,1552,325
Raw,5.30356246e+05,1553,325
Raw,1.35600644e+05,1554,325
Raw,5.95587752e+05,1558,325
Raw,2.96919151e+05,1560,325
Raw,5.48210143e+05,1561,325
Raw,1.52427892e+05,1565,325
Raw,4.71491728e+05,1566,325
Raw,3.59465362e+05,1568,325
Raw,2.84975378e+05,1569,325
Raw,4.19270136e+05,1570,325
Raw,4.87596777e+05,1571,325
Raw,3.40346064e+05,1576,325
Raw,1.98759204e+05,1577,325
Raw,1.06079787e+05,1580,325
Raw,4.46851041e+05,1581,325
Raw,4.74604621e+05,1585,325
Raw,4.4518461e+05,1586,325
Raw,4.00206041e+05,1587,325
Raw,5.4013745e+05,1588,325
Raw,6.0612454e+05,1591,325
Raw,1.88773461e+05,1592,325
Raw,4.27859385e+05,1594,325
Raw,5.47331756e+05,1595,325
Raw,4.56739934e+05,1599,325
Raw,4.55452159e+05,1600,325
Raw,1.61230323e+05,1604,325
Raw,4.90880237e+05,1607,325
Raw,4.70174668e+05,1609,325
Raw,4.73829863e+05,1611,325
Raw,4.51707668e+05,1612,325
Raw,5.13790102e+05,1613,325
Raw,4.24480878e+05,1614,325
Raw,5.22072895e+05,1617,325
Raw,4.61505619e+05,1621,325
Raw,3.90271287e+05,1622,325
Raw,2.51892351e+05,1623,325
Raw,4.76464268e+05,1626,325
Raw,45676.586,1627,325
Raw,2.96637962e+05,1628,325
Raw,5.02957086e+05,1629,325
Raw,5.55119204e+05,1630,325
Raw,4.59737164e+05,1632,325
Raw,4.78154744e+05,1633,325
Raw,2.81568722e+05,1637,325
Raw,5.16495091e+05,1638,325
Raw,6.19149507e+05,1639,325
Raw,2.50008652e+05,1641,325
Raw,5.37243585e+05,1645,325
Raw,1.9537541e+05,1646,325
Raw,46346.482,1646,325
Raw,3.60682483e+05,1649,325
Raw,4.7985685e+05,1655,325
Raw,3.74094085e+05,1656,325
Raw,2.98779637e+05,1658,325
Raw,4.93322678e+05,1660,325
Raw,5.62784802e+05,1661,325
Raw,4.47161909e+05,1662,325
Raw,5.20013361e+05,1663,325
Raw,5.38015941e+05,1664,325
Raw,4.55095379e+05,1665,325
Raw,4.45249158e+05,1670,325
Raw,5.47067389e+05,1671,325
Raw,4.25443911e+05,1672,325
Raw,1.73020254e+05,1674,325
Raw,4.18231206e+05,1675,325
Raw,4.81778888e+05,1677,325
Raw,8215.515,1678,325
Raw,17510.628,1678,325
Raw,4.65095939e+05,1680,325
Raw,1.70819877e+05,1681,325
Raw,2.06054622e+05,1683,325
Raw,1.43724173e+05,1686,325
Raw,1.75184113e+05,1688,325
Raw,8.39175213e+05,1689,325
Raw,4.67794497e+05,1691,325
Raw,3.68375427e+05,1692,325
Raw,5.22479457e+05,1693,325
Raw,55873.097,1693,325
Raw,2.34692869e+05,1695,325
Raw,1.19268139e+05,1696,325
Raw,5.08855589e+05,1697,325
Raw,1.75672406e+05,1698,325
Raw,2.01793227e+05,1699,325
Raw,1.30516504e+05,1702,325
Raw,4.77537701e+05,1703,325
Raw,4.43678949e+05,1705,325
Raw,4.79654468e+05,1710,325
Raw,77945.737,1711,325
Raw,4.38530555e+05,1712,325
Raw,2.98846078e+05,1715,325
Raw,5.58035589e+05,1718,325
Raw,5.87830564e+05,1720,325
Raw,7971.6814,1721,325
Raw,4.69077949e+05,1723,325
Raw,3.78890953e+05,1724,325
Raw,5.54347007e+05,1725,325
Raw,3.24224416e+05,1726,325
Raw,5.58036138e+05,1727,325
Raw,3.22897891e+05,1728,325
Raw,4.85779874e+05,1729,325
Raw,91771.962,1729,325
Raw,5.86816888e+05,1730,325
Raw,2.07469213e+05,1731,325
Raw,5.28545001e+05,1732,325
Raw,1.38975339e+05,1733,325
Raw,8.75499155e+05,1738,325
Raw,5.71716769e+05,1739,325
Raw,4.73927518e+05,1740,325
Raw,5.1016523e+05,1742,325
Raw,5.22141976e+05,1743,325
Raw,3.9279473e+05,1745,325
Raw,4.94257163e+05,1748,325
Raw,14807.738,1752,325
Raw,2.12576666e+05,1752,325
Raw,3.10104293e+05,1753,325
Raw,5.09137075e+05,1756,325
Raw,2.38160578e+05,1759,325
Raw,3.33432323e+05,1762,325
Raw,4.87078743e+05,1767,325
Raw,5.2790592e+05,1770,325
Raw,5.17141009e+05,1771,325
Raw,4.47826135e+05,1774,325
Raw,5.035198e+05,1780,325
Raw,5.88049463e+05,1781,325
Raw,2.75092777e+05,1783,325
Raw,3.70013083e+05,1784,325
Raw,1.48882781e+05,1785,325
Raw,4.02063594e+05,1789,325
Raw,4.26192178e+05,1790,325
Raw,5.30897975e+05,1791,325
Raw,4.81096426e+05,1793,325
Raw,3.25225544e+05,1794,325
Raw,4.68849582e+05,1795,325
Raw,4.89079669e+05,1797,325
Raw,5.17977377e+05,1798,325
Raw,3.65928187e+05,1800,325
Raw,5.29255188e+05,1801,325
Raw,4.67293372e+05,1802,325
Raw,3.48106921e+05,1804,325
Raw,4.69144511e+05,1805,325
Raw,4.97735656e+05,1806,325
Raw,64664.203,1807,325
Raw,3.49301392e+05,1810,325
Raw,5.16713595e+05,1811,325
Raw,4.29052755e+05,1812,325
Raw,5.24295217e+05,1816,325
Raw,4.25378949e+05,1817,325
Raw,5.60127719e+05,1818,325
Raw,4.19535545e+05,1819,325
Raw,7.43136994e+05,1820,325
Raw,4.95964737e+05,1823,325
Raw,5.56184902e+05,1824,325
Raw,4.82182396e+05,1827,325
Raw,1.38272974e+05,1829,325
Raw,5.70591139e+05,1831,325
Raw,4.64713375e+05,1834,325
Raw,4.12299281e+05,1836,325
Raw,3.95259133e+05,1842,325
Raw,5.26259487e+05,1843,325
Raw,3.81028535e+05,1844,325
Raw,4.61193026e+05,1845,325
Raw,4.82829121e+05,1849,325
Raw,5.08352764e+05,1850,325
Raw,5.26900708e+05,1852,325
Raw,4.41997339e+05,1854,325
Raw,2.55664403e+05,1861,325
Raw,4.99221728e+05,1862,325
Raw,5.10269801e+05,1864,325
Raw,4.58374028e+05,1865,325
Raw,4.87574971e+05,1866,325
Raw,5.62029104e+05,1868,325
Raw,6.80105644e+05,1869,325
Raw,3.85291083e+05,1871,325
Raw,4.87989444e+05,1874,325
Raw,5.38331001e+05,1875,325
Raw,3.10663041e+05,1877,325
Raw,1.49574881e+05,1879,325
Raw,3.56966058e+05,1880,325
Raw,2.9901826e+05,1882,325
Raw,5.41526311e+05,1883,325
Raw,2.70510396e+05,1884,325
Raw,5.35941188e+05,1886,325
Raw,6.7984591e+05,1887,325
Raw,4.14969119e+05,1889,325
Raw,4.4020638e+05,1890,325
Raw,4.04300729e+05,1891,325
Raw,4.88578435e+05,1893,325
Raw,3.26361816e+05,1896,325
Raw,3.48032919e+05,1898,325
Raw,3.25757297e+05,1899,325
Raw,4.05635317e+05,1900,325
Raw,2.20940842e+05,1901,325
Raw,5.00544454e+05,1902,325
Raw,2.21969781e+05,1904,325
Raw,5.81785236e+05,1905,325
Raw,5.76387735e+05,1910,325
Raw,1.59410773e+05,1911,325
Raw,3.72744179e+05,1912,325
Raw,2.58856649e+05,1915,325
Raw,5.20583793e+05,1916,325
Raw,27766.029,1917,325
Raw,3.05221047e+05,1918,325
Raw,4.82398856e+05,1920,325
Raw,5.89818589e+05,1921,325
Raw,4.66697267e+05,1923,325
Raw,2.30567977e+05,1925,325
Raw,4.89047728e+05,1926,325
Raw,3.72579627e+05,1927,325
Raw,4.26265281e+05,1928,325
Raw,4.70220314e+05,1929,325
Raw,4.53921451e+05,1930,325
Raw,1.37465472e+05,1932,325
Raw,4.35029365e+05,1933,325
Raw,4.45584795e+05,1935,325
Raw,4.57207177e+05,1936,325
Raw,4.22331414e+05,1937,325
Raw,3.42766274e+05,1938,325
Raw,5.12926311e+05,1939,325
Raw,4.72913719e+05,1940,325
Raw,5.36787222e+05,1941,325
Raw,5.80762202e+05,1942,325
Raw,4.98020827e+05,1944,325
Raw,4.52553435e+05,1945,325
Raw,4.61309109e+05,1950,325
Raw,5.24961629e+05,1951,325
Raw,1.18798549e+05,1951,325
Raw,4.91631653e+05,1958,325
Raw,4.73734479e+05,1960,325
Raw,5.23383164e+05,1961,325
Raw,5.27897956e+05,1962,325
Raw,4.17583439e+05,1967,325
Raw,4.57443475e+05,1968,325
Raw,4.42904587e+05,1969,325
Raw,3.93057563e+05,1970,325
Raw,3.26168731e+05,1972,325
Raw,4.76893286e+05,1973,325
Raw,1.74953624e+05,1974,325
Raw,4.07765317e+05,1975,325
Raw,4.82528151e+05,1976,325
Raw,3.3423785e+05,1977,325
Raw,4.96755228e+05,1979,325
Raw,4.72755199e+05,1980,325
Raw,4.34940132e+05,1981,325
Raw,5.01678296e+05,1982,325
Raw,2.64627762e+05,1983,325
Raw,2.1658597e+05,1991,325
Raw,4.81595546e+05,1993,325
Raw,5.157769e+05,1994,325
Raw,4.71487358e+05,1995,325
Raw,61072.315,1997,325
Raw,3.06762493e+05,2000,325
Raw,3.86327547e+05,2001,325
Raw,8.55648973e+05,2002,325
Raw,4.324504e+05,2007,325
Raw,4.11903048e+05,2012,325
Raw,1.60503027e+05,2016,325
Raw,4.20758472e+05,2017,325
Raw,2.51056772e+05,2020,325
Raw,3.72992747e+05,2022,325
Raw,4.7421491e+05,2023,325
Raw,5.06557006e+05,2025,325
Raw,1.70315674e+05,2026,325
Raw,4.30290124e+05,2032,325
Raw,5.4897036e+05,2037,325
Raw,4.74317801e+05,2040,325
Raw,4.72488073e+05,2041,325
Raw,4.35013298e+05,2042,325
Raw,5.87613522e+05,2043,325
Raw,4.53327236e+05,2044,325
Raw,1.86481448e+05,2046,325
Raw,5.86465448e+05,2047,325
Raw,1.27915645e+05,2048,325
Raw,2.0137295e+05,2049,325
Raw,3.92266308e+05,2053,325
Raw,5.29508202e+05,2054,325
Raw,4.8839467e+05,2055,325
Raw,4.33503686e+05,2058,325
Raw,3.98218034e+05,2062,325
Raw,1.08058321e+05,2062,325
Raw,5.31441591e+05,2063,325
Raw,4.36406992e+05,2067,325
Raw,4.9160531e+05,2069,325
Raw,5.35272308e+05,2070,325
Raw,8.07753855e+05,2072,325
Raw,4.94358088e+05,2075,325
Raw,6.29047812e+05,2076,325
Raw,4.60372864e+05,2077,325
Raw,5.51714784e+05,2078,325
Raw,4.96611762e+05,2079,325
Raw,4.3560315e+05,2083,325
Raw,5.44724679e+05,2084,325
Raw,5.00113747e+05,2085,325
Raw,5.2939195e+05,2087,325
Raw,5.72619407e+05,2089,325
Raw,5.43261113e+05,2093,325
Raw,3.7759793e+05,2095,325
Raw,4.20199479e+05,2098,325
Raw,5.97030405e+05,2100,325
Raw,4.40420987e+05,2101,325
Raw,3.20515083e+05,2102,325
Raw,90865.363,2103,325
Raw,4.81590933e+05,2104,325
Raw,6.0037445e+05,2105,325
Raw,5.2723951e+05,2106,325
Raw,4.69525841e+05,2108,325
Raw,5.09206984e+05,2113,325
Raw,4.4762143e+05,2115,325
Raw,5.99152592e+05,2118,325
Raw,4.6694459e+05,2119,325
Raw,5.20442893e+05,2120,325
Raw,1.96383738e+05,2121,325
Raw,5.43711492e+05,2122,325
Raw,3.03315536e+05,2125,325
Raw,4.68850675e+05,2127,325
Raw,2.0886837e+05,2130,325
Raw,2.22696362e+05,2132,325
Raw,3.68412253e+05,2133,325
Raw,1.18518183e+06,2135,325
Raw,2.10431229e+05,2136,325
Raw,4.73300102e+05,2137,325
Raw,2.34913401e+05,2139,325
Raw,4.69158203e+05,2140,325
Raw,3.8396646e+05,2141,325
Raw,4.66089541e+05,2142,325
Raw,1.00068657e+06,2144,325
Raw,5.34841414e+05,2146,325
Raw,6.80732335e+05,2149,325
Raw,6.27310627e+05,2150,325
Raw,5.00379247e+05,2153,325
Raw,3.5931101e+05,2154,325
Raw,1.69399003e+05,2158,325
Raw,4.33057218e+05,2163,325
Raw,79391.49,2164,325
Raw,3.45064925e+05,2166,325
Raw,2.72366313e+05,2167,325
Raw,4.67769277e+05,2169,325
Raw,4.31938276e+05,2170,325
Raw,2.48126828e+05,2172,325
Raw,5.2407564e+05,2173,325
Raw,4.97645923e+05,2174,325
Raw,5.55922994e+05,2176,325
Raw,4.12592191e+05,2178,325
Raw,4.83608241e+05,2181,325
Raw,4.77818996e+05,2184,325
Raw,5.21335153e+05,2185,325
Raw,3.46319282e+05,2187,325
Raw,2.49976593e+05,2189,325
Raw,4.78302444e+05,2191,325
Raw,6.41664708e+05,2194,325
Raw,5.19233624e+05,2195,325
Raw,1.93860869e+05,2198,325
Raw,4.79830295e+05,2199,325
Raw,4.49645154e+05,2202,325
Raw,5.22290451e+05,2203,325
Raw,4.86214891e+05,2204,325
Raw,2.75907795e+05,2205,325
Raw,4.71238556e+05,2206,325
Raw,3.55189091e+05,2207,325
Raw,1.38963954e+05,2208,325
Raw,5.4318041e+05,2211,325
Raw,4.9020875e+05,2212,325
Raw,5.48392776e+05,2215,325
Raw,4.66296854e+05,2216,325
Raw,4.10652001e+05,2217,325
Raw,5.83581175e+05,2218,325
Raw,5.58390947e+05,2220,325
Raw,5.41638785e+05,2222,325
Raw,2.85085371e+05,2224,325
Raw,4.51290451e+05,2227,325
Raw,3.48621066e+05,2228,325
Raw,4.72155511e+05,2231,325
Raw,6.83407772e+05,2232,325
Raw,5.34050357e+05,2233,325
Raw,4.67594773e+05,2234,325
Raw,4.04383681e+05,2238,325
Raw,4.90317402e+05,2239,325
Raw,5.76363197e+05,2241,325
Raw,5.49346976e+05,2245,325
Raw,6.25585092e+05,2247,325
Raw,2.11189451e+05,2250,325
Raw,6.02614281e+05,2251,325
Raw,3.26542934e+05,2252,325
Raw,5.75188422e+05,2253,325
Raw,4.66219438e+05,2256,325
Raw,4.77164917e+05,2257,325
Raw,53495.707,2258,325
Raw,5320.6119,2259,325
Raw,4.36127807e+05,2260,325
Raw,5.96501698e+05,2261,325
Raw,5.31681226e+05,2264,325
Raw,16217.214,2266,325
Raw,4.71462153e+05,2268,325
Raw,4.26416557e+05,2270,325
Raw,5.75115442e+05,2271,325
Raw,5.68900379e+05,2272,325
Raw,1.51174521e+05,2275,325
Raw,4.76802729e+05,2276,325
Raw,4.11042211e+05,2277,325
Raw,1.51702432e+05,2282,325
Raw,4.02212782e+05,2285,325
Raw,3.96208938e+05,2287,325
Raw,1.25893061e+06,2288,325
Raw,2.87678293e+05,2288,325
Raw,4.23988778e+05,2289,325
Raw,4.98045577e+05,2291,325
Raw,5.80958083e+05,2300,325
Raw,5.44324319e+05,2303,325
Raw,1.28207647e+05,2305,325
Raw,4.4319246e+05,2311,325
Raw,1.02561701e+05,2313,325
Raw,4.94677082e+05,2316,325
Raw,3.9998053e+05,2319,325
Raw,1.82524339e+05,2320,325
Raw,5.4439403e+05,2322,325
Raw,5.48563774e+05,2324,325
Raw,5.48496941e+05,2325,325
Raw,5.52062152e+05,2326,325
Raw,5.63646592e+05,2327,325
Raw,5.79292829e+05,2329,325
Raw,5.24585518e+05,2330,325
Raw,1.61155914e+05,2331,325
Raw,4.65713116e+05,2333,325
Raw,5.67685183e+05,2334,325
Raw,1.57033814e+05,2339,325
Raw,2.57835641e+05,2344,325
Raw,4.86197137e+05,2346,325
Raw,4.66561996e+05,2348,325
Raw,4.66516196e+05,2349,325
Raw,5.18500503e+05,2351,325
Raw,4.32800772e+05,2352,325
Raw,5.34364357e+05,2353,325
Raw,1.63656366e+05,2356,325
Raw,1.48766643e+05,2357,325
Raw,5.40318664e+05,2358,325
Raw,4.7506244e+05,2362,325
Raw,3.96721416e+05,2364,325
Raw,3.73780313e+05,2366,325
Raw,4.04229037e+05,2371,325
Raw,3.65076072e+05,2380,325
Raw,3.57724879e+05,2383,325
Raw,5.6619516e+05,2386,325
Raw,4.25408847e+05,2389,325
Raw,4.76412933e+05,2400,325
Raw,5.25539073e+05,2403,325
Raw,5.11225655e+05,2404,325
Raw,4.77381679e+05,2405,325
Raw,4.84206706e+05,2406,325
Raw,3.30976692e+05,2408,325
Raw,4.6236081e+05,2409,325
Raw,5.2383547e+05,2412,325
Raw,1.5967288e+05,2415,325
Raw,4.00100497e+05,2416,325
Raw,2.89221649e+05,2417,325
Raw,1.77786277e+05,2418,325
Raw,4.36715249e+05,2419,325
Raw,1.46205717e+05,2420,325
Raw,5.17400918e+05,2422,325
Raw,3.89548588e+05,2423,325
Raw,4.79655718e+05,2424,325
Raw,3.55252932e+05,2425,325
Raw,4.97373114e+05,2426,325
Raw,1.2749408e+05,2428,325
Raw,5.877728e+05,2429,325
Raw,4.74435009e+05,2431,325
Raw,4.64021885e+05,2435,325
Raw,4.70382856e+05,2436,325
Raw,3.5321483e+05,2437,325
Raw,3.26134844e+05,2438,325
Raw,3.61670624e+05,2439,325
Raw,4.79226028e+05,2440,325
Raw,4.48524529e+05,2441,325
Raw,46406.592,2442,325
Raw,3.77226551e+05,2446,325
Raw,3.09313968e+05,2448,325
Raw,5.54565783e+05,2450,325
Raw,4.1690996e+05,2451,325
Raw,1.4400381e+05,2455,325
Raw,4.87347298e+05,2456,325
Raw,5.34439606e+05,2457,325
Raw,3.1805996e+05,2458,325
Raw,4.7822567e+05,2459,325
Raw,3.01255716e+05,2461,325
Raw,3.57079871e+05,2462,325
Raw,4.48827175e+05,2463,325
Raw,2.01776075e+05,2464,325
Raw,77581.42,2465,325
Raw,3.25147429e+05,2467,325
Raw,4.74283647e+05,2468,325
Raw,4.83249466e+05,2471,325
Raw,4.71867313e+05,2475,325
Raw,3.92458603e+05,2477,325
Raw,2.66524012e+05,2478,325
Raw,4.12545013e+05,2481,325
Raw,5.65420934e+05,2482,325
Raw,1.73882759e+05,2485,325
Raw,49776.324,2486,325
Raw,3.98886368e+05,2488,325
Raw,4.14044806e+05,2489,325
Raw,5.3918561e+05,2490,325
Raw,3.47861146e+05,2491,325
Raw,5.33106479e+05,2492,325
Raw,4.87449939e+05,2493,325
Raw,3.82604739e+05,2494,325
Raw,4.60337781e+05,2495,325
Raw,3.97885208e+05,2496,325
Raw,3.61381423e+05,2497,325
Raw,4.32170368e+05,2498,325
Raw,1.13276268e+05,2499,325
Raw,20437.969,2501,325
Raw,3.47173907e+05,2501,325
Raw,5.59980064e+05,2502,325
Raw,1.75486998e+05,2504,325
Raw,64535.023,2505,325
Raw,4.9307342e+05,2506,325
Raw,3.4539146e+05,2507,325
Raw,1.52732257e+05,2509,325
Raw,2.07333048e+05,2510,325
Raw,5.29910575e+05,2513,325
Raw,4.2057021e+05,2514,325
Raw,4.9377488e+05,2515,325
Raw,5.98959351e+05,2518,325
Raw,4.16588915e+05,2520,325
Raw,5.09955676e+05,2521,325
Raw,4.40664158e+05,2524,325
Raw,74850.362,2526,325
Raw,4.42845254e+05,2529,325
Raw,5.05786561e+05,2530,325
Raw,4.63111325e+05,2539,325
Raw,5.2859159e+05,2543,325
Raw,4.96137211e+05,2544,325
Raw,3.8140246e+05,2545,325
Raw,5.85656501e+05,2546,325
Raw,1.06813242e+05,2547,325
Raw,3.64993154e+05,2549,325
Raw,5.65490967e+05,2550,325
Raw,4.90845244e+05,2551,325
Raw,5.59779244e+05,2552,325
Raw,4.73154488e+05,2555,325
Raw,4.10128763e+05,2556,325
Raw,4.68915606e+05,2557,325
Raw,5.79783205e+05,2559,325
Raw,4.76240653e+05,2564,325
Raw,4.76587205e+05,2566,325
Raw,2.71896776e+05,2567,325
Raw,4.77565988e+05,2572,325
Raw,4.33192692e+05,2573,325
Raw,4.36585057e+05,2574,325
Raw,4.52173022e+05,2577,325
Raw,4.30481685e+05,2580,325
Raw,4.4417893e+05,2581,325
Raw,4.68347165e+05,2583,325
Raw,9.85859595e+05,2584,325
Raw,4.11018748e+05,2587,325
Raw,4.28103657e+05,2588,325
Raw,4.28904424e+05,2589,325
Raw,3.06044234e+05,2594,325
Raw,4.0863083e+05,2595,325
Raw,3.25764258e+05,2596,325
Raw,6.57906587e+05,2602,325
Raw,4.62042048e+05,2603,325
Raw,1.94525392e+05,2605,325
Raw,4.17673685e+05,2608,325
Raw,3.46274106e+05,2609,325
Raw,5.55500611e+05,2610,325
Raw,5.34970789e+05,2613,325
Raw,1.85301988e+05,2614,325
Raw,5.85793993e+05,2616,325
Raw,3.05520592e+05,2617,325
Raw,3.34243823e+05,2618,325
Raw,4.75641685e+05,2621,325
Raw,3.52767597e+05,2622,325
Raw,4.58658653e+05,2625,325
Raw,4.79547274e+05,2626,325
Raw,4.90703875e+05,2628,325
Raw,5.19081872e+05,2634,325
Raw,2.33510692e+05,2635,325
Raw,3.95155247e+05,2637,325
Raw,4.71476669e+05,2638,325
Raw,4.60244001e+05,2642,325
Raw,1.59576434e+05,2645,325
Raw,4.65812697e+05,2647,325
Raw,4.96484332e+05,2648,325
Raw,4.93906395e+05,2650,325
Raw,3.48934344e+05,2653,325
Raw,3.43727251e+05,2654,325
Raw,4.58603009e+05,2656,325
Raw,5.39079039e+05,2659,325
Raw,5.16151171e+05,2660,325
Raw,4.28308198e+05,2661,325
Raw,4.9432314e+05,2662,325
Raw,4.46928379e+05,2663,325
Raw,4.65815921e+05,2666,325
Raw,2.39270221e+05,2667,325
Raw,4.3199873e+05,2668,325
Raw,4.00396017e+05,2670,325
Raw,5.6435015e+05,2671,325
Raw,1.44767573e+05,2673,325
Raw,4.55369292e+05,2675,325
Raw,2.54331741e+05,2678,325
Raw,3.36390506e+05,2680,325
Raw,4.9492035e+05,2684,325
Raw,4.61757432e+05,2686,325
Raw,4.77260469e+05,2687,325
Raw,5.91113481e+05,2688,325
Raw,5.31142217e+05,2693,325
Raw,3.08108301e+05,2693,325
Raw,5.40228598e+05,2695,325
Raw,5.1063153e+05,2696,325
Raw,4.96570757e+05,2699,325
Raw,4.55217777e+05,2700,325
Raw,5.2214199e+05,2702,325
Raw,5.85168466e+05,2705,325
Raw,6.30381491e+05,2706,325
Raw,5.48410038e+05,2709,325
Raw,3.19068727e+05,2710,325
Raw,4.34777684e+05,2713,325
Raw,4.56229464e+05,2714,325
Raw,4.25207338e+05,2715,325
Raw,4.12504951e+05,2717,325
Raw,4.97464281e+05,2718,325
Raw,1.66757607e+05,2720,325
Raw,4.57350762e+05,2721,325
Raw,4.98312671e+05,2726,325
Raw,2.13506737e+05,2727,325
Raw,1.97480575e+05,2731,325
Raw,3.68996211e+05,2732,325
Raw,2.8723927e+05,2737,325
Raw,55187.498,2739,325
Raw,1.67106224e+05,2741,325
Raw,4.76015151e+05,2743,325
Raw,3.18200309e+05,2744,325
Raw,5.44819282e+05,2745,325
Raw,3.95170927e+05,2749,325
Raw,4.91510447e+05,2752,325
Raw,4.8831538e+05,2753,325
Raw,5.75954965e+05,2754,325
Raw,1.49763281e+05,2755,325
Raw,5.11761761e+05,2777,325
Raw,4.00600602e+05,2780,325
Raw,4.09230507e+05,2782,325
Raw,1.78163553e+05,2784,325
Raw,3.99887652e+05,2785,325
Raw,3.71378963e+05,2791,325
Raw,1.76143407e+05,2792,325
Raw,5.59808981e+05,2793,325
Raw,4.81055137e+05,2794,325
Raw,4.98034842e+05,2795,325
Raw,5.61253223e+05,2797,325
Raw,5.21321521e+05,2799,325
Raw,4.79203614e+05,2800,325
Raw,4.56683301e+05,2802,325
Raw,5.5860681e+05,2803,325
Raw,5.05166674e+05,2805,325
Raw,5.27974571e+05,2806,325
Raw,4.30815311e+05,2810,325
Raw,4.5409308e+05,2813,325
Raw,4.84734501e+05,2814,325
Raw,1.70379514e+05,2815,325
Raw,1.29732396e+06,2817,325
Raw,4.80305292e+05,2818,325
Raw,5.4001505e+05,2819,325
Raw,4.15263948e+05,2823,325
Raw,6.11434368e+05,2824,325
Raw,6977.407,2827,325
Raw,3.35195774e+05,2829,325
Raw,6.15608053e+05,2833,325
Raw,4.25937565e+05,2834,325
Raw,4.491977e+05,2835,325
Raw,5.63438062e+05,2836,325
Raw,3.8927876e+05,2837,325
Raw,4.95940922e+05,2838,325
Raw,4.23431846e+05,2840,325
Raw,3.22711173e+05,2841,325
Raw,2.280726e+05,2843,325
Raw,4.67780281e+05,2848,325
Raw,5.20183715e+05,2849,325
Raw,5.45637727e+05,2851,325
Raw,8.69074807e+05,2852,325
Raw,2.81086154e+05,2854,325
Raw,1.60875261e+05,2855,325
Raw,4.54758813e+05,2856,325
Raw,4.50361589e+05,2859,325
Raw,4.04041151e+05,2860,325
Raw,5.03106669e+05,2861,325
Raw,5.07563373e+05,2862,325
Raw,5.3660679e+05,2865,325
Raw,3.84900761e+05,2866,325
Raw,5.05489286e+05,2868,325
Raw,3.94794396e+05,2870,325
Raw,4.40052233e+05,2871,325
Raw,4.43426022e+05,2872,325
Raw,4.71451139e+05,2874,325
Raw,5.44058148e+05,2875,325
Raw,23610.846,2877,325
Raw,3.96986674e+05,2878,325
Raw,4.1351919e+05,2882,325
Raw,2.43480277e+05,2884,325
Raw,3.93035174e+05,2886,325
Raw,5.46207583e+05,2887,325
Raw,4.70072475e+05,2889,325
Raw,4.12780857e+05,2892,325
Raw,1.54336671e+05,2893,325
Raw,3.29103382e+05,2893,325
Raw,4.45374748e+05,2896,325
Raw,3.65262788e+05,2898,325
Raw,4.94017472e+05,2899,325
Raw,4.32398551e+05,2902,325
Raw,4.68981414e+05,2903,325
Raw,5.40555966e+05,2904,325
Raw,4.85211624e+05,2908,325
Raw,5.2219962e+05,2909,325
Raw,5.24572238e+05,2912,325
Raw,6.65127939e+05,2915,325
Raw,5.2426566e+05,2916,325
Raw,4.8078285e+05,2922,325
Raw,5.04011626e+05,2923,325
Raw,4.42380694e+05,2927,325
Raw,4.06770702e+05,2928,325
Raw,4.47241642e+05,2932,325
Raw,3.999938e+05,2933,325
Raw,3.73938783e+05,2934,325
Raw,4.57432733e+05,2935,325
Raw,3.39142685e+05,2935,325
Raw,4.79233879e+05,2937,325
Raw,4.58816393e+05,2938,325
Raw,5.15076472e+05,2939,325
Raw,5.03357332e+05,2942,325
Raw,5.74160636e+05,2943,325
Raw,6.26015057e+05,2944,325
Raw,3.61456582e+05,2946,325
Raw,4.38509579e+05,2947,325
Raw,4.74611348e+05,2950,325
Raw,5.1599676e+05,2955,325
Raw,6.18507909e+05,2957,325
Raw,4.02770959e+05,2958,325
Raw,4.47493557e+05,2962,325
Raw,2.33345535e+05,2964,325
Raw,4.10751208e+05,2966,325
Raw,4.83089528e+05,2967,325
Raw,4.51677044e+05,2969,325
Raw,4.69186529e+05,2970,325
Raw,4.5540928e+05,2972,325
Raw,5.24016609e+05,2973,325
Raw,4.26077853e+05,2976,325
Raw,4.95533776e+05,2980,325
Raw,5.1927368e+05,2983,325
Raw,5.24733794e+05,2990,325
Raw,4.25476875e+05,2991,325
Raw,3.07151513e+05,2994,325
Raw,4.83012897e+05,2995,325
Raw,5.2957349e+05,2996,325
Raw,4.00544239e+05,2999,325
Raw,1.35135975e+05,3000,325
Raw,1.32064958e+05,3002,325
Raw,5.39431356e+05,3004,325
Raw,5.54641789e+05,3006,325
Raw,5.31726362e+05,3007,325
Raw,4.73933483e+05,3009,325
Raw,5.36345824e+05,3011,325
Raw,1.34832081e+05,3013,325
Raw,4.50722936e+05,3014,325
Raw,5.08007151e+05,3015,325
Raw,2.54979667e+05,3017,325
Raw,4.92225072e+05,3019,325
Raw,4.02425043e+05,3020,325
Raw,6.24819172e+05,3022,325
Raw,5.65996766e+05,3026,325
Raw,3.48214552e+05,3027,325
Raw,2.48216102e+05,3028,325
Raw,4.51753306e+05,3031,325
Raw,3.0013748e+05,3032,325
Raw,5.62660889e+05,3033,325
Raw,4.92795756e+05,3035,325
Raw,4.18686361e+05,3036,325
Raw,3.52838081e+05,3037,325
Raw,99269.675,3038,325
Raw,2.24233802e+05,3040,325
Raw,49826.044,3041,325
Raw,3.67759101e+05,3042,325
Raw,5.04913215e+05,3044,325
Raw,4.73593661e+05,3049,325
Raw,5.30525673e+05,3050,325
Raw,4.6229818e+05,3051,325
Raw,1.60812565e+05,3052,325
Raw,3.49022147e+05,3053,325
Raw,2.07102127e+05,3054,325
Raw,4.7035651e+05,3056,325
Raw,5.15469596e+05,3057,325
Raw,4.37187897e+05,3058,325
Raw,1.43764019e+06,3059,325
Raw,5.18600042e+05,3060,325
Raw,4.82465507e+05,3062,325
Raw,3.38220054e+05,3064,325
Raw,91187.436,3067,325
Raw,4.70857096e+05,3068,325
Raw,4.41864485e+05,3069,325
Raw,1.24511744e+05,3070,325
Raw,1.86207131e+05,3071,325
Raw,3.93134182e+05,3072,325
Raw,5.22655388e+05,3074,325
Raw,2.04429049e+05,3076,325
Raw,4.00972177e+05,3077,325
Raw,1.07814587e+05,3078,325
Raw,3.52739006e+05,3085,325
Raw,5.06157331e+05,3091,325
Raw,1.460999e+05,3093,325
Raw,4.25168698e+05,3097,325
Raw,1.96100238e+05,3101,325
Raw,98303.861,3103,325
Raw,5.31808712e+05,3104,325
Raw,9.62205773e+05,3106,325
Raw,4.46121806e+05,3107,325
Raw,5.18561083e+05,3109,325
Raw,4.01060443e+05,3110,325
Raw,5.20685531e+05,3111,325
Raw,5.29791633e+05,3113,325
Raw,4.10265933e+05,3114,325
Raw,4.09817902e+05,3116,325
Raw,4.92612147e+05,3117,325
Raw,3.69773501e+05,3121,325
Raw,5.0406743e+05,3122,325
Raw,4.68809068e+05,3126,325
Raw,2.129135e+05,3127,325
Raw,5.47307841e+05,3128,325
Raw,4.68897181e+05,3129,325
Raw,5.1581496e+05,3132,325
Raw,85632.498,3132,325
Raw,5.33203911e+05,3134,325
Raw,5.10296954e+05,3135,325
Raw,3.52514867e+05,3136,325
Raw,4.66106567e+05,3137,325
Raw,5.78760394e+05,3140,325
Raw,5.37576023e+05,3142,325
Raw,4.36465801e+05,3145,325
Raw,5.35889749e+05,3148,325
Raw,5.34151037e+05,3150,325
Raw,4.58220248e+05,3152,325
Raw,43999.901,3152,325
Raw,4.6766807e+05,3153,325
Raw,2.25228442e+05,3154,325
Raw,5.1097256e+05,3159,325
Raw,4.40209343e+05,3161,325
Raw,4.77487844e+05,3162,325
Raw,33353.695,3164,325
Raw,4.85364694e+05,3165,325
Raw,1.22824746e+05,3165,325
Raw,4.92794841e+05,3166,325
Raw,5.43359638e+05,3167,325
Raw,4.7530005e+05,3170,325
Raw,1.54271714e+05,3170,325
Raw,6.8516456e+05,3173,325
Raw,2.23648284e+05,3176,325
Raw,5.51095922e+05,3177,325
Raw,5.57147177e+05,3179,325
Raw,4.93945949e+05,3181,325
Raw,53410.764,3181,325
Raw,4.97273361e+05,3185,325
Raw,5.08902578e+05,3186,325
Raw,1.68546192e+05,3189,325
Raw,4.79936336e+05,3191,325
Raw,2.55231017e+05,3192,325
Raw,5.88736484e+05,3193,325
Raw,4.21472135e+05,3194,325
Raw,5.03256793e+05,3195,325
Raw,1.84487476e+05,3196,325
Raw,4.85353485e+05,3198,325
Raw,4.83965669e+05,3200,325
Raw,4.70427126e+05,3201,325
Raw,1.4291739e+05,3205,325
Raw,5.17077144e+05,3206,325
Raw,5.10899429e+05,3207,325
Raw,5.48976702e+05,3208,325
Raw,4.51908529e+05,3209,325
Raw,4.28378175e+05,3210,325
Raw,5.281498e+05,3212,325
Raw,6.31792107e+05,3213,325
Raw,5.05804407e+05,3215,325
Raw,2.9606513e+05,3220,325
Raw,5.30163516e+05,3224,325
Raw,1.30899625e+05,3226,325
Raw,3.76969122e+05,3228,325
Raw,2.99129005e+05,3230,325
Raw,5.28316941e+05,3231,325
Raw,1.19367748e+05,3231,325
Raw,5.21142621e+05,3233,325
Raw,5.16610505e+05,3235,325
Raw,4.34584568e+05,3237,325
Raw,4.88868535e+05,3239,325
Raw,4.58779098e+05,3240,325
Raw,4.609885e+05,3243,325
Raw,2.77415932e+05,3244,325
Raw,5.03056717e+05,3246,325
Raw,5.65909554e+05,3247,325
Raw,4.58876044e+05,3248,325
Raw,3.1318908e+05,3249,325
Raw,4.15285156e+05,3251,325
Raw,8.56580132e+05,3253,325
Raw,4.70926394e+05,3254,325
Raw,5.74124957e+05,3256,325
Raw,1.84202549e+05,3260,325
Raw,5.74901188e+05,3261,325
Raw,4.54580589e+05,3262,325
Raw,3.39980068e+05,3264,325
Raw,1.65916025e+05,3265,325
Raw,4.8234956e+05,3267,325
Raw,4.26989257e+05,3268,325
Raw,36614.504,3270,325
Raw,5.04824694e+05,3272,325
Raw,5.18915914e+05,3276,325
Raw,4.62769393e+05,3278,325
Raw,5.30538144e+05,3281,325
Raw,4.67587591e+05,3282,325
Raw,4.93015365e+05,3283,325
Raw,3.07055897e+05,3284,325
Raw,2.99094544e+05,3285,325
Raw,4.32692603e+05,3288,325
Raw,2.57677229e+05,3289,325
Raw,1.8247913e+05,3290,325
Raw,4.49390714e+05,3291,325
Raw,4.77750676e+05,3292,325
Raw,3.21592797e+05,3293,325
Raw,5.35335183e+05,3294,325
Raw,5.32593889e+05,3295,325
Raw,3.64547174e+05,3297,325
Raw,2.56461686e+05,3299,325
Raw,5.1927136e+05,3303,325
Raw,58904.262,3306,325
Raw,4.28166895e+05,3311,325
Raw,4.96975214e+05,3316,325
Raw,5.33612495e+05,3317,325
Raw,5.24259442e+05,3319,325
Raw,2.98538251e+05,3320,325
Raw,3.15566055e+05,3323,325
Raw,5.03781667e+05,3325,325
Raw,11664.827,3326,325
Raw,5.00071794e+05,3330,325
Raw,4.9385908e+05,3331,325
Raw,5.72286162e+05,3332,325
Raw,3.85771045e+05,3333,325
Raw,3.9951898e+05,3334,325
Raw,4.47599575e+05,3336,325
Raw,5.04972615e+05,3337,325
Raw,2.80843018e+05,3338,325
Raw,4.88749002e+05,3340,325
Raw,3.85307227e+05,3342,325
Raw,5.80910471e+05,3343,325
Raw,4.51829476e+05,3346,325
Raw,4.5172657e+05,3348,325
Raw,3.16850015e+05,3349,325
Raw,7.30287708e+05,3360,325
Raw,2.63925395e+05,3361,325
Raw,2.44801051e+05,3362,325
Raw,4.19059342e+05,3363,325
Raw,36487.541,3364,325
Raw,4.9914704e+05,3365,325
Raw,5.00709865e+05,3366,325
Raw,5.55366904e+05,3370,325
Raw,4.76039175e+05,3374,325
Raw,3.25602053e+05,3375,325
Raw,5.43264415e+05,3376,325
Raw,4.67339984e+05,3378,325
Raw,1.27556394e+05,3378,325
Raw,3.43768995e+05,3380,325
Raw,1.85338776e+05,3381,325
Raw,4.75884975e+05,3382,325
Raw,3.99914137e+05,3383,325
Raw,5.22570481e+05,3385,325
Raw,3.95950571e+05,3389,325
Raw,5.67636623e+05,3390,325
Raw,4.51890995e+05,3392,325
Raw,3.69132068e+05,3393,325
Raw,3.27639876e+05,3394,325
Raw,4.24625197e+05,3395,325
Raw,3.91169169e+05,3396,325
Raw,5.35930661e+05,3397,325
Raw,4.94852391e+05,3398,325
Raw,3.08159107e+05,3399,325
Raw,5.18820137e+05,3401,325
Raw,5.69140168e+05,3402,325
Raw,2.56174505e+05,3403,325
Raw,4.72931203e+05,3404,325
Raw,34856.495,3407,325
Raw,3.95521403e+05,3409,325
Raw,5.61424522e+05,3411,325
Raw,3.07949927e+05,3412,325
Raw,4.16745098e+05,3414,325
Raw,2.97404855e+05,3416,325
Raw,1.42794067e+05,3417,325
Raw,5.04609403e+05,3418,325
Raw,2.82516594e+05,3419,325
Raw,3.3839191e+05,3420,325
Raw,4.86081896e+05,3421,325
Raw,4.78602748e+05,3422,325
Raw,5.23186167e+05,3423,325
Raw,4.67735743e+05,3425,325
Raw,1.95137381e+05,3431,325
Raw,5.06022684e+05,3432,325
Raw,4.22828674e+05,3434,325
Raw,1.69256727e+05,3436,325
Raw,4.53352222e+05,3437,325
Raw,4.32239896e+05,3443,325
Raw,4.55609377e+05,3444,325
Raw,4.60505827e+05,3445,325
Raw,4.59403126e+05,3446,325
Raw,4.32397184e+05,3447,325
Raw,4.70530551e+05,3449,325
Raw,4.43609884e+05,3451,325
Raw,4.69701547e+05,3454,325
Raw,5.41950299e+05,3458,325
Raw,5.60438879e+05,3460,325
Raw,1.37070662e+05,3461,325
Raw,4.49990236e+05,3462,325
Raw,4.85045128e+05,3468,325
Raw,5.17763216e+05,3471,325
Raw,4.69493227e+05,3473,325
Raw,1.58032648e+05,3474,325
Raw,2.27334881e+05,3475,325
Raw,1.80717155e+05,3477,325
Raw,1.87026205e+05,3478,325
Raw,3.59651912e+05,3480,325
Raw,4.623251e+05,3484,325
Raw,5.11681358e+05,3485,325
Raw,4.77184948e+05,3486,325
Raw,5.13226317e+05,3488,325
Raw,5.35304678e+05,3489,325
Raw,2.24395023e+05,3491,325
Raw,4.35527178e+05,3500,325
Raw,4.32031632e+05,3501,325
Raw,4.18578037e+05,3502,325
Raw,6.10822435e+05,3504,325
Raw,5.45497887e+05,3505,325
Raw,5.17429494e+05,3507,325
Raw,35841.235,3515,325
Raw,2.41940065e+05,3516,325
Raw,4.55420391e+05,3517,325
Raw,5.47659003e+05,3521,325
Raw,5.27084035e+05,3522,325
Raw,4.83263133e+05,3526,325
Raw,99867.989,3529,325
Raw,4.62127995e+05,3530,325
Raw,4.77493557e+05,3531,325
Raw,4.79495722e+05,3533,325
Raw,2.77996655e+05,3534,325
Raw,4.83075916e+05,3540,325
Raw,5.43859423e+05,3542,325
Raw,4.85540915e+05,3548,325
Raw,1.80029957e+05,3549,325
Raw,3.2028668e+05,3551,325
Raw,5.07306091e+05,3552,325
Raw,4.06063808e+05,3554,325
Raw,4.5078294e+05,3557,325
Raw,5.3028376e+05,3560,325
Raw,4.61940169e+05,3561,325
Raw,9.18824396e+05,3563,325
Raw,5.36732974e+05,3564,325
Raw,1.04382531e+05,3566,325
Raw,1.82909486e+05,3568,325
Raw,3.55704069e+05,3569,325
Raw,4.24803471e+05,3574,325
Raw,3.5405225e+05,3576,325
Raw,6.51426783e+05,3579,325
Raw,5.81911895e+05,3581,325
Raw,5.11284351e+05,3582,325
Raw,4.259867e+05,3583,325
Raw,6.09598293e+05,3585,325
Raw,4.51635308e+05,3590,325
Raw,3.35135722e+05,3592,325
Raw,4.68782066e+05,3593,325
Raw,5.13621748e+05,3597,325
Raw,1.54664587e+05,3598,325
Raw,3.31467058e+05,3600,325
Raw,5.118581e+05,3603,325
Raw,4.54387905e+05,3604,325
Raw,4.88791309e+05,3606,325
Raw,5.63087093e+05,3607,325
Raw,5.40410093e+05,3615,325
Raw,4.58183587e+05,3617,325
Raw,4.94638161e+05,3619,325
Raw,4.94139785e+05,3622,325
Raw,4.67149832e+05,3623,325
Raw,4.8307455e+05,3625,325
Raw,5.24644539e+05,3626,325
Raw,3.75959578e+05,3627,325
Raw,5.50294764e+05,3632,325
Raw,3.49930098e+05,3638,325
Raw,5.4694247e+05,3639,325
Raw,5.12552313e+05,3640,325
Raw,10210.095,3640,325
Raw,4.78869271e+05,3642,325
Raw,1.78347234e+05,3644,325
Raw,4.9266819e+05,3647,325
Raw,4.45546848e+05,3649,325
Raw,3.53315018e+05,3651,325
Raw,4.13086747e+05,3653,325
Raw,3.30794656e+05,3654,325
Raw,2.84079278e+05,3658,325
Raw,1.07336216e+05,3659,325
Raw,4.56858135e+05,3660,325
Raw,4.54761386e+05,3662,325
Raw,4.08868639e+05,3663,325
Raw,5.25789744e+05,3665,325
Raw,1.85918397e+05,3667,325
Raw,4.31201559e+05,3670,325
Raw,6.41210715e+05,3671,325
Raw,4.83106704e+05,3676,325
Raw,4.43747622e+05,3678,325
Raw,86048.251,3680,325
Raw,3.31610519e+05,3683,325
Raw,1.48933241e+05,3687,325
Raw,5.14976853e+05,3688,325
Raw,5.07307485e+05,3694,325
Raw,2.84980456e+05,3695,325
Raw,3.83274414e+05,3698,325
Raw,2.82024628e+05,3699,325
Raw,4.66689183e+05,3704,325
Raw,3.49978271e+05,3705,325
Raw,5.17481004e+05,3706,325
Raw,4.91636108e+05,3708,325
Raw,4.31565339e+05,3718,325
Raw,1.62895216e+05,3719,325
Raw,99029.21,3722,325
Raw,5.1146114e+05,3723,325
Raw,4.54967259e+05,3729,325
Raw,92394.553,3730,325
Raw,5.2756025e+05,3731,325
Raw,5.62820667e+05,3733,325
Raw,4.12520325e+05,3734,325
Raw,5.20988289e+05,3735,325
Raw,1.37599641e+06,3738,325
Raw,3.73105546e+05,3741,325
Raw,5.17773669e+05,3750,325
Raw,4.32820684e+05,3752,325
Raw,3.40415299e+05,3755,325
Raw,4.65707932e+05,3756,325
Raw,3.89767927e+05,3759,325
Raw,4.45468967e+05,3765,325
Raw,4.02741111e+05,3766,325
Raw,4.20625524e+05,3767,325
Raw,4.15328832e+05,3769,325
Raw,4.62023665e+05,3772,325
Raw,4.05533382e+05,3778,325
Raw,4.85646889e+05,3783,325
Raw,1.90723681e+05,3784,325
Raw,4.47072808e+05,3788,325
Raw,4.39052349e+05,3805,325
Raw,4.93663514e+05,3807,325
Raw,5.55470358e+05,3813,325
Raw,5.74046431e+05,3814,325
Raw,3.61846931e+05,3820,325
Raw,2.34749461e+05,3821,325
Raw,94151.263,3822,325
Raw,4.55168863e+05,3829,325
Raw,4.07871511e+05,3832,325
Raw,2.91928497e+05,3835,325
Raw,5.12106851e+05,3836,325
Raw,2.75178362e+05,3842,325
Raw,4.22651432e+05,3845,325
Raw,7.09443598e+05,3846,325
Raw,3.6212258e+05,3847,325
Raw,4.21804998e+05,3849,325
Raw,5.47485263e+05,3850,325
Raw,5.3040391e+05,3851,325
Raw,4.06292228e+05,3852,325
Raw,4.73100721e+05,3853,325
Raw,5.92671654e+05,3854,325
Raw,5.17320052e+05,3855,325
Raw,1.68713254e+05,3856,325
Raw,4.36299921e+05,3857,325
Raw,4.39525891e+05,3858,325
Raw,4.01310935e+05,3859,325
Raw,4.73849406e+05,3860,325
Raw,6.65349861e+05,3861,325
Raw,4.37293257e+05,3862,325
Raw,5.20004641e+05,3863,325
Raw,2.13522596e+05,3864,325
Raw,4.8037135e+05,3866,325
Raw,5.06307856e+05,3867,325
Raw,4.11106071e+05,3868,325
Raw,5.75091576e+05,3869,325
Raw,1.42886436e+05,3870,325
Raw,4.61608725e+05,3871,325
Raw,3.07919329e+05,3872,325
Raw,4.19638254e+05,3873,325
Raw,4.9725297e+05,3874,325
Raw,3.89766017e+05,3876,325
Raw,4.93079788e+05,3877,325
Raw,4.50199518e+05,3878,325
Raw,6.1708188e+05,3879,325
Raw,4.62303027e+05,3880,325
Raw,5.11176604e+05,3881,325
Raw,1.31827988e+05,3881,325
Raw,4.35932416e+05,3882,325
Raw,2.36120867e+05,3883,325
Raw,3.09162933e+05,3884,325
Raw,4.83254657e+05,3885,325
Raw,4.90939099e+05,3886,325
Raw,4.15427387e+05,3887,325
Raw,4.16743348e+05,3888,325
Raw,4.91300391e+05,3889,325
Raw,4.51665166e+05,3890,325
Raw,5.2063055e+05,3891,325
Raw,5.12587873e+05,3892,325
Raw,5.34022328e+05,3893,325
Raw,1.78496115e+05,3894,325
Raw,5.08374761e+05,3895,325
Raw,3.23120485e+05,3897,325
Raw,5.37284841e+05,3898,325
Raw,5.40689479e+05,3899,325
Raw,1.67522059e+05,3900,325
Raw,2.31727531e+05,3901,325
Raw,5.87872605e+05,3902,325
Raw,5.03973339e+05,3903,325
Raw,4.83153245e+05,3904,325
Raw,2.92252648e+05,3906,325
Raw,4.30753129e+05,3907,325
Raw,1.41720626e+05,3907,325
Raw,5.20251235e+05,3908,325
Raw,4.77550965e+05,3910,325
Raw,4.07506494e+05,3911,325
Raw,1.45026643e+05,3912,325
Raw,5.31367978e+05,3914,325
Raw,4.76085645e+05,3915,325
Raw,5.73652068e+05,3916,325
Raw,1.74256827e+05,3917,325
Raw,1.80035004e+05,3918,325
Raw,3.71388976e+05,3919,325
Raw,3.49136365e+05,3920,325
Raw,4.8443581e+05,3921,325
Raw,5.20432195e+05,3922,325
Raw,6.31060369e+05,3923,325
Raw,1.42137857e+06,3924,325
Raw,1.89368786e+05,3925,325
Raw,5.21903702e+05,3927,325
Raw,3.48363969e+05,3928,325
Raw,5.32838767e+05,3929,325
Raw,4.73325633e+05,3930,325
Raw,5.21486247e+05,3931,325
Raw,4.73140117e+05,3932,325
Raw,1.86018282e+05,3933,325
Raw,5.0644779e+05,3934,325
Raw,2.75089016e+05,3935,325
Raw,1.75712059e+05,3936,325
Raw,3.84807273e+05,3937,325
Raw,2.38525017e+05,3938,325
Raw,4.03738308e+05,3939,325
Raw,5.4579919e+05,3940,325
Raw,4.21574027e+05,3941,325
Raw,6.14698231e+05,3942,325
Raw,5.68971117e+05,3943,325
Raw,2.46648525e+05,3944,325
Raw,3.25830582e+05,3945,325
Raw,1.49477126e+05,3946,325
Raw,4.34440892e+05,3947,325
Raw,4.44107693e+05,3948,325
Raw,5.3508885e+05,3949,325
Raw,3.6186365e+05,3950,325
Raw,5.04993858e+05,3951,325
Raw,5.38322719e+05,3952,325
Raw,5.03799007e+05,3953,325
Raw,4.22890189e+05,3954,325
Raw,78724.091,3954,325
Raw,17996.279,3955,325
Raw,4.35319004e+05,3956,325
Raw,94311.451,3956,325
Raw,4.72700396e+05,3957,325
Raw,5.08122134e+05,3958,325
Raw,5.27841368e+05,3959,325
Raw,4.62855506e+05,3961,325
Raw,4.7837742e+05,3962,325
Raw,4.81234394e+05,3963,325
Raw,4.48726572e+05,3964,325
Raw,5.71563155e+05,3965,325
Raw,6.06617707e+05,3966,325
Raw,4.69728826e+05,3967,325
Raw,2.90744488e+05,3968,325
Raw,4.36000334e+05,3969,325
Raw,6.45656764e+05,3971,325
Raw,5.38775603e+05,3972,325
Raw,4.50595293e+05,3973,325
Raw,4.1075364e+05,3974,325
Raw,3.9791313e+05,3975,325
Raw,2.13311594e+05,3976,325
Raw,2.84471102e+05,3977,325
Raw,5.03459267e+05,3978,325
Raw,5.36182e+05,3979,325
Raw,5.43699396e+05,3980,325
Raw,5.06125729e+05,3981,325
Raw,4.62611837e+05,3982,325
Raw,4.99755314e+05,3983,325
Raw,5.48754891e+05,3984,325
Raw,6.42157424e+05,3985,325
Raw,4.4132526e+05,3986,325
Raw,4.72039301e+05,3987,325
Raw,2.29869272e+05,3988,325
Raw,2.76999177e+05,3989,325
Raw,3.56639652e+05,3990,325
Raw,1.57690561e+05,3991,325
Raw,3.19763069e+05,3992,325
Raw,6.84044128e+05,3993,325
Raw,5.26213332e+05,3994,325
Raw,4.92628613e+05,3995,325
Raw,4.57522221e+05,3996,325
Raw,4.61268993e+05,3997,325
Raw,6.17967536e+05,3998,325
Raw,4.8488869e+05,3999,325
Raw,5.18534157e+05,4000,325
Raw,4.30886442e+05,4001,325
Raw,2.09966609e+05,4002,325
Raw,5.3881356e+05,4003,325
Raw,1.96950068e+05,4004,325
Raw,4.75061043e+05,4005,325
Raw,1.49951972e+05,4006,325
Raw,4.56101973e+05,4007,325
Raw,5.16126261e+05,4008,325
Raw,5.41201201e+05,4009,325
Raw,5.02988777e+05,4010,325
Raw,5.29061383e+05,4011,325
Raw,4.85940204e+05,4012,325
Raw,4.17665778e+05,4013,325
Raw,5.35753612e+05,4014,325
Raw,5.38303333e+05,4015,325
Raw,5.51600433e+05,4016,325
Raw,1.0533198e+06,4017,325
Raw,4.65832522e+05,4018,325
Raw,6.20340309e+05,4019,325
Raw,5.82218343e+05,4020,325
Raw,4.64865846e+05,4021,325
Raw,4.8453902e+05,4022,325
Raw,5.03486532e+05,4025,325
Raw,5.13758677e+05,4026,325
Raw,4.79616878e+05,4027,325
Raw,7.92305602e+05,4028,325
Raw,4.09555667e+05,4029,325
Raw,5.8294617e+05,4030,325
Raw,4.84578075e+05,4031,325
Raw,4.23244694e+05,4032,325
Raw,6.28338498e+05,4033,325
Raw,5.46318027e+05,4034,325
Raw,4.87964718e+05,4035,325
Raw,5.79597145e+05,4036,325
Raw,1.72205798e+05,4038,325
Raw,4.54158778e+05,4039,325
Raw,4.86562029e+05,4040,325
Raw,3.12786543e+05,4041,325
Raw,3.23278379e+05,4042,325
Raw,4.62256753e+05,4043,325
Raw,6.11768454e+05,4044,325
Raw,5.06457823e+05,4045,325
Raw,4.77844506e+05,4046,325
Raw,5.16448341e+05,4047,325
Raw,4.90421648e+05,4048,325
Raw,3.90186819e+05,4049,325
Raw,2.78683226e+05,4050,325
Raw,6.3447764e+05,4051,325
Raw,4.27937727e+05,4052,325
Raw,4.19743329e+05,4053,325
Raw,5.37605433e+05,4054,325
Raw,4.30652927e+05,4055,325
Raw,5.57132606e+05,4056,325
Raw,4.27245595e+05,4057,325
Raw,2.78492702e+05,4058,325
Raw,5.69242735e+05,4060,325
Raw,4.49290973e+05,4061,325
Raw,4.95817701e+05,4062,325
Raw,5.8396391e+05,4063,325
Raw,2.45617336e+05,4064,325
Raw,5.03429248e+05,4065,325
Raw,1.09818626e+05,4065,325
Raw,2.17395237e+05,4067,325
Raw,1.76752123e+05,4068,325
