Cut?,Counts,eventNumber,runNumber
Raw,157,4,325
Raw,178,6,325
Raw,170,9,325
Raw,198,10,325
Raw,193,11,325
Raw,199,14,325
Raw,81,15,325
Raw,189,16,325
Raw,185,18,325
Raw,160,19,325
Raw,173,21,325
Raw,147,26,325
Raw,176,27,325
Raw,171,28,325
Raw,81,31,325
Raw,176,35,325
Raw,164,36,325
Raw,187,37,325
Raw,138,38,325
Raw,151,39,325
Raw,184,40,325
Raw,170,41,325
Raw,171,43,325
Raw,55,45,325
Raw,156,46,325
Raw,178,47,325
Raw,160,49,325
Raw,379,50,325
Raw,202,54,325
Raw,55,56,325
Raw,161,59,325
Raw,74,61,325
Raw,191,68,325
Raw,186,69,325
Raw,82,77,325
Raw,156,78,325
Raw,171,79,325
Raw,68,80,325
Raw,173,83,325
Raw,158,84,325
Raw,156,86,325
Raw,152,92,325
Raw,249,95,325
Raw,175,96,325
Raw,166,98,325
Raw,172,102,325
Raw,41,103,325
Raw,172,104,325
Raw,193,105,325
Raw,154,107,325
Raw,183,108,325
Raw,188,109,325
Raw,216,110,325
Raw,181,116,325
Raw,102,120,325
Raw,160,121,325
Raw,152,124,325
Raw,4,126,325
Raw,187,128,325
Raw,262,129,325
Raw,186,130,325
Raw,64,134,325
Raw,192,137,325
Raw,171,138,325
Raw,195,143,325
Raw,163,144,325
Raw,50,145,325
Raw,195,146,325
Raw,146,148,325
Raw,170,149,325
Raw,80,152,325
Raw,75,154,325
Raw,153,155,325
Raw,206,156,325
Raw,146,157,325
Raw,206,158,325
Raw,170,159,325
Raw,166,162,325
Raw,152,164,325
Raw,125,166,325
Raw,202,167,325
Raw,194,168,325
Raw,154,170,325
Raw,171,171,325
Raw,162,172,325
Raw,174,173,325
Raw,222,174,325
Raw,172,175,325
Raw,87,177,325
Raw,161,178,325
Raw,50,178,325
Raw,9,181,325
Raw,180,182,325
Raw,124,185,325
Raw,168,186,325
Raw,35,187,325
Raw,199,188,325
Raw,157,190,325
Raw,41,191,325
Raw,110,192,325
Raw,132,193,325
Raw,226,194,325
Raw,129,196,325
Raw,539,198,325
Raw,178,199,325
Raw,192,200,325
Raw,179,201,325
Raw,95,203,325
Raw,331,206,325
Raw,111,208,325
Raw,188,209,325
Raw,171,211,325
Raw,130,213,325
Raw,188,215,325
Raw,115,216,325
Raw,166,217,325
Raw,68,219,325
Raw,188,220,325
Raw,326,221,325
Raw,174,224,325
Raw,191,225,325
Raw,118,226,325
Raw,172,227,325
Raw,139,235,325
Raw,181,239,325
Raw,205,242,325
Raw,53,245,325
Raw,187,246,325
Raw,34,248,325
Raw,171,249,325
Raw,67,252,325
Raw,195,253,325
Raw,174,254,325
Raw,185,256,325
Raw,122,257,325
Raw,186,258,325
Raw,171,259,325
Raw,144,261,325
Raw,61,263,325
Raw,171,266,325
Raw,157,268,325
Raw,155,270,325
Raw,152,272,325
Raw,173,274,325
Raw,257,275,325
Raw,202,279,325
Raw,185,280,325
Raw,168,281,325
Raw,186,282,325
Raw,162,284,325
Raw,208,285,325
Raw,213,287,325
Raw,178,289,325
Raw,165,290,325
Raw,167,292,325
Raw,51,294,325
Raw,195,295,325
Raw,172,298,325
Raw,151,300,325
Raw,184,303,325
Raw,179,305,325
Raw,180,309,325
Raw,105,312,325
Raw,182,313,325
Raw,209,314,325
Raw,183,315,325
Raw,52,317,325
Raw,158,319,325
Raw,159,321,325
Raw,152,323,325
Raw,194,324,325
Raw,32,325,325
Raw,202,327,325
Raw,170,328,325
Raw,181,329,325
Raw,195,332,325
Raw,136,337,325
Raw,205,339,325
Raw,183,341,325
Raw,115,342,325
Raw,197,343,325
Raw,187,344,325
Raw,195,345,325
Raw,108,347,325
Raw,183,354,325
Raw,159,356,325
Raw,152,358,325
Raw,191,360,325
Raw,155,361,325
Raw,149,362,325
Raw,176,363,325
Raw,87,364,325
Raw,150,365,325
Raw,51,366,325
Raw,157,367,325
Raw,179,370,325
Raw,161,372,325
Raw,69,373,325
Raw,172,374,325
Raw,132,375,325
Raw,142,376,325
Raw,207,377,325
Raw,218,378,325
Raw,174,379,325
Raw,67,380,325
Raw,191,381,325
Raw,172,383,325
Raw,78,385,325
Raw,153,390,325
Raw,194,392,325
Raw,178,393,325
Raw,172,396,325
Raw,87,398,325
Raw,187,399,325
Raw,188,400,325
Raw,162,401,325
Raw,54,403,325
Raw,58,403,325
Raw,142,407,325
Raw,191,411,325
Raw,164,413,325
Raw,131,415,325
Raw,168,419,325
Raw,173,421,325
Raw,72,422,325
Raw,182,423,325
Raw,160,424,325
Raw,160,425,325
Raw,193,425,325
Raw,184,427,325
Raw,180,428,325
Raw,152,429,325
Raw,199,430,325
Raw,184,431,325
Raw,130,435,325
Raw,120,436,325
Raw,187,438,325
Raw,153,439,325
Raw,117,439,325
Raw,136,440,325
Raw,95,449,325
Raw,75,450,325
Raw,205,451,325
Raw,199,452,325
Raw,182,453,325
Raw,131,454,325
Raw,183,455,325
Raw,60,456,325
Raw,145,458,325
Raw,82,461,325
Raw,72,462,325
Raw,188,463,325
Raw,144,464,325
Raw,61,468,325
Raw,158,469,325
Raw,144,471,325
Raw,54,472,325
Raw,159,475,325
Raw,157,481,325
Raw,202,482,325
Raw,43,482,325
Raw,163,484,325
Raw,192,486,325
Raw,42,489,325
Raw,164,490,325
Raw,142,493,325
Raw,180,495,325
Raw,19,496,325
Raw,180,499,325
Raw,81,500,325
Raw,58,501,325
Raw,187,504,325
Raw,173,505,325
Raw,172,506,325
Raw,46,507,325
Raw,123,508,325
Raw,153,513,325
Raw,184,515,325
Raw,186,516,325
Raw,220,517,325
Raw,208,518,325
Raw,91,519,325
Raw,64,521,325
Raw,53,521,325
Raw,172,524,325
Raw,180,526,325
Raw,307,527,325
Raw,179,528,325
Raw,177,532,325
Raw,362,533,325
Raw,187,534,325
Raw,172,535,325
Raw,194,537,325
Raw,194,538,325
Raw,166,539,325
Raw,178,540,325
Raw,192,543,325
Raw,178,544,325
Raw,197,551,325
Raw,160,552,325
Raw,156,554,325
Raw,179,555,325
Raw,153,556,325
Raw,52,557,325
Raw,190,558,325
Raw,101,560,325
Raw,165,561,325
Raw,186,563,325
Raw,177,566,325
Raw,194,567,325
Raw,195,568,325
Raw,56,569,325
Raw,184,570,325
Raw,4,571,325
Raw,182,572,325
Raw,209,574,325
Raw,180,575,325
Raw,175,576,325
Raw,163,578,325
Raw,183,581,325
Raw,78,586,325
Raw,68,588,325
Raw,194,589,325
Raw,182,592,325
Raw,65,596,325
Raw,189,600,325
Raw,198,601,325
Raw,219,605,325
Raw,37,609,325
Raw,115,610,325
Raw,177,612,325
Raw,154,615,325
Raw,98,616,325
Raw,66,617,325
Raw,162,618,325
Raw,61,619,325
Raw,165,620,325
Raw,12,621,325
Raw,57,624,325
Raw,171,625,325
Raw,181,626,325
Raw,159,627,325
Raw,64,629,325
Raw,176,630,325
Raw,152,633,325
Raw,95,634,325
Raw,176,637,325
Raw,188,638,325
Raw,185,639,325
Raw,174,643,325
Raw,74,644,325
Raw,173,646,325
Raw,152,649,325
Raw,205,650,325
Raw,186,653,325
Raw,58,654,325
Raw,174,656,325
Raw,203,658,325
Raw,162,661,325
Raw,179,664,325
Raw,170,665,325
Raw,33,665,325
Raw,67,667,325
Raw,182,668,325
Raw,64,669,325
Raw,199,670,325
Raw,140,672,325
Raw,50,673,325
Raw,86,674,325
Raw,168,675,325
Raw,198,678,325
Raw,300,679,325
Raw,175,680,325
Raw,135,681,325
Raw,160,684,325
Raw,180,685,325
Raw,162,687,325
Raw,165,688,325
Raw,120,689,325
Raw,184,690,325
Raw,182,694,325
Raw,170,695,325
Raw,156,696,325
Raw,170,703,325
Raw,175,706,325
Raw,163,710,325
Raw,117,711,325
Raw,168,714,325
Raw,199,716,325
Raw,85,718,325
Raw,181,722,325
Raw,117,723,325
Raw,171,724,325
Raw,175,726,325
Raw,180,728,325
Raw,176,729,325
Raw,182,730,325
Raw,159,735,325
Raw,180,737,325
Raw,140,738,325
Raw,198,742,325
Raw,126,743,325
Raw,168,744,325
Raw,44,745,325
Raw,201,746,325
Raw,84,747,325
Raw,177,749,325
Raw,199,752,325
Raw,170,756,325
Raw,179,757,325
Raw,195,758,325
Raw,209,760,325
Raw,42,764,325
Raw,55,765,325
Raw,139,766,325
Raw,212,767,325
Raw,179,769,325
Raw,161,775,325
Raw,167,779,325
Raw,31,780,325
Raw,198,785,325
Raw,328,788,325
Raw,180,789,325
Raw,107,794,325
Raw,178,795,325
Raw,189,797,325
Raw,137,798,325
Raw,163,799,325
Raw,111,809,325
Raw,81,810,325
Raw,56,814,325
Raw,130,817,325
Raw,185,819,325
Raw,23,821,325
Raw,182,822,325
Raw,104,825,325
Raw,174,829,325
Raw,128,830,325
Raw,159,831,325
Raw,161,833,325
Raw,407,835,325
Raw,77,836,325
Raw,178,837,325
Raw,169,838,325
Raw,188,840,325
Raw,148,841,325
Raw,167,845,325
Raw,193,846,325
Raw,157,847,325
Raw,74,848,325
Raw,193,850,325
Raw,177,854,325
Raw,174,855,325
Raw,186,856,325
Raw,7,856,325
Raw,170,863,325
Raw,43,863,325
Raw,188,867,325
Raw,179,868,325
Raw,171,870,325
Raw,73,872,325
Raw,192,873,325
Raw,203,875,325
Raw,210,876,325
Raw,168,877,325
Raw,181,880,325
Raw,3,883,325
Raw,3,883,325
Raw,152,886,325
Raw,51,891,325
Raw,181,892,325
Raw,184,894,325
Raw,154,895,325
Raw,205,896,325
Raw,169,899,325
Raw,270,900,325
Raw,115,901,325
Raw,57,903,325
Raw,211,906,325
Raw,172,907,325
Raw,74,908,325
Raw,178,909,325
Raw,143,910,325
Raw,150,914,325
Raw,141,916,325
Raw,165,917,325
Raw,175,918,325
Raw,142,920,325
Raw,56,923,325
Raw,160,927,325
Raw,176,929,325
Raw,48,930,325
Raw,354,931,325
Raw,133,933,325
Raw,197,935,325
Raw,170,938,325
Raw,180,939,325
Raw,181,942,325
Raw,192,948,325
Raw,209,949,325
Raw,56,950,325
Raw,176,952,325
Raw,138,953,325
Raw,210,954,325
Raw,186,955,325
Raw,195,956,325
Raw,181,957,325
Raw,186,958,325
Raw,186,960,325
Raw,141,962,325
Raw,171,963,325
Raw,192,965,325
Raw,197,966,325
Raw,199,970,325
Raw,151,971,325
Raw,161,975,325
Raw,94,977,325
Raw,161,978,325
Raw,193,979,325
Raw,168,980,325
Raw,65,981,325
Raw,183,983,325
Raw,8,984,325
Raw,153,992,325
Raw,154,994,325
Raw,167,996,325
Raw,195,997,325
Raw,66,998,325
Raw,166,999,325
Raw,188,1003,325
Raw,159,1010,325
Raw,84,1020,325
Raw,193,1021,325
Raw,85,1023,325
Raw,119,1024,325
Raw,167,1030,325
Raw,122,1031,325
Raw,153,1035,325
Raw,58,1037,325
Raw,176,1038,325
Raw,65,1039,325
Raw,41,1040,325
Raw,193,1041,325
Raw,63,1042,325
Raw,40,1043,325
Raw,163,1044,325
Raw,154,1046,325
Raw,172,1047,325
Raw,190,1048,325
Raw,176,1049,325
Raw,125,1049,325
Raw,201,1051,325
Raw,124,1053,325
Raw,190,1054,325
Raw,194,1055,325
Raw,81,1056,325
Raw,154,1057,325
Raw,172,1058,325
Raw,150,1059,325
Raw,105,1059,325
Raw,127,1061,325
Raw,174,1063,325
Raw,167,1066,325
Raw,97,1067,325
Raw,112,1069,325
Raw,180,1071,325
Raw,204,1072,325
Raw,147,1073,325
Raw,21,1073,325
Raw,112,1074,325
Raw,183,1075,325
Raw,186,1079,325
Raw,110,1081,325
Raw,168,1082,325
Raw,193,1085,325
Raw,209,1086,325
Raw,179,1088,325
Raw,161,1095,325
Raw,236,1097,325
Raw,37,1099,325
Raw,170,1100,325
Raw,74,1104,325
Raw,172,1108,325
Raw,197,1110,325
Raw,192,1111,325
Raw,209,1112,325
Raw,138,1115,325
Raw,137,1116,325
Raw,169,1117,325
Raw,202,1118,325
Raw,81,1121,325
Raw,98,1122,325
Raw,180,1124,325
Raw,182,1125,325
Raw,187,1126,325
Raw,153,1129,325
Raw,139,1131,325
Raw,67,1132,325
Raw,276,1133,325
Raw,155,1134,325
Raw,42,1135,325
Raw,149,1136,325
Raw,33,1137,325
Raw,174,1140,325
Raw,179,1141,325
Raw,160,1143,325
Raw,143,1145,325
Raw,26,1148,325
Raw,122,1150,325
Raw,163,1157,325
Raw,142,1162,325
Raw,106,1163,325
Raw,151,1164,325
Raw,178,1165,325
Raw,158,1166,325
Raw,163,1167,325
Raw,36,1168,325
Raw,148,1169,325
Raw,179,1171,325
Raw,180,1172,325
Raw,153,1173,325
Raw,107,1174,325
Raw,86,1178,325
Raw,171,1180,325
Raw,60,1181,325
Raw,108,1187,325
Raw,120,1191,325
Raw,91,1192,325
Raw,155,1193,325
Raw,191,1194,325
Raw,49,1195,325
Raw,172,1196,325
Raw,192,1198,325
Raw,183,1199,325
Raw,67,1202,325
Raw,175,1203,325
Raw,23,1205,325
Raw,175,1206,325
Raw,186,1207,325
Raw,190,1209,325
Raw,39,1213,325
Raw,167,1215,325
Raw,85,1217,325
Raw,47,1219,325
Raw,176,1226,325
Raw,126,1227,325
Raw,186,1228,325
Raw,169,1230,325
Raw,321,1231,325
Raw,150,1232,325
Raw,109,1235,325
Raw,219,1237,325
Raw,184,1240,325
Raw,143,1241,325
Raw,181,1242,325
Raw,121,1243,325
Raw,169,1245,325
Raw,198,1247,325
Raw,135,1248,325
Raw,179,1250,325
Raw,189,1251,325
Raw,179,1253,325
Raw,142,1254,325
Raw,153,1257,325
Raw,187,1258,325
Raw,153,1260,325
Raw,55,1263,325
Raw,185,1265,325
Raw,55,1269,325
Raw,354,1272,325
Raw,70,1275,325
Raw,56,1276,325
Raw,177,1277,325
Raw,124,1278,325
Raw,75,1280,325
Raw,172,1283,325
Raw,91,1285,325
Raw,161,1287,325
Raw,212,1288,325
Raw,155,1289,325
Raw,201,1290,325
Raw,130,1291,325
Raw,151,1294,325
Raw,116,1299,325
Raw,184,1300,325
Raw,167,1303,325
Raw,156,1304,325
Raw,166,1305,325
Raw,167,1306,325
Raw,188,1308,325
Raw,189,1314,325
Raw,174,1315,325
Raw,124,1319,325
Raw,186,1320,325
Raw,196,1321,325
Raw,198,1324,325
Raw,83,1324,325
Raw,193,1327,325
Raw,213,1328,325
Raw,180,1330,325
Raw,183,1331,325
Raw,109,1334,325
Raw,174,1337,325
Raw,193,1339,325
Raw,177,1343,325
Raw,186,1350,325
Raw,182,1354,325
Raw,201,1355,325
Raw,160,1358,325
Raw,220,1361,325
Raw,175,1365,325
Raw,191,1366,325
Raw,203,1369,325
Raw,152,1371,325
Raw,198,1373,325
Raw,183,1376,325
Raw,154,1377,325
Raw,149,1378,325
Raw,194,1379,325
Raw,163,1380,325
Raw,68,1386,325
Raw,177,1389,325
Raw,183,1390,325
Raw,186,1392,325
Raw,180,1393,325
Raw,179,1394,325
Raw,331,1397,325
Raw,40,1399,325
Raw,163,1400,325
Raw,174,1401,325
Raw,168,1406,325
Raw,168,1407,325
Raw,193,1408,325
Raw,179,1409,325
Raw,203,1411,325
Raw,188,1412,325
Raw,186,1413,325
Raw,182,1414,325
Raw,96,1416,325
Raw,14,1417,325
Raw,162,1419,325
Raw,185,1420,325
Raw,200,1425,325
Raw,192,1427,325
Raw,131,1428,325
Raw,172,1429,325
Raw,118,1433,325
Raw,13,1436,325
Raw,3,1437,325
Raw,163,1439,325
Raw,151,1440,325
Raw,170,1443,325
Raw,197,1446,325
Raw,130,1448,325
Raw,155,1450,325
Raw,171,1451,325
Raw,61,1452,325
Raw,58,1454,325
Raw,172,1456,325
Raw,141,1457,325
Raw,172,1458,325
Raw,167,1461,325
Raw,194,1464,325
Raw,145,1465,325
Raw,191,1467,325
Raw,200,1468,325
Raw,181,1468,325
Raw,184,1470,325
Raw,86,1471,325
Raw,62,1474,325
Raw,29,1474,325
Raw,170,1480,325
Raw,192,1483,325
Raw,188,1484,325
Raw,201,1485,325
Raw,229,1486,325
Raw,80,1487,325
Raw,153,1490,325
Raw,186,1492,325
Raw,129,1493,325
Raw,37,1494,325
Raw,62,1495,325
Raw,159,1499,325
Raw,176,1501,325
Raw,194,1502,325
Raw,168,1503,325
Raw,162,1504,325
Raw,208,1506,325
Raw,187,1508,325
Raw,187,1510,325
Raw,131,1512,325
Raw,117,1513,325
Raw,161,1515,325
Raw,112,1516,325
Raw,8,1517,325
Raw,178,1518,325
Raw,110,1520,325
Raw,163,1521,325
Raw,180,1523,325
Raw,54,1525,325
Raw,152,1525,325
Raw,180,1526,325
Raw,110,1527,325
Raw,133,1532,325
Raw,213,1534,325
Raw,130,1535,325
Raw,175,1536,325
Raw,166,1541,325
Raw,112,1545,325
Raw,180,1546,325
Raw,109,1547,325
Raw,143,1548,325
Raw,138,1550,325
Raw,147,1551,325
Raw,147,1552,325
Raw,196,1553,325
Raw,59,1554,325
Raw,215,1558,325
Raw,119,1560,325
Raw,153,1561,325
Raw,57,1565,325
Raw,146,1566,325
Raw,135,1568,325
Raw,103,1569,325
Raw,162,1570,325
Raw,179,1571,325
Raw,123,1576,325
Raw,80,1577,325
Raw,46,1580,325
Raw,170,1581,325
Raw,180,1585,325
Raw,187,1586,325
Raw,147,1587,325
Raw,191,1588,325
Raw,209,1591,325
Raw,70,1592,325
Raw,150,1594,325
Raw,199,1595,325
Raw,186,1599,325
Raw,171,1600,325
Raw,61,1604,325
Raw,180,1607,325
Raw,172,1609,325
Raw,186,1611,325
Raw,178,1612,325
Raw,190,1613,325
Raw,172,1614,325
Raw,138,1617,325
Raw,157,1621,325
Raw,152,1622,325
Raw,90,1623,325
Raw,174,1626,325
Raw,16,1627,325
Raw,110,1628,325
Raw,187,1629,325
Raw,139,1630,325
Raw,172,1632,325
Raw,179,1633,325
Raw,100,1637,325
Raw,186,1638,325
Raw,195,1639,325
Raw,90,1641,325
Raw,176,1645,325
Raw,73,1646,325
Raw,18,1646,325
Raw,131,1649,325
Raw,184,1655,325
Raw,145,1656,325
Raw,95,1658,325
Raw,184,1660,325
Raw,187,1661,325
Raw,165,1662,325
Raw,184,1663,325
Raw,195,1664,325
Raw,168,1665,325
Raw,174,1670,325
Raw,197,1671,325
Raw,167,1672,325
Raw,71,1674,325
Raw,164,1675,325
Raw,168,1677,325
Raw,3,1678,325
Raw,6,1678,325
Raw,158,1680,325
Raw,68,1681,325
Raw,67,1683,325
Raw,59,1686,325
Raw,74,1688,325
Raw,312,1689,325
Raw,169,1691,325
Raw,139,1692,325
Raw,201,1693,325
Raw,20,1693,325
Raw,85,1695,325
Raw,44,1696,325
Raw,193,1697,325
Raw,69,1698,325
Raw,70,1699,325
Raw,50,1702,325
Raw,188,1703,325
Raw,170,1705,325
Raw,177,1710,325
Raw,32,1711,325
Raw,171,1712,325
Raw,116,1715,325
Raw,177,1718,325
Raw,148,1720,325
Raw,3,1721,325
Raw,172,1723,325
Raw,157,1724,325
Raw,191,1725,325
Raw,137,1726,325
Raw,198,1727,325
Raw,109,1728,325
Raw,185,1729,325
Raw,35,1729,325
Raw,209,1730,325
Raw,77,1731,325
Raw,190,1732,325
Raw,53,1733,325
Raw,321,1738,325
Raw,171,1739,325
Raw,182,1740,325
Raw,185,1742,325
Raw,176,1743,325
Raw,161,1745,325
Raw,166,1748,325
Raw,7,1752,325
Raw,72,1752,325
Raw,106,1753,325
Raw,180,1756,325
Raw,98,1759,325
Raw,139,1762,325
Raw,181,1767,325
Raw,183,1770,325
Raw,186,1771,325
Raw,169,1774,325
Raw,180,1780,325
Raw,229,1781,325
Raw,99,1783,325
Raw,132,1784,325
Raw,59,1785,325
Raw,150,1789,325
Raw,164,1790,325
Raw,188,1791,325
Raw,182,1793,325
Raw,139,1794,325
Raw,170,1795,325
Raw,188,1797,325
Raw,181,1798,325
Raw,134,1800,325
Raw,204,1801,325
Raw,169,1802,325
Raw,144,1804,325
Raw,178,1805,325
Raw,187,1806,325
Raw,26,1807,325
Raw,142,1810,325
Raw,188,1811,325
Raw,146,1812,325
Raw,203,1816,325
Raw,176,1817,325
Raw,200,1818,325
Raw,150,1819,325
Raw,231,1820,325
Raw,195,1823,325
Raw,198,1824,325
Raw,160,1827,325
Raw,59,1829,325
Raw,196,1831,325
Raw,176,1834,325
Raw,155,1836,325
Raw,159,1842,325
Raw,211,1843,325
Raw,156,1844,325
Raw,166,1845,325
Raw,189,1849,325
Raw,165,1850,325
Raw,183,1852,325
Raw,188,1854,325
Raw,106,1861,325
Raw,173,1862,325
Raw,162,1864,325
Raw,176,1865,325
Raw,182,1866,325
Raw,172,1868,325
Raw,136,1869,325
Raw,171,1871,325
Raw,122,1874,325
Raw,197,1875,325
Raw,113,1877,325
Raw,61,1879,325
Raw,143,1880,325
Raw,110,1882,325
Raw,188,1883,325
Raw,100,1884,325
Raw,198,1886,325
Raw,112,1887,325
Raw,141,1889,325
Raw,155,1890,325
Raw,153,1891,325
Raw,164,1893,325
Raw,108,1896,325
Raw,150,1898,325
Raw,113,1899,325
Raw,165,1900,325
Raw,81,1901,325
Raw,181,1902,325
Raw,81,1904,325
Raw,190,1905,325
Raw,207,1910,325
Raw,58,1911,325
Raw,134,1912,325
Raw,94,1915,325
Raw,192,1916,325
Raw,11,1917,325
Raw,118,1918,325
Raw,184,1920,325
Raw,217,1921,325
Raw,169,1923,325
Raw,93,1925,325
Raw,188,1926,325
Raw,152,1927,325
Raw,170,1928,325
Raw,183,1929,325
Raw,161,1930,325
Raw,52,1932,325
Raw,159,1933,325
Raw,183,1935,325
Raw,173,1936,325
Raw,171,1937,325
Raw,117,1938,325
Raw,191,1939,325
Raw,178,1940,325
Raw,190,1941,325
Raw,199,1942,325
Raw,167,1944,325
Raw,157,1945,325
Raw,180,1950,325
Raw,179,1951,325
Raw,51,1951,325
Raw,186,1958,325
Raw,177,1960,325
Raw,182,1961,325
Raw,184,1962,325
Raw,163,1967,325
Raw,164,1968,325
Raw,152,1969,325
Raw,154,1970,325
Raw,124,1972,325
Raw,172,1973,325
Raw,77,1974,325
Raw,148,1975,325
Raw,170,1976,325
Raw,109,1977,325
Raw,179,1979,325
Raw,163,1980,325
Raw,149,1981,325
Raw,189,1982,325
Raw,105,1983,325
Raw,82,1991,325
Raw,195,1993,325
Raw,184,1994,325
Raw,178,1995,325
Raw,26,1997,325
Raw,110,2000,325
Raw,149,2001,325
Raw,329,2002,325
Raw,173,2007,325
Raw,162,2012,325
Raw,61,2016,325
Raw,170,2017,325
Raw,98,2020,325
Raw,153,2022,325
Raw,176,2023,325
Raw,194,2025,325
Raw,71,2026,325
Raw,171,2032,325
Raw,189,2037,325
Raw,159,2040,325
Raw,173,2041,325
Raw,162,2042,325
Raw,189,2043,325
Raw,170,2044,325
Raw,67,2046,325
Raw,206,2047,325
Raw,56,2048,325
Raw,71,2049,325
Raw,143,2053,325
Raw,199,2054,325
Raw,189,2055,325
Raw,167,2058,325
Raw,146,2062,325
Raw,43,2062,325
Raw,200,2063,325
Raw,163,2067,325
Raw,185,2069,325
Raw,186,2070,325
Raw,274,2072,325
Raw,184,2075,325
Raw,223,2076,325
Raw,177,2077,325
Raw,189,2078,325
Raw,193,2079,325
Raw,177,2083,325
Raw,185,2084,325
Raw,178,2085,325
Raw,167,2087,325
Raw,199,2089,325
Raw,178,2093,325
Raw,156,2095,325
Raw,145,2098,325
Raw,219,2100,325
Raw,177,2101,325
Raw,123,2102,325
Raw,37,2103,325
Raw,177,2104,325
Raw,217,2105,325
Raw,176,2106,325
Raw,160,2108,325
Raw,190,2113,325
Raw,167,2115,325
Raw,173,2118,325
Raw,180,2119,325
Raw,194,2120,325
Raw,65,2121,325
Raw,199,2122,325
Raw,103,2125,325
Raw,183,2127,325
Raw,85,2130,325
Raw,73,2132,325
Raw,155,2133,325
Raw,441,2135,325
Raw,73,2136,325
Raw,176,2137,325
Raw,89,2139,325
Raw,176,2140,325
Raw,150,2141,325
Raw,162,2142,325
Raw,391,2144,325
Raw,194,2146,325
Raw,250,2149,325
Raw,189,2150,325
Raw,177,2153,325
Raw,146,2154,325
Raw,62,2158,325
Raw,149,2163,325
Raw,29,2164,325
Raw,142,2166,325
Raw,105,2167,325
Raw,170,2169,325
Raw,156,2170,325
Raw,102,2172,325
Raw,179,2173,325
Raw,180,2174,325
Raw,169,2176,325
Raw,159,2178,325
Raw,181,2181,325
Raw,178,2184,325
Raw,186,2185,325
Raw,136,2187,325
Raw,81,2189,325
Raw,150,2191,325
Raw,222,2194,325
Raw,196,2195,325
Raw,70,2198,325
Raw,164,2199,325
Raw,168,2202,325
Raw,198,2203,325
Raw,184,2204,325
Raw,118,2205,325
Raw,180,2206,325
Raw,137,2207,325
Raw,48,2208,325
Raw,176,2211,325
Raw,187,2212,325
Raw,178,2215,325
Raw,183,2216,325
Raw,178,2217,325
Raw,196,2218,325
Raw,190,2220,325
Raw,187,2222,325
Raw,111,2224,325
Raw,157,2227,325
Raw,130,2228,325
Raw,182,2231,325
Raw,224,2232,325
Raw,196,2233,325
Raw,169,2234,325
Raw,133,2238,325
Raw,183,2239,325
Raw,202,2241,325
Raw,192,2245,325
Raw,213,2247,325
Raw,78,2250,325
Raw,221,2251,325
Raw,132,2252,325
Raw,177,2253,325
Raw,175,2256,325
Raw,174,2257,325
Raw,22,2258,325
Raw,3,2259,325
Raw,165,2260,325
Raw,215,2261,325
Raw,194,2264,325
Raw,5,2266,325
Raw,169,2268,325
Raw,155,2270,325
Raw,173,2271,325
Raw,206,2272,325
Raw,54,2275,325
Raw,181,2276,325
Raw,175,2277,325
Raw,64,2282,325
Raw,164,2285,325
Raw,141,2287,325
Raw,507,2288,325
Raw,105,2288,325
Raw,159,2289,325
Raw,176,2291,325
Raw,201,2300,325
Raw,189,2303,325
Raw,50,2305,325
Raw,178,2311,325
Raw,38,2313,325
Raw,186,2316,325
Raw,170,2319,325
Raw,58,2320,325
Raw,203,2322,325
Raw,192,2324,325
Raw,187,2325,325
Raw,199,2326,325
Raw,207,2327,325
Raw,202,2329,325
Raw,192,2330,325
Raw,59,2331,325
Raw,164,2333,325
Raw,193,2334,325
Raw,53,2339,325
Raw,98,2344,325
Raw,170,2346,325
Raw,174,2348,325
Raw,163,2349,325
Raw,171,2351,325
Raw,173,2352,325
Raw,186,2353,325
Raw,67,2356,325
Raw,61,2357,325
Raw,195,2358,325
Raw,179,2362,325
Raw,147,2364,325
Raw,138,2366,325
Raw,153,2371,325
Raw,150,2380,325
Raw,140,2383,325
Raw,216,2386,325
Raw,166,2389,325
Raw,180,2400,325
Raw,194,2403,325
Raw,188,2404,325
Raw,185,2405,325
Raw,176,2406,325
Raw,123,2408,325
Raw,177,2409,325
Raw,183,2412,325
Raw,57,2415,325
Raw,169,2416,325
Raw,90,2417,325
Raw,61,2418,325
Raw,159,2419,325
Raw,61,2420,325
Raw,196,2422,325
Raw,138,2423,325
Raw,183,2424,325
Raw,150,2425,325
Raw,178,2426,325
Raw,48,2428,325
Raw,223,2429,325
Raw,178,2431,325
Raw,178,2435,325
Raw,177,2436,325
Raw,131,2437,325
Raw,131,2438,325
Raw,156,2439,325
Raw,173,2440,325
Raw,177,2441,325
Raw,19,2442,325
Raw,149,2446,325
Raw,114,2448,325
Raw,188,2450,325
Raw,153,2451,325
Raw,56,2455,325
Raw,197,2456,325
Raw,188,2457,325
Raw,116,2458,325
Raw,165,2459,325
Raw,116,2461,325
Raw,140,2462,325
Raw,178,2463,325
Raw,74,2464,325
Raw,32,2465,325
Raw,125,2467,325
Raw,175,2468,325
Raw,186,2471,325
Raw,178,2475,325
Raw,141,2477,325
Raw,104,2478,325
Raw,142,2481,325
Raw,207,2482,325
Raw,60,2485,325
Raw,19,2486,325
Raw,173,2488,325
Raw,142,2489,325
Raw,198,2490,325
Raw,148,2491,325
Raw,190,2492,325
Raw,185,2493,325
Raw,150,2494,325
Raw,163,2495,325
Raw,145,2496,325
Raw,131,2497,325
Raw,178,2498,325
Raw,42,2499,325
Raw,6,2501,325
Raw,131,2501,325
Raw,202,2502,325
Raw,65,2504,325
Raw,20,2505,325
Raw,174,2506,325
Raw,136,2507,325
Raw,55,2509,325
Raw,82,2510,325
Raw,190,2513,325
Raw,171,2514,325
Raw,181,2515,325
Raw,208,2518,325
Raw,149,2520,325
Raw,198,2521,325
Raw,168,2524,325
Raw,32,2526,325
Raw,181,2529,325
Raw,184,2530,325
Raw,168,2539,325
Raw,194,2543,325
Raw,158,2544,325
Raw,155,2545,325
Raw,193,2546,325
Raw,48,2547,325
Raw,144,2549,325
Raw,194,2550,325
Raw,173,2551,325
Raw,190,2552,325
Raw,175,2555,325
Raw,156,2556,325
Raw,188,2557,325
Raw,210,2559,325
Raw,175,2564,325
Raw,183,2566,325
Raw,109,2567,325
Raw,170,2572,325
Raw,169,2573,325
Raw,163,2574,325
Raw,165,2577,325
Raw,161,2580,325
Raw,166,2581,325
Raw,175,2583,325
Raw,343,2584,325
Raw,156,2587,325
Raw,160,2588,325
Raw,170,2589,325
Raw,113,2594,325
Raw,159,2595,325
Raw,121,2596,325
Raw,231,2602,325
Raw,185,2603,325
Raw,76,2605,325
Raw,140,2608,325
Raw,135,2609,325
Raw,212,2610,325
Raw,194,2613,325
Raw,65,2614,325
Raw,186,2616,325
Raw,106,2617,325
Raw,136,2618,325
Raw,175,2621,325
Raw,144,2622,325
Raw,162,2625,325
Raw,193,2626,325
Raw,159,2628,325
Raw,200,2634,325
Raw,89,2635,325
Raw,162,2637,325
Raw,184,2638,325
Raw,186,2642,325
Raw,65,2645,325
Raw,166,2647,325
Raw,192,2648,325
Raw,169,2650,325
Raw,132,2653,325
Raw,136,2654,325
Raw,167,2656,325
Raw,177,2659,325
Raw,189,2660,325
Raw,138,2661,325
Raw,152,2662,325
Raw,163,2663,325
Raw,176,2666,325
Raw,95,2667,325
Raw,167,2668,325
Raw,146,2670,325
Raw,193,2671,325
Raw,64,2673,325
Raw,178,2675,325
Raw,96,2678,325
Raw,141,2680,325
Raw,187,2684,325
Raw,174,2686,325
Raw,181,2687,325
Raw,206,2688,325
Raw,189,2693,325
Raw,116,2693,325
Raw,195,2695,325
Raw,187,2696,325
Raw,188,2699,325
Raw,185,2700,325
Raw,183,2702,325
Raw,212,2705,325
Raw,193,2706,325
Raw,201,2709,325
Raw,134,2710,325
Raw,163,2713,325
Raw,184,2714,325
Raw,172,2715,325
Raw,149,2717,325
Raw,181,2718,325
Raw,58,2720,325
Raw,177,2721,325
Raw,167,2726,325
Raw,73,2727,325
Raw,67,2731,325
Raw,131,2732,325
Raw,94,2737,325
Raw,22,2739,325
Raw,68,2741,325
Raw,172,2743,325
Raw,118,2744,325
Raw,176,2745,325
Raw,165,2749,325
Raw,159,2752,325
Raw,184,2753,325
Raw,201,2754,325
Raw,54,2755,325
Raw,191,2777,325
Raw,157,2780,325
Raw,167,2782,325
Raw,82,2784,325
Raw,140,2785,325
Raw,117,2791,325
Raw,60,2792,325
Raw,188,2793,325
Raw,191,2794,325
Raw,174,2795,325
Raw,214,2797,325
Raw,180,2799,325
Raw,160,2800,325
Raw,166,2802,325
Raw,206,2803,325
Raw,182,2805,325
Raw,194,2806,325
Raw,159,2810,325
Raw,186,2813,325
Raw,184,2814,325
Raw,68,2815,325
Raw,467,2817,325
Raw,180,2818,325
Raw,183,2819,325
Raw,159,2823,325
Raw,208,2824,325
Raw,3,2827,325
Raw,145,2829,325
Raw,197,2833,325
Raw,175,2834,325
Raw,163,2835,325
Raw,165,2836,325
Raw,155,2837,325
Raw,181,2838,325
Raw,164,2840,325
Raw,145,2841,325
Raw,86,2843,325
Raw,172,2848,325
Raw,156,2849,325
Raw,189,2851,325
Raw,334,2852,325
Raw,104,2854,325
Raw,67,2855,325
Raw,169,2856,325
Raw,193,2859,325
Raw,160,2860,325
Raw,177,2861,325
Raw,183,2862,325
Raw,185,2865,325
Raw,152,2866,325
Raw,164,2868,325
Raw,139,2870,325
Raw,169,2871,325
Raw,172,2872,325
Raw,175,2874,325
Raw,215,2875,325
Raw,13,2877,325
Raw,158,2878,325
Raw,167,2882,325
Raw,90,2884,325
Raw,141,2886,325
Raw,180,2887,325
Raw,162,2889,325
Raw,168,2892,325
Raw,55,2893,325
Raw,116,2893,325
Raw,169,2896,325
Raw,143,2898,325
Raw,184,2899,325
Raw,161,2902,325
Raw,160,2903,325
Raw,177,2904,325
Raw,173,2908,325
Raw,197,2909,325
Raw,195,2912,325
Raw,242,2915,325
Raw,183,2916,325
Raw,179,2922,325
Raw,193,2923,325
Raw,173,2927,325
Raw,168,2928,325
Raw,158,2932,325
Raw,140,2933,325
Raw,140,2934,325
Raw,180,2935,325
Raw,119,2935,325
Raw,176,2937,325
Raw,153,2938,325
Raw,190,2939,325
Raw,191,2942,325
Raw,206,2943,325
Raw,218,2944,325
Raw,157,2946,325
Raw,161,2947,325
Raw,175,2950,325
Raw,195,2955,325
Raw,217,2957,325
Raw,164,2958,325
Raw,162,2962,325
Raw,96,2964,325
Raw,178,2966,325
Raw,188,2967,325
Raw,177,2969,325
Raw,175,2970,325
Raw,160,2972,325
Raw,199,2973,325
Raw,166,2976,325
Raw,187,2980,325
Raw,182,2983,325
Raw,183,2990,325
Raw,167,2991,325
Raw,113,2994,325
Raw,143,2995,325
Raw,204,2996,325
Raw,163,2999,325
Raw,60,3000,325
Raw,51,3002,325
Raw,194,3004,325
Raw,205,3006,325
Raw,204,3007,325
Raw,179,3009,325
Raw,185,3011,325
Raw,56,3013,325
Raw,174,3014,325
Raw,194,3015,325
Raw,101,3017,325
Raw,182,3019,325
Raw,157,3020,325
Raw,121,3022,325
Raw,187,3026,325
Raw,140,3027,325
Raw,90,3028,325
Raw,179,3031,325
Raw,116,3032,325
Raw,204,3033,325
Raw,156,3035,325
Raw,150,3036,325
Raw,132,3037,325
Raw,34,3038,325
Raw,93,3040,325
Raw,19,3041,325
Raw,120,3042,325
Raw,196,3044,325
Raw,173,3049,325
Raw,179,3050,325
Raw,156,3051,325
Raw,56,3052,325
Raw,147,3053,325
Raw,84,3054,325
Raw,173,3056,325
Raw,187,3057,325
Raw,161,3058,325
Raw,511,3059,325
Raw,183,3060,325
Raw,171,3062,325
Raw,130,3064,325
Raw,36,3067,325
Raw,170,3068,325
Raw,176,3069,325
Raw,36,3070,325
Raw,73,3071,325
Raw,150,3072,325
Raw,196,3074,325
Raw,71,3076,325
Raw,143,3077,325
Raw,42,3078,325
Raw,130,3085,325
Raw,190,3091,325
Raw,58,3093,325
Raw,170,3097,325
Raw,72,3101,325
Raw,42,3103,325
Raw,166,3104,325
Raw,350,3106,325
Raw,162,3107,325
Raw,183,3109,325
Raw,133,3110,325
Raw,195,3111,325
Raw,152,3113,325
Raw,159,3114,325
Raw,160,3116,325
Raw,189,3117,325
Raw,138,3121,325
Raw,187,3122,325
Raw,183,3126,325
Raw,84,3127,325
Raw,185,3128,325
Raw,180,3129,325
Raw,193,3132,325
Raw,30,3132,325
Raw,197,3134,325
Raw,197,3135,325
Raw,113,3136,325
Raw,188,3137,325
Raw,187,3140,325
Raw,207,3142,325
Raw,165,3145,325
Raw,191,3148,325
Raw,187,3150,325
Raw,176,3152,325
Raw,19,3152,325
Raw,163,3153,325
Raw,75,3154,325
Raw,195,3159,325
Raw,169,3161,325
Raw,184,3162,325
Raw,14,3164,325
Raw,172,3165,325
Raw,50,3165,325
Raw,184,3166,325
Raw,188,3167,325
Raw,172,3170,325
Raw,56,3170,325
Raw,230,3173,325
Raw,71,3176,325
Raw,161,3177,325
Raw,186,3179,325
Raw,182,3181,325
Raw,19,3181,325
Raw,189,3185,325
Raw,191,3186,325
Raw,66,3189,325
Raw,185,3191,325
Raw,99,3192,325
Raw,183,3193,325
Raw,167,3194,325
Raw,165,3195,325
Raw,76,3196,325
Raw,183,3198,325
Raw,177,3200,325
Raw,165,3201,325
Raw,59,3205,325
Raw,197,3206,325
Raw,185,3207,325
Raw,182,3208,325
Raw,187,3209,325
Raw,150,3210,325
Raw,176,3212,325
Raw,209,3213,325
Raw,172,3215,325
Raw,113,3220,325
Raw,202,3224,325
Raw,49,3226,325
Raw,136,3228,325
Raw,119,3230,325
Raw,186,3231,325
Raw,49,3231,325
Raw,177,3233,325
Raw,183,3235,325
Raw,170,3237,325
Raw,175,3239,325
Raw,168,3240,325
Raw,171,3243,325
Raw,110,3244,325
Raw,183,3246,325
Raw,185,3247,325
Raw,162,3248,325
Raw,109,3249,325
Raw,156,3251,325
Raw,288,3253,325
Raw,167,3254,325
Raw,203,3256,325
Raw,73,3260,325
Raw,201,3261,325
Raw,171,3262,325
Raw,147,3264,325
Raw,63,3265,325
Raw,163,3267,325
Raw,158,3268,325
Raw,16,3270,325
Raw,190,3272,325
Raw,183,3276,325
Raw,172,3278,325
Raw,201,3281,325
Raw,175,3282,325
Raw,157,3283,325
Raw,98,3284,325
Raw,114,3285,325
Raw,170,3288,325
Raw,99,3289,325
Raw,79,3290,325
Raw,173,3291,325
Raw,167,3292,325
Raw,107,3293,325
Raw,211,3294,325
Raw,202,3295,325
Raw,133,3297,325
Raw,106,3299,325
Raw,196,3303,325
Raw,21,3306,325
Raw,173,3311,325
Raw,180,3316,325
Raw,175,3317,325
Raw,188,3319,325
Raw,114,3320,325
Raw,134,3323,325
Raw,179,3325,325
Raw,4,3326,325
Raw,185,3330,325
Raw,174,3331,325
Raw,199,3332,325
Raw,165,3333,325
Raw,151,3334,325
Raw,163,3336,325
Raw,191,3337,325
Raw,107,3338,325
Raw,185,3340,325
Raw,153,3342,325
Raw,191,3343,325
Raw,162,3346,325
Raw,181,3348,325
Raw,125,3349,325
Raw,292,3360,325
Raw,93,3361,325
Raw,95,3362,325
Raw,163,3363,325
Raw,16,3364,325
Raw,180,3365,325
Raw,191,3366,325
Raw,205,3370,325
Raw,183,3374,325
Raw,126,3375,325
Raw,201,3376,325
Raw,184,3378,325
Raw,54,3378,325
Raw,122,3380,325
Raw,80,3381,325
Raw,191,3382,325
Raw,167,3383,325
Raw,178,3385,325
Raw,164,3389,325
Raw,191,3390,325
Raw,180,3392,325
Raw,121,3393,325
Raw,121,3394,325
Raw,171,3395,325
Raw,154,3396,325
Raw,191,3397,325
Raw,186,3398,325
Raw,124,3399,325
Raw,142,3401,325
Raw,193,3402,325
Raw,98,3403,325
Raw,192,3404,325
Raw,18,3407,325
Raw,154,3409,325
Raw,196,3411,325
Raw,112,3412,325
Raw,157,3414,325
Raw,127,3416,325
Raw,57,3417,325
Raw,179,3418,325
Raw,102,3419,325
Raw,130,3420,325
Raw,184,3421,325
Raw,170,3422,325
Raw,179,3423,325
Raw,167,3425,325
Raw,78,3431,325
Raw,179,3432,325
Raw,163,3434,325
Raw,67,3436,325
Raw,175,3437,325
Raw,176,3443,325
Raw,170,3444,325
Raw,167,3445,325
Raw,172,3446,325
Raw,178,3447,325
Raw,173,3449,325
Raw,162,3451,325
Raw,189,3454,325
Raw,179,3458,325
Raw,196,3460,325
Raw,58,3461,325
Raw,175,3462,325
Raw,175,3468,325
Raw,189,3471,325
Raw,178,3473,325
Raw,64,3474,325
Raw,101,3475,325
Raw,70,3477,325
Raw,62,3478,325
Raw,134,3480,325
Raw,171,3484,325
Raw,180,3485,325
Raw,179,3486,325
Raw,147,3488,325
Raw,179,3489,325
Raw,87,3491,325
Raw,164,3500,325
Raw,169,3501,325
Raw,166,3502,325
Raw,215,3504,325
Raw,206,3505,325
Raw,188,3507,325
Raw,15,3515,325
Raw,96,3516,325
Raw,183,3517,325
Raw,198,3521,325
Raw,193,3522,325
Raw,183,3526,325
Raw,39,3529,325
Raw,177,3530,325
Raw,147,3531,325
Raw,169,3533,325
Raw,96,3534,325
Raw,188,3540,325
Raw,200,3542,325
Raw,160,3548,325
Raw,61,3549,325
Raw,108,3551,325
Raw,178,3552,325
Raw,148,3554,325
Raw,166,3557,325
Raw,185,3560,325
Raw,169,3561,325
Raw,323,3563,325
Raw,176,3564,325
Raw,35,3566,325
Raw,71,3568,325
Raw,139,3569,325
Raw,167,3574,325
Raw,128,3576,325
Raw,201,3579,325
Raw,206,3581,325
Raw,174,3582,325
Raw,142,3583,325
Raw,222,3585,325
Raw,184,3590,325
Raw,132,3592,325
Raw,179,3593,325
Raw,177,3597,325
Raw,52,3598,325
Raw,131,3600,325
Raw,182,3603,325
Raw,181,3604,325
Raw,165,3606,325
Raw,204,3607,325
Raw,201,3615,325
Raw,179,3617,325
Raw,172,3619,325
Raw,171,3622,325
Raw,173,3623,325
Raw,165,3625,325
Raw,204,3626,325
Raw,154,3627,325
Raw,185,3632,325
Raw,128,3638,325
Raw,200,3639,325
Raw,206,3640,325
Raw,4,3640,325
Raw,166,3642,325
Raw,66,3644,325
Raw,186,3647,325
Raw,166,3649,325
Raw,128,3651,325
Raw,169,3653,325
Raw,123,3654,325
Raw,99,3658,325
Raw,49,3659,325
Raw,165,3660,325
Raw,178,3662,325
Raw,171,3663,325
Raw,200,3665,325
Raw,62,3667,325
Raw,168,3670,325
Raw,231,3671,325
Raw,167,3676,325
Raw,179,3678,325
Raw,33,3680,325
Raw,126,3683,325
Raw,56,3687,325
Raw,190,3688,325
Raw,203,3694,325
Raw,111,3695,325
Raw,143,3698,325
Raw,94,3699,325
Raw,178,3704,325
Raw,125,3705,325
Raw,192,3706,325
Raw,177,3708,325
Raw,176,3718,325
Raw,64,3719,325
Raw,36,3722,325
Raw,182,3723,325
Raw,190,3729,325
Raw,35,3730,325
Raw,195,3731,325
Raw,209,3733,325
Raw,153,3734,325
Raw,181,3735,325
Raw,492,3738,325
Raw,115,3741,325
Raw,181,3750,325
Raw,174,3752,325
Raw,124,3755,325
Raw,170,3756,325
Raw,157,3759,325
Raw,172,3765,325
Raw,171,3766,325
Raw,156,3767,325
Raw,144,3769,325
Raw,180,3772,325
Raw,149,3778,325
Raw,178,3783,325
Raw,73,3784,325
Raw,179,3788,325
Raw,179,3805,325
Raw,178,3807,325
Raw,200,3813,325
Raw,205,3814,325
Raw,155,3820,325
Raw,105,3821,325
Raw,38,3822,325
Raw,174,3829,325
Raw,170,3832,325
Raw,113,3835,325
Raw,189,3836,325
Raw,112,3842,325
Raw,168,3845,325
Raw,262,3846,325
Raw,152,3847,325
Raw,148,3849,325
Raw,194,3850,325
Raw,195,3851,325
Raw,155,3852,325
Raw,154,3853,325
Raw,199,3854,325
Raw,176,3855,325
Raw,62,3856,325
Raw,140,3857,325
Raw,160,3858,325
Raw,142,3859,325
Raw,180,3860,325
Raw,215,3861,325
Raw,173,3862,325
Raw,191,3863,325
Raw,90,3864,325
Raw,184,3866,325
Raw,185,3867,325
Raw,154,3868,325
Raw,217,3869,325
Raw,63,3870,325
Raw,172,3871,325
Raw,113,3872,325
Raw,169,3873,325
Raw,193,3874,325
Raw,156,3876,325
Raw,164,3877,325
Raw,170,3878,325
Raw,209,3879,325
Raw,170,3880,325
Raw,168,3881,325
Raw,54,3881,325
Raw,166,3882,325
Raw,79,3883,325
Raw,117,3884,325
Raw,200,3885,325
Raw,180,3886,325
Raw,164,3887,325
Raw,150,3888,325
Raw,181,3889,325
Raw,170,3890,325
Raw,181,3891,325
Raw,197,3892,325
Raw,181,3893,325
Raw,56,3894,325
Raw,161,3895,325
Raw,109,3897,325
Raw,189,3898,325
Raw,182,3899,325
Raw,68,3900,325
Raw,89,3901,325
Raw,190,3902,325
Raw,193,3903,325
Raw,180,3904,325
Raw,117,3906,325
Raw,162,3907,325
Raw,58,3907,325
Raw,176,3908,325
Raw,180,3910,325
Raw,155,3911,325
Raw,56,3912,325
Raw,198,3914,325
Raw,170,3915,325
Raw,192,3916,325
Raw,55,3917,325
Raw,68,3918,325
Raw,125,3919,325
Raw,122,3920,325
Raw,160,3921,325
Raw,196,3922,325
Raw,200,3923,325
Raw,446,3924,325
Raw,76,3925,325
Raw,184,3927,325
Raw,147,3928,325
Raw,184,3929,325
Raw,174,3930,325
Raw,181,3931,325
Raw,177,3932,325
Raw,76,3933,325
Raw,184,3934,325
Raw,93,3935,325
Raw,70,3936,325
Raw,142,3937,325
Raw,83,3938,325
Raw,144,3939,325
Raw,189,3940,325
Raw,175,3941,325
Raw,202,3942,325
Raw,211,3943,325
Raw,96,3944,325
Raw,135,3945,325
Raw,60,3946,325
Raw,177,3947,325
Raw,167,3948,325
Raw,185,3949,325
Raw,143,3950,325
Raw,170,3951,325
Raw,192,3952,325
Raw,167,3953,325
Raw,167,3954,325
Raw,30,3954,325
Raw,7,3955,325
Raw,171,3956,325
Raw,39,3956,325
Raw,172,3957,325
Raw,189,3958,325
Raw,188,3959,325
Raw,178,3961,325
Raw,176,3962,325
Raw,188,3963,325
Raw,182,3964,325
Raw,197,3965,325
Raw,206,3966,325
Raw,172,3967,325
Raw,100,3968,325
Raw,148,3969,325
Raw,230,3971,325
Raw,194,3972,325
Raw,176,3973,325
Raw,145,3974,325
Raw,147,3975,325
Raw,87,3976,325
Raw,109,3977,325
Raw,174,3978,325
Raw,176,3979,325
Raw,194,3980,325
Raw,166,3981,325
Raw,169,3982,325
Raw,186,3983,325
Raw,192,3984,325
Raw,208,3985,325
Raw,186,3986,325
Raw,186,3987,325
Raw,83,3988,325
Raw,100,3989,325
Raw,126,3990,325
Raw,57,3991,325
Raw,109,3992,325
Raw,229,3993,325
Raw,184,3994,325
Raw,177,3995,325
Raw,153,3996,325
Raw,163,3997,325
Raw,227,3998,325
Raw,174,3999,325
Raw,197,4000,325
Raw,162,4001,325
Raw,83,4002,325
Raw,194,4003,325
Raw,85,4004,325
Raw,140,4005,325
Raw,58,4006,325
Raw,184,4007,325
Raw,182,4008,325
Raw,196,4009,325
Raw,174,4010,325
Raw,180,4011,325
Raw,188,4012,325
Raw,156,4013,325
Raw,190,4014,325
Raw,200,4015,325
Raw,181,4016,325
Raw,343,4017,325
Raw,167,4018,325
Raw,192,4019,325
Raw,198,4020,325
Raw,171,4021,325
Raw,191,4022,325
Raw,181,4025,325
Raw,186,4026,325
Raw,178,4027,325
Raw,276,4028,325
Raw,159,4029,325
Raw,202,4030,325
Raw,170,4031,325
Raw,158,4032,325
Raw,245,4033,325
Raw,203,4034,325
Raw,176,4035,325
Raw,115,4036,325
Raw,62,4038,325
Raw,173,4039,325
Raw,163,4040,325
Raw,117,4041,325
Raw,122,4042,325
Raw,184,4043,325
Raw,189,4044,325
Raw,188,4045,325
Raw,187,4046,325
Raw,201,4047,325
Raw,175,4048,325
Raw,150,4049,325
Raw,113,4050,325
Raw,193,4051,325
Raw,174,4052,325
Raw,167,4053,325
Raw,189,4054,325
Raw,166,4055,325
Raw,198,4056,325
Raw,142,4057,325
Raw,115,4058,325
Raw,186,4060,325
Raw,168,4061,325
Raw,170,4062,325
Raw,202,4063,325
Raw,94,4064,325
Raw,177,4065,325
Raw,44,4065,325
Raw,74,4067,325
Raw,73,4068,325
Raw,152,4069,325
Raw,144,4070,325
Raw,149,4071,325
Raw,205,4072,325
Raw,179,4073,325
Raw,43,4073,325
Raw,195,4074,325
Raw,174,4075,325
Raw,186,4076,325
Raw,75,4077,325
Raw,188,4078,325
Raw,176,4079,325
Raw,179,4080,325
Raw,163,4081,325
Raw,176,4082,325
Raw,164,4083,325
Raw,52,4083,325
Raw,159,4084,325
Raw,209,4085,325
Raw,161,4086,325
Raw,131,4087,325
Raw,185,4088,325
Raw,164,4089,325
Raw,190,4090,325
Raw,211,4091,325
Raw,181,4092,325
Raw,183,4093,325
Raw,184,4094,325
Raw,131,4095,325
Raw,120,4096,325
Raw,160,4097,325
Raw,197,4098,325
Raw,194,4099,325
Raw,90,4101,325
Raw,132,4102,325
Raw,126,4103,325
Raw,201,4104,325
Raw,161,4105,325
Raw,162,4106,325
Raw,179,4107,325
Raw,169,4108,325
Raw,188,4109,325
Raw,165,4110,325
Raw,156,4111,325
Raw,185,4112,325
Raw,162,4113,325
Raw,207,4114,325
Raw,177,4115,325
Raw,165,4116,325
Raw,137,4117,325
Raw,162,4118,325
Raw,157,4119,325
Raw,78,4120,325
Raw,171,4121,325
Raw,167,4122,325
Raw,175,4123,325
Raw,123,4124,325
Raw,70,4125,325
Raw,173,4126,325
Raw,187,4127,325
Raw,73,4128,325
Raw,175,4129,325
Raw,174,4130,325
Raw,149,4131,325
Raw,148,4132,325
Raw,174,4133,325
Raw,64,4134,325
Raw,67,4135,325
Raw,191,4136,325
Raw,191,4137,325
Raw,198,4138,325
Raw,202,4139,325
Raw,129,4140,325
Raw,161,4141,325
Raw,183,4142,325
Raw,171,4143,325
Raw,171,4144,325
Raw,122,4145,325
Raw,74,4146,325
Raw,93,4146,325
Raw,165,4147,325
Raw,162,4148,325
Raw,186,4149,325
Raw,79,4150,325
Raw,196,4151,325
Raw,184,4152,325
Raw,183,4153,325
Raw,216,4154,325
Raw,243,4155,325
Raw,183,4156,325
Raw,252,4157,325
Raw,184,4158,325
Raw,94,4159,325
Raw,193,4160,325
Raw,180,4161,325
Raw,129,4163,325
Raw,85,4164,325
Raw,89,4165,325
Raw,203,4167,325
Raw,171,4168,325
Raw,203,4169,325
Raw,87,4170,325
Raw,188,4171,325
Raw,163,4172,325
Raw,191,4173,325
Raw,117,4174,325
Raw,179,4175,325
Raw,192,4176,325
Raw,180,4177,325
Raw,177,4178,325
Raw,136,4179,325
Raw,165,4180,325
Raw,186,4181,325
Raw,176,4182,325
Raw,66,4183,325
Raw,169,4184,325
Raw,172,4185,325
Raw,190,4186,325
Raw,47,4186,325
Raw,164,4188,325
Raw,132,4189,325
Raw,190,4190,325
Raw,94,4191,325
Raw,198,4192,325
Raw,171,4193,325
Raw,169,4194,325
Raw,129,4195,325
Raw,169,4196,325
Raw,127,4197,325
Raw,168,4198,325
Raw,170,4199,325
Raw,172,4200,325
Raw,178,4201,325
Raw,207,4202,325
Raw,175,4203,325
Raw,192,4204,325
Raw,157,4205,325
Raw,81,4206,325
Raw,194,4207,325
Raw,169,4208,325
Raw,183,4209,325
Raw,170,4210,325
Raw,190,4211,325
Raw,86,4212,325
Raw,172,4213,325
Raw,193,4215,325
Raw,159,4216,325
Raw,52,4217,325
Raw,116,4218,325
Raw,138,4219,325
Raw,184,4220,325
Raw,178,4221,325
Raw,178,4223,325
Raw,153,4224,325
Raw,168,4225,325
Raw,72,4226,325
Raw,76,4227,325
Raw,187,4228,325
Raw,192,4229,325
Raw,173,4230,325
Raw,130,4231,325
Raw,69,4232,325
Raw,157,4233,325
Raw,205,4234,325
Raw,168,4235,325
Raw,183,4236,325
Raw,169,4237,325
Raw,173,4238,325
Raw,179,4239,325
Raw,206,4240,325
Raw,64,4241,325
Raw,183,4242,325
Raw,184,4243,325
Raw,68,4244,325
Raw,162,4245,325
Raw,199,4246,325
Raw,242,4247,325
Raw,183,4248,325
Raw,194,4249,325
Raw,74,4250,325
Raw,176,4251,325
Raw,142,4252,325
Raw,176,4253,325
Raw,180,4254,325
Raw,192,4255,325
Raw,212,4256,325
Raw,151,4257,325
Raw,176,4258,325
Raw,145,4259,325
Raw,202,4260,325
Raw,162,4261,325
Raw,168,4262,325
Raw,188,4263,325
Raw,211,4264,325
Raw,188,4265,325
Raw,180,4266,325
Raw,170,4267,325
Raw,200,4268,325
Raw,175,4269,325
Raw,189,4270,325
Raw,164,4271,325
Raw,186,4272,325
Raw,139,4273,325
Raw,176,4274,325
Raw,98,4275,325
Raw,161,4276,325
Raw,205,4277,325
Raw,134,4278,325
Raw,163,4279,325
Raw,115,4280,325
Raw,188,4281,325
Raw,196,4282,325
Raw,200,4283,325
Raw,64,4284,325
Raw,172,4285,325
Raw,166,4286,325
Raw,201,4287,325
Raw,130,4288,325
Raw,186,4289,325
Raw,111,4290,325
Raw,178,4291,325
Raw,174,4292,325
Raw,175,4293,325
Raw,184,4294,325
Raw,83,4295,325
Raw,188,4296,325
Raw,177,4297,325
Raw,176,4298,325
Raw,161,4299,325
Raw,210,4300,325
Raw,151,4301,325
Raw,196,4302,325
Raw,290,4303,325
Raw,178,4304,325
Raw,172,4305,325
Raw,188,4306,325
Raw,186,4307,325
Raw,216,4309,325
Raw,73,4310,325
Raw,133,4311,325
Raw,176,4312,325
Raw,179,4313,325
Raw,201,4314,325
Raw,45,4314,325
Raw,146,4315,325
Raw,176,4316,325
Raw,154,4317,325
Raw,170,4318,325
Raw,123,4319,325
Raw,158,4321,325
Raw,186,4323,325
Raw,168,4324,325
Raw,161,4325,325
Raw,162,4326,325
Raw,37,4326,325
Raw,89,4327,325
Raw,194,4328,325
Raw,183,4329,325
Raw,162,4330,325
Raw,174,4331,325
Raw,28,4331,325
Raw,172,4332,325
Raw,171,4333,325
Raw,205,4334,325
Raw,65,4335,325
Raw,158,4336,325
Raw,169,4337,325
Raw,185,4338,325
Raw,149,4339,325
Raw,186,4340,325
Raw,189,4341,325
Raw,164,4342,325
Raw,202,4343,325
Raw,175,4344,325
Raw,64,4345,325
Raw,141,4346,325
Raw,63,4347,325
Raw,184,4348,325
Raw,199,4349,325
Raw,169,4350,325
Raw,173,4351,325
Raw,194,4352,325
Raw,177,4353,325
Raw,164,4354,325
Raw,172,4355,325
Raw,178,4356,325
Raw,178,4357,325
Raw,199,4358,325
Raw,181,4359,325
Raw,151,4360,325
Raw,213,4361,325
Raw,181,4362,325
Raw,179,4363,325
Raw,184,4364,325
Raw,188,4365,325
Raw,67,4366,325
Raw,213,4367,325
Raw,149,4368,325
Raw,185,4369,325
Raw,164,4370,325
Raw,213,4371,325
Raw,192,4372,325
Raw,198,4373,325
Raw,160,4374,325
Raw,195,4375,325
Raw,178,4376,325
Raw,180,4377,325
Raw,86,4378,325
Raw,170,4379,325
Raw,202,4380,325
Raw,186,4381,325
Raw,185,4382,325
Raw,177,4383,325
Raw,74,4384,325
Raw,42,4384,325
Raw,65,4385,325
Raw,171,4386,325
Raw,291,4387,325
Raw,158,4388,325
Raw,153,4389,325
Raw,194,4390,325
Raw,164,4391,325
Raw,182,4392,325
Raw,186,4393,325
Raw,199,4394,325
Raw,166,4395,325
Raw,166,4396,325
Raw,144,4397,325
Raw,106,4398,325
Raw,187,4399,325
Raw,29,4400,325
Raw,163,4401,325
Raw,28,4401,325
Raw,167,4402,325
Raw,206,4403,325
Raw,166,4404,325
Raw,202,4405,325
Raw,201,4406,325
Raw,112,4407,325
Raw,180,4408,325
Raw,181,4409,325
Raw,175,4410,325
Raw,177,4411,325
Raw,169,4412,325
Raw,143,4413,325
Raw,173,4414,325
Raw,64,4415,325
Raw,178,4416,325
Raw,85,4417,325
Raw,158,4418,325
Raw,214,4419,325
Raw,202,4420,325
Raw,109,4421,325
Raw,191,4422,325
Raw,172,4423,325
Raw,130,4424,325
Raw,168,4425,325
Raw,172,4426,325
Raw,203,4427,325
Raw,179,4428,325
Raw,179,4429,325
Raw,182,4430,325
Raw,199,4431,325
Raw,168,4432,325
Raw,160,4433,325
Raw,112,4434,325
Raw,199,4435,325
Raw,244,4437,325
Raw,78,4438,325
Raw,240,4439,325
Raw,191,4440,325
Raw,112,4441,325
Raw,172,4443,325
Raw,181,4444,325
Raw,180,4445,325
Raw,197,4446,325
Raw,180,4447,325
Raw,176,4448,325
Raw,174,4450,325
Raw,193,4451,325
Raw,196,4452,325
Raw,105,4453,325
Raw,233,4454,325
Raw,193,4455,325
Raw,154,4456,325
Raw,174,4457,325
Raw,140,4458,325
Raw,176,4459,325
Raw,179,4460,325
Raw,203,4461,325
Raw,59,4462,325
Raw,101,4463,325
Raw,174,4464,325
Raw,181,4465,325
Raw,158,4466,325
Raw,157,4467,325
Raw,198,4468,325
Raw,140,4469,325
Raw,195,4470,325
Raw,207,4471,325
Raw,165,4472,325
Raw,149,4473,325
Raw,190,4474,325
Raw,170,4475,325
Raw,188,4476,325
Raw,173,4477,325
Raw,204,4479,325
Raw,189,4480,325
Raw,34,4480,325
Raw,192,4481,325
Raw,186,4482,325
Raw,129,4483,325
Raw,120,4484,325
Raw,67,4485,325
Raw,143,4486,325
Raw,187,4488,325
Raw,135,4489,325
Raw,145,4490,325
Raw,140,4491,325
Raw,162,4492,325
Raw,184,4493,325
Raw,72,4494,325
Raw,149,4497,325
Raw,179,4498,325
Raw,198,4499,325
Raw,175,4500,325
Raw,171,4501,325
Raw,156,4502,325
Raw,57,4503,325
Raw,126,4504,325
Raw,116,4505,325
Raw,170,4506,325
Raw,161,4507,325
Raw,187,4508,325
Raw,182,4509,325
Raw,188,4510,325
Raw,167,4512,325
Raw,154,4513,325
Raw,162,4514,325
Raw,80,4515,325
Raw,154,4516,325
Raw,184,4517,325
Raw,186,4518,325
Raw,169,4519,325
Raw,116,4520,325
Raw,173,4521,325
Raw,170,4522,325
Raw,105,4524,325
Raw,171,4525,325
Raw,59,4526,325
Raw,166,4527,325
Raw,87,4528,325
Raw,153,4529,325
Raw,269,4530,325
Raw,147,4531,325
Raw,164,4532,325
Raw,179,4533,325
Raw,158,4534,325
Raw,143,4535,325
Raw,182,4536,325
Raw,145,4537,325
Raw,188,4538,325
Raw,61,4539,325
Raw,194,4540,325
Raw,178,4541,325
Raw,171,4542,325
Raw,173,4543,325
Raw,83,4544,325
Raw,167,4545,325
Raw,46,4546,325
Raw,178,4547,325
Raw,96,4548,325
Raw,73,4550,325
Raw,191,4551,325
Raw,167,4552,325
Raw,181,4553,325
Raw,160,4554,325
Raw,180,4555,325
Raw,65,4556,325
Raw,142,4557,325
Raw,149,4558,325
Raw,160,4559,325
Raw,168,4560,325
Raw,181,4561,325
Raw,130,4562,325
Raw,202,4563,325
Raw,60,4565,325
Raw,175,4566,325
Raw,209,4567,325
Raw,61,4568,325
Raw,151,4569,325
Raw,200,4570,325
Raw,180,4572,325
Raw,161,4573,325
Raw,168,4574,325
Raw,158,4575,325
Raw,106,4576,325
Raw,162,4577,325
Raw,162,4578,325
Raw,147,4579,325
Raw,152,4580,325
Raw,175,4581,325
Raw,183,4582,325
Raw,189,4583,325
Raw,156,4584,325
Raw,176,4585,325
Raw,217,4586,325
Raw,90,4587,325
Raw,118,4588,325
Raw,158,4589,325
Raw,83,4590,325
Raw,147,4591,325
Raw,159,4592,325
Raw,144,4593,325
Raw,166,4594,325
Raw,171,4595,325
Raw,176,4596,325
Raw,186,4597,325
Raw,75,4598,325
Raw,172,4599,325
Raw,167,4600,325
Raw,148,4601,325
Raw,176,4602,325
Raw,162,4603,325
Raw,146,4604,325
Raw,167,4605,325
Raw,155,4606,325
Raw,146,4607,325
Raw,157,4608,325
Raw,179,4609,325
Raw,180,4610,325
Raw,82,4611,325
Raw,204,4612,325
Raw,167,4613,325
Raw,127,4614,325
Raw,151,4615,325
Raw,177,4616,325
Raw,155,4617,325
Raw,189,4618,325
Raw,160,4619,325
Raw,178,4620,325
Raw,158,4621,325
Raw,166,4622,325
Raw,185,4623,325
Raw,184,4624,325
Raw,182,4625,325
Raw,171,4626,325
Raw,166,4627,325
Raw,180,4628,325
Raw,185,4629,325
Raw,173,4631,325
Raw,186,4632,325
Raw,176,4633,325
Raw,190,4634,325
Raw,160,4635,325
Raw,188,4636,325
Raw,207,4637,325
Raw,118,4638,325
Raw,187,4639,325
Raw,196,4640,325
Raw,70,4641,325
Raw,155,4642,325
Raw,155,4643,325
Raw,181,4644,325
Raw,197,4645,325
Raw,181,4646,325
Raw,183,4647,325
Raw,138,4648,325
Raw,65,4649,325
Raw,174,4650,325
Raw,169,4652,325
Raw,206,4653,325
Raw,183,4654,325
Raw,160,4655,325
Raw,121,4656,325
Raw,173,4657,325
Raw,191,4658,325
Raw,163,4659,325
Raw,171,4660,325
Raw,113,4661,325
Raw,171,4662,325
Raw,188,4663,325
Raw,398,4664,325
Raw,165,4665,325
Raw,171,4666,325
Raw,194,4667,325
Raw,168,4668,325
Raw,192,4669,325
Raw,189,4670,325
Raw,186,4671,325
Raw,146,4672,325
Raw,171,4673,325
Raw,212,4674,325
Raw,149,4675,325
Raw,195,4676,325
Raw,164,4677,325
Raw,197,4679,325
Raw,176,4680,325
Raw,195,4681,325
Raw,155,4682,325
Raw,150,4683,325
Raw,161,4684,325
Raw,196,4685,325
Raw,161,4686,325
Raw,119,4687,325
Raw,188,4688,325
Raw,169,4689,325
Raw,205,4690,325
Raw,206,4691,325
Raw,144,4692,325
Raw,196,4693,325
Raw,183,4696,325
Raw,143,4697,325
Raw,193,4698,325
Raw,178,4699,325
Raw,202,4700,325
Raw,183,4701,325
Raw,177,4702,325
Raw,106,4703,325
Raw,176,4704,325
Raw,198,4705,325
Raw,106,4706,325
Raw,178,4708,325
Raw,185,4709,325
Raw,43,4710,325
Raw,181,4711,325
Raw,98,4712,325
Raw,239,4713,325
Raw,171,4714,325
Raw,160,4715,325
Raw,178,4716,325
Raw,178,4717,325
Raw,192,4718,325
Raw,52,4718,325
Raw,102,4719,325
Raw,56,4720,325
Raw,189,4721,325
Raw,188,4722,325
Raw,181,4723,325
Raw,194,4724,325
Raw,173,4725,325
Raw,192,4726,325
Raw,149,4727,325
Raw,165,4728,325
Raw,171,4729,325
Raw,174,4730,325
Raw,209,4731,325
Raw,192,4732,325
Raw,132,4734,325
Raw,186,4735,325
Raw,217,4736,325
Raw,179,4737,325
Raw,18,4737,325
Raw,162,4738,325
Raw,170,4739,325
Raw,153,4741,325
Raw,179,4742,325
Raw,153,4743,325
Raw,156,4744,325
Raw,168,4745,325
Raw,47,4745,325
Raw,193,4746,325
Raw,166,4747,325
Raw,154,4748,325
Raw,131,4749,325
Raw,183,4750,325
Raw,166,4751,325
Raw,161,4752,325
Raw,112,4753,325
Raw,180,4754,325
Raw,75,4755,325
Raw,78,4756,325
Raw,124,4757,325
Raw,195,4758,325
Raw,216,4759,325
Raw,153,4760,325
Raw,196,4761,325
Raw,105,4762,325
Raw,543,4763,325
Raw,179,4764,325
Raw,166,4765,325
Raw,175,4766,325
Raw,164,4767,325
Raw,85,4768,325
Raw,200,4769,325
Raw,180,4770,325
Raw,185,4771,325
Raw,155,4772,325
Raw,161,4773,325
Raw,178,4774,325
Raw,195,4775,325
Raw,191,4776,325
Raw,62,4777,325
Raw,192,4778,325
Raw,73,4780,325
Raw,170,4781,325
Raw,83,4782,325
Raw,228,4783,325
Raw,178,4784,325
Raw,170,4785,325
Raw,167,4786,325
Raw,179,4787,325
Raw,139,4788,325
Raw,177,4789,325
Raw,180,4790,325
Raw,177,4791,325
Raw,67,4792,325
Raw,177,4793,325
Raw,91,4794,325
Raw,180,4795,325
Raw,214,4796,325
Raw,191,4797,325
Raw,195,4798,325
Raw,192,4799,325
Raw,184,4800,325
Raw,163,4801,325
Raw,123,4802,325
Raw,168,4803,325
Raw,164,4804,325
Raw,101,4805,325
Raw,192,4806,325
Raw,91,4807,325
Raw,211,4808,325
Raw,55,4809,325
Raw,174,4810,325
Raw,160,4811,325
Raw,131,4812,325
Raw,152,4813,325
Raw,196,4814,325
Raw,170,4815,325
Raw,162,4816,325
Raw,84,4817,325
Raw,163,4818,325
Raw,61,4819,325
Raw,170,4820,325
Raw,79,4821,325
Raw,176,4822,325
Raw,173,4823,325
Raw,67,4825,325
Raw,158,4826,325
Raw,158,4827,325
Raw,202,4828,325
Raw,66,4829,325
Raw,174,4830,325
Raw,154,4831,325
Raw,71,4832,325
Raw,162,4833,325
Raw,175,4834,325
Raw,167,4835,325
Raw,7,4835,325
Raw,156,4836,325
Raw,181,4837,325
Raw,175,4838,325
Raw,132,4839,325
Raw,197,4840,325
Raw,141,4841,325
Raw,95,4842,325
Raw,199,4843,325
Raw,171,4844,325
Raw,79,4845,325
Raw,140,4846,325
Raw,160,4847,325
Raw,172,4848,325
Raw,150,4850,325
Raw,58,4851,325
Raw,187,4852,325
Raw,130,4853,325
Raw,55,4854,325
Raw,174,4855,325
Raw,165,4856,325
Raw,171,4857,325
Raw,178,4858,325
Raw,195,4859,325
Raw,158,4860,325
Raw,182,4861,325
Raw,200,4862,325
Raw,151,4863,325
Raw,149,4864,325
Raw,171,4866,325
Raw,163,4867,325
Raw,72,4868,325
Raw,76,4869,325
Raw,163,4870,325
Raw,186,4871,325
Raw,191,4872,325
Raw,183,4873,325
Raw,191,4874,325
Raw,178,4875,325
Raw,80,4876,325
Raw,170,4877,325
Raw,167,4878,325
Raw,183,4879,325
Raw,165,4880,325
Raw,154,4881,325
Raw,242,4882,325
Raw,187,4883,325
Raw,198,4884,325
Raw,180,4885,325
Raw,141,4886,325
Raw,176,4888,325
Raw,159,4889,325
Raw,189,4890,325
Raw,190,4891,325
Raw,165,4892,325
Raw,181,4893,325
Raw,174,4894,325
Raw,190,4895,325
Raw,201,4896,325
Raw,170,4897,325
Raw,173,4898,325
Raw,145,4899,325
Raw,149,4900,325
Raw,182,4901,325
Raw,131,4902,325
Raw,180,4903,325
Raw,87,4904,325
Raw,147,4905,325
Raw,160,4907,325
Raw,204,4908,325
Raw,178,4909,325
Raw,174,4910,325
Raw,186,4911,325
Raw,166,4912,325
Raw,179,4913,325
Raw,76,4914,325
Raw,151,4915,325
Raw,180,4916,325
Raw,174,4917,325
Raw,188,4918,325
Raw,186,4919,325
Raw,77,4920,325
Raw,184,4921,325
Raw,177,4922,325
Raw,170,4923,325
Raw,153,4924,325
Raw,68,4925,325
Raw,77,4926,325
Raw,195,4928,325
Raw,6,4929,325
Raw,70,4929,325
Raw,176,4930,325
Raw,174,4931,325
Raw,182,4933,325
Raw,448,4934,325
Raw,182,4935,325
Raw,90,4936,325
Raw,59,4937,325
Raw,175,4938,325
Raw,168,4939,325
Raw,154,4940,325
Raw,211,4941,325
Raw,206,4943,325
Raw,201,4944,325
Raw,188,4945,325
Raw,171,4946,325
Raw,185,4947,325
Raw,174,4948,325
Raw,151,4950,325
Raw,194,4951,325
Raw,167,4952,325
Raw,47,4953,325
Raw,174,4954,325
Raw,153,4955,325
Raw,167,4956,325
Raw,186,4957,325
Raw,189,4958,325
Raw,203,4959,325
Raw,160,4960,325
Raw,188,4961,325
Raw,174,4962,325
Raw,183,4963,325
Raw,214,4964,325
Raw,183,4965,325
Raw,177,4966,325
Raw,189,4967,325
Raw,208,4968,325
Raw,169,4969,325
Raw,170,4970,325
Raw,181,4971,325
Raw,172,4972,325
Raw,189,4973,325
Raw,211,4974,325
Raw,181,4975,325
Raw,152,4976,325
Raw,173,4976,325
Raw,81,4977,325
Raw,85,4978,325
Raw,90,4979,325
Raw,183,4980,325
Raw,181,4981,325
Raw,87,4982,325
Raw,178,4983,325
Raw,188,4984,325
Raw,42,4984,325
Raw,196,4985,325
Raw,145,4986,325
Raw,178,4987,325
Raw,179,4988,325
Raw,167,4989,325
Raw,64,4990,325
Raw,98,4991,325
Raw,179,4992,325
Raw,135,4993,325
Raw,69,4994,325
Raw,180,4995,325
Raw,172,4996,325
Raw,197,4997,325
Raw,61,4998,325
Raw,62,4999,325
Raw,82,5000,325
Raw,127,5001,325
Raw,185,5002,325
Raw,169,5003,325
Raw,197,5004,325
Raw,172,5005,325
Raw,172,5006,325
Raw,169,5008,325
Raw,160,5009,325
Raw,142,5010,325
Raw,177,5011,325
Raw,187,5012,325
Raw,185,5013,325
Raw,177,5014,325
Raw,186,5015,325
Raw,156,5017,325
Raw,202,5018,325
Raw,155,5019,325
Raw,5,5019,325
Raw,152,5020,325
Raw,189,5021,325
Raw,541,5022,325
Raw,121,5023,325
Raw,194,5024,325
Raw,182,5025,325
Raw,151,5026,325
Raw,145,5027,325
Raw,179,5028,325
Raw,304,5029,325
Raw,168,5030,325
Raw,183,5031,325
Raw,168,5032,325
Raw,167,5033,325
Raw,170,5034,325
Raw,178,5035,325
Raw,176,5036,325
Raw,207,5037,325
Raw,171,5038,325
Raw,164,5039,325
Raw,165,5041,325
Raw,151,5042,325
Raw,163,5043,325
Raw,199,5044,325
Raw,145,5045,325
Raw,186,5046,325
Raw,189,5047,325
Raw,197,5048,325
Raw,140,5049,325
Raw,185,5050,325
Raw,190,5051,325
Raw,191,5052,325
Raw,185,5053,325
Raw,226,5054,325
Raw,186,5055,325
Raw,169,5056,325
Raw,190,5057,325
Raw,190,5058,325
Raw,158,5059,325
Raw,77,5060,325
Raw,165,5061,325
Raw,172,5062,325
Raw,143,5063,325
Raw,180,5065,325
Raw,184,5066,325
Raw,75,5067,325
Raw,179,5068,325
Raw,153,5069,325
Raw,232,5070,325
Raw,71,5070,325
Raw,179,5071,325
Raw,183,5072,325
Raw,175,5074,325
Raw,163,5075,325
Raw,164,5076,325
Raw,172,5077,325
Raw,200,5078,325
Raw,89,5079,325
Raw,75,5080,325
Raw,179,5081,325
Raw,99,5082,325
Raw,182,5083,325
Raw,193,5084,325
Raw,167,5085,325
Raw,170,5086,325
Raw,113,5087,325
Raw,159,5088,325
Raw,174,5089,325
Raw,123,5090,325
Raw,167,5091,325
Raw,96,5092,325
Raw,86,5093,325
Raw,182,5095,325
Raw,171,5096,325
Raw,183,5097,325
Raw,246,5098,325
Raw,207,5099,325
Raw,128,5099,325
Raw,150,5100,325
Raw,179,5101,325
Raw,194,5102,325
Raw,187,5103,325
Raw,105,5104,325
Raw,166,5105,325
Raw,188,5106,325
Raw,64,5107,325
Raw,177,5108,325
Raw,192,5109,325
Raw,180,5110,325
Raw,194,5111,325
Raw,143,5112,325
Raw,178,5113,325
Raw,173,5114,325
Raw,188,5115,325
Raw,185,5116,325
Raw,179,5117,325
Raw,53,5117,325
Raw,168,5118,325
Raw,181,5119,325
Raw,172,5120,325
Raw,201,5121,325
Raw,153,5122,325
Raw,147,5123,325
Raw,175,5124,325
Raw,197,5125,325
Raw,85,5126,325
Raw,57,5127,325
Raw,170,5128,325
Raw,147,5129,325
Raw,69,5130,325
Raw,170,5131,325
Raw,143,5132,325
Raw,171,5134,325
Raw,176,5135,325
Raw,153,5136,325
Raw,170,5137,325
Raw,171,5138,325
Raw,185,5139,325
Raw,85,5140,325
Raw,210,5141,325
Raw,60,5142,325
Raw,168,5143,325
Raw,170,5144,325
Raw,97,5145,325
Raw,164,5147,325
Raw,183,5149,325
Raw,87,5150,325
Raw,137,5151,325
Raw,190,5152,325
Raw,113,5153,325
Raw,183,5154,325
Raw,199,5155,325
Raw,196,5156,325
Raw,170,5157,325
Raw,196,5158,325
Raw,190,5159,325
Raw,242,5160,325
Raw,68,5160,325
Raw,166,5161,325
Raw,166,5162,325
Raw,189,5163,325
Raw,181,5164,325
Raw,180,5166,325
Raw,86,5167,325
Raw,198,5168,325
Raw,161,5169,325
Raw,174,5170,325
Raw,138,5171,325
Raw,59,5172,325
Raw,161,5173,325
Raw,176,5174,325
Raw,166,5175,325
Raw,53,5176,325
Raw,151,5177,325
Raw,174,5178,325
Raw,151,5179,325
Raw,178,5180,325
Raw,52,5181,325
Raw,76,5182,325
Raw,95,5184,325
Raw,165,5185,325
Raw,190,5186,325
Raw,186,5187,325
Raw,173,5188,325
Raw,108,5189,325
Raw,149,5190,325
Raw,180,5191,325
Raw,170,5192,325
Raw,160,5193,325
Raw,172,5194,325
Raw,170,5195,325
Raw,177,5196,325
Raw,176,5197,325
Raw,173,5198,325
Raw,231,5199,325
Raw,191,5200,325
Raw,152,5201,325
Raw,180,5202,325
Raw,175,5203,325
Raw,147,5204,325
Raw,184,5205,325
Raw,380,5206,325
Raw,128,5207,325
Raw,164,5208,325
Raw,183,5209,325
Raw,182,5210,325
Raw,209,5211,325
Raw,62,5212,325
Raw,170,5213,325
Raw,165,5214,325
Raw,148,5215,325
Raw,109,5216,325
Raw,148,5217,325
Raw,185,5218,325
Raw,97,5219,325
Raw,65,5220,325
Raw,201,5221,325
Raw,90,5222,325
Raw,165,5223,325
Raw,152,5224,325
Raw,174,5226,325
Raw,170,5227,325
Raw,144,5228,325
Raw,57,5229,325
Raw,205,5230,325
Raw,161,5231,325
Raw,64,5232,325
Raw,169,5233,325
Raw,46,5233,325
Raw,144,5234,325
Raw,135,5235,325
Raw,65,5236,325
Raw,162,5237,325
Raw,135,5238,325
Raw,199,5239,325
Raw,176,5240,325
Raw,146,5241,325
Raw,189,5242,325
Raw,194,5243,325
Raw,145,5244,325
Raw,59,5245,325
Raw,537,5246,325
Raw,297,5246,325
Raw,493,5247,325
Raw,96,5248,325
Raw,184,5249,325
Raw,125,5250,325
Raw,189,5251,325
Raw,68,5252,325
Raw,178,5253,325
Raw,177,5254,325
Raw,179,5255,325
Raw,171,5256,325
Raw,171,5257,325
Raw,165,5258,325
Raw,161,5259,325
Raw,134,5260,325
Raw,92,5261,325
Raw,175,5262,325
Raw,182,5263,325
Raw,186,5264,325
Raw,155,5265,325
Raw,176,5266,325
Raw,49,5267,325
Raw,72,5267,325
Raw,65,5268,325
Raw,108,5269,325
Raw,184,5270,325
Raw,209,5271,325
Raw,176,5272,325
Raw,137,5273,325
Raw,200,5274,325
Raw,180,5275,325
Raw,179,5276,325
Raw,170,5277,325
Raw,180,5278,325
Raw,133,5279,325
Raw,73,5280,325
Raw,174,5281,325
Raw,204,5282,325
Raw,103,5283,325
Raw,77,5284,325
Raw,190,5285,325
Raw,175,5286,325
Raw,172,5287,325
Raw,225,5288,325
Raw,195,5289,325
Raw,176,5290,325
Raw,176,5292,325
Raw,198,5293,325
Raw,166,5294,325
Raw,193,5295,325
Raw,161,5296,325
Raw,182,5297,325
Raw,53,5297,325
Raw,175,5298,325
Raw,191,5299,325
Raw,187,5300,325
Raw,145,5301,325
Raw,209,5302,325
Raw,66,5303,325
Raw,184,5304,325
Raw,184,5305,325
Raw,154,5306,325
Raw,173,5307,325
Raw,129,5308,325
Raw,211,5309,325
Raw,71,5310,325
Raw,184,5311,325
Raw,189,5312,325
Raw,173,5313,325
Raw,159,5314,325
Raw,197,5315,325
Raw,145,5317,325
Raw,162,5318,325
Raw,162,5319,325
Raw,164,5320,325
Raw,199,5321,325
Raw,157,5322,325
Raw,53,5323,325
Raw,165,5324,325
Raw,166,5325,325
Raw,75,5327,325
Raw,126,5328,325
Raw,77,5329,325
Raw,204,5330,325
Raw,162,5331,325
Raw,201,5332,325
Raw,171,5333,325
Raw,73,5334,325
Raw,149,5335,325
Raw,171,5336,325
Raw,138,5337,325
Raw,168,5338,325
Raw,188,5340,325
Raw,161,5341,325
Raw,146,5342,325
Raw,185,5343,325
Raw,179,5344,325
Raw,94,5345,325
Raw,172,5346,325
Raw,196,5347,325
Raw,177,5348,325
Raw,152,5349,325
Raw,201,5350,325
Raw,198,5351,325
Raw,104,5352,325
Raw,230,5353,325
Raw,140,5354,325
Raw,107,5355,325
Raw,171,5356,325
Raw,185,5357,325
Raw,171,5358,325
Raw,49,5358,325
Raw,174,5359,325
Raw,153,5360,325
Raw,181,5361,325
Raw,182,5362,325
Raw,154,5363,325
Raw,186,5364,325
Raw,137,5365,325
Raw,159,5366,325
Raw,185,5367,325
Raw,209,5368,325
Raw,104,5369,325
Raw,65,5370,325
Raw,170,5371,325
Raw,201,5372,325
Raw,189,5373,325
Raw,74,5374,325
Raw,62,5375,325
Raw,182,5376,325
Raw,288,5377,325
Raw,95,5378,325
Raw,73,5379,325
Raw,157,5380,325
Raw,175,5381,325
Raw,183,5382,325
Raw,220,5384,325
Raw,176,5385,325
Raw,91,5386,325
Raw,172,5387,325
Raw,115,5388,325
Raw,154,5389,325
Raw,187,5390,325
Raw,180,5391,325
Raw,149,5392,325
Raw,190,5393,325
Raw,198,5394,325
Raw,155,5395,325
Raw,190,5396,325
Raw,165,5397,325
Raw,184,5398,325
Raw,185,5399,325
Raw,76,5400,325
Raw,105,5401,325
Raw,194,5402,325
Raw,101,5403,325
Raw,177,5404,325
Raw,179,5405,325
Raw,77,5406,325
Raw,32,5407,325
Raw,118,5407,325
Raw,82,5408,325
Raw,114,5409,325
Raw,179,5410,325
Raw,117,5411,325
Raw,153,5412,325
Raw,151,5413,325
Raw,183,5414,325
Raw,58,5415,325
Raw,202,5416,325
Raw,164,5417,325
Raw,113,5418,325
Raw,85,5419,325
Raw,171,5420,325
Raw,125,5421,325
Raw,149,5422,325
Raw,174,5423,325
Raw,186,5424,325
Raw,127,5425,325
Raw,176,5426,325
Raw,190,5427,325
Raw,174,5428,325
Raw,141,5429,325
Raw,323,5430,325
Raw,41,5430,325
Raw,177,5431,325
Raw,42,5431,325
Raw,184,5432,325
Raw,55,5434,325
Raw,184,5435,325
Raw,162,5436,325
Raw,96,5437,325
Raw,65,5438,325
Raw,192,5439,325
Raw,84,5440,325
Raw,183,5441,325
Raw,218,5442,325
Raw,143,5443,325
Raw,170,5444,325
Raw,95,5445,325
Raw,224,5447,325
Raw,165,5448,325
Raw,164,5449,325
Raw,195,5450,325
Raw,191,5451,325
Raw,180,5452,325
Raw,194,5453,325
Raw,157,5454,325
Raw,167,5455,325
Raw,177,5456,325
Raw,195,5457,325
Raw,142,5458,325
Raw,175,5459,325
Raw,157,5460,325
Raw,179,5461,325
Raw,70,5462,325
Raw,196,5463,325
Raw,131,5465,325
Raw,169,5466,325
Raw,167,5467,325
Raw,183,5468,325
Raw,228,5469,325
Raw,171,5470,325
Raw,183,5471,325
Raw,167,5472,325
Raw,180,5473,325
Raw,167,5474,325
Raw,123,5475,325
Raw,193,5476,325
Raw,177,5477,325
Raw,183,5478,325
Raw,110,5479,325
Raw,59,5480,325
Raw,103,5481,325
Raw,168,5482,325
Raw,77,5483,325
Raw,184,5484,325
Raw,203,5485,325
Raw,161,5486,325
Raw,188,5488,325
Raw,142,5489,325
Raw,178,5490,325
Raw,59,5491,325
Raw,189,5492,325
Raw,167,5494,325
Raw,180,5495,325
Raw,183,5496,325
Raw,14,5496,325
Raw,183,5498,325
Raw,156,5499,325
Raw,175,5500,325
Raw,183,5501,325
Raw,163,5502,325
Raw,172,5503,325
Raw,173,5504,325
Raw,118,5505,325
Raw,60,5506,325
Raw,79,5507,325
Raw,196,5509,325
Raw,193,5510,325
Raw,177,5511,325
