Cut?,Counts,eventNumber,runNumber
Raw,56,2,326
Raw,175,5,326
Raw,312,10,326
Raw,137,11,326
Raw,332,13,326
Raw,59,13,326
Raw,442,19,326
Raw,128,23,326
Raw,523,25,326
Raw,351,30,326
Raw,360,31,326
Raw,152,40,326
Raw,404,45,326
Raw,341,59,326
Raw,172,88,326
Raw,348,93,326
Raw,152,94,326
Raw,181,94,326
Raw,148,101,326
Raw,505,111,326
Raw,454,113,326
Raw,159,120,326
Raw,82,120,326
Raw,175,124,326
Raw,191,138,326
Raw,162,141,326
Raw,321,142,326
Raw,128,142,326
Raw,133,149,326
Raw,140,157,326
Raw,336,157,326
Raw,78,161,326
Raw,351,166,326
Raw,173,168,326
Raw,194,171,326
Raw,339,172,326
Raw,173,174,326
Raw,487,175,326
Raw,238,177,326
Raw,380,179,326
Raw,319,182,326
Raw,154,182,326
Raw,165,183,326
Raw,6,187,326
Raw,80,187,326
Raw,51,187,326
Raw,71,200,326
Raw,278,206,326
Raw,339,208,326
Raw,181,211,326
Raw,106,213,326
Raw,45,213,326
Raw,188,225,326
Raw,164,229,326
Raw,356,240,326
Raw,215,241,326
Raw,22,243,326
Raw,138,256,326
Raw,177,259,326
Raw,188,269,326
Raw,517,270,326
Raw,171,279,326
Raw,209,281,326
Raw,270,282,326
Raw,175,282,326
Raw,172,290,326
Raw,320,291,326
Raw,327,298,326
Raw,125,303,326
Raw,148,310,326
Raw,88,314,326
Raw,103,314,326
Raw,155,315,326
Raw,349,317,326
Raw,149,317,326
Raw,180,321,326
Raw,197,322,326
Raw,364,324,326
Raw,167,331,326
Raw,231,342,326
Raw,164,346,326
Raw,94,352,326
Raw,149,356,326
Raw,173,364,326
Raw,68,378,326
Raw,421,379,326
Raw,195,394,326
Raw,117,396,326
Raw,40,397,326
Raw,172,400,326
Raw,144,400,326
Raw,171,409,326
Raw,122,409,326
Raw,260,414,326
Raw,175,418,326
Raw,184,422,326
Raw,178,434,326
Raw,161,440,326
Raw,130,440,326
Raw,121,442,326
Raw,304,446,326
Raw,111,447,326
Raw,180,465,326
Raw,167,469,326
Raw,140,472,326
Raw,190,486,326
Raw,184,489,326
Raw,142,490,326
Raw,482,491,326
Raw,46,502,326
Raw,170,504,326
Raw,330,513,326
Raw,280,518,326
Raw,167,524,326
Raw,189,529,326
Raw,167,538,326
Raw,160,539,326
Raw,9,539,326
Raw,182,561,326
Raw,492,563,326
Raw,190,578,326
Raw,50,585,326
Raw,137,587,326
Raw,139,593,326
Raw,123,598,326
Raw,90,599,326
Raw,358,601,326
Raw,181,603,326
Raw,357,619,326
Raw,131,620,326
Raw,324,621,326
Raw,182,650,326
Raw,114,653,326
Raw,427,655,326
Raw,133,656,326
Raw,164,657,326
Raw,159,657,326
Raw,176,659,326
Raw,197,659,326
Raw,339,665,326
Raw,195,667,326
Raw,192,669,326
Raw,143,670,326
Raw,160,671,326
Raw,195,681,326
Raw,165,687,326
Raw,363,688,326
Raw,159,689,326
Raw,149,689,326
Raw,175,693,326
Raw,159,694,326
Raw,169,704,326
Raw,178,705,326
Raw,127,710,326
Raw,70,711,326
Raw,147,712,326
Raw,73,713,326
Raw,122,716,326
Raw,372,727,326
Raw,167,727,326
Raw,66,732,326
Raw,127,735,326
Raw,317,739,326
Raw,49,744,326
Raw,176,744,326
Raw,166,755,326
Raw,163,755,326
Raw,167,758,326
Raw,283,767,326
Raw,378,775,326
Raw,516,778,326
Raw,22,781,326
Raw,357,804,326
Raw,280,809,326
Raw,515,811,326
Raw,101,812,326
Raw,169,823,326
Raw,367,842,326
Raw,371,843,326
Raw,332,849,326
Raw,189,850,326
Raw,158,854,326
Raw,138,854,326
Raw,172,863,326
Raw,73,869,326
Raw,149,873,326
Raw,159,881,326
Raw,59,885,326
Raw,171,891,326
Raw,249,896,326
Raw,173,897,326
Raw,337,903,326
Raw,361,904,326
Raw,390,915,326
Raw,327,924,326
Raw,178,924,326
Raw,359,926,326
Raw,181,939,326
Raw,255,942,326
Raw,152,949,326
Raw,176,950,326
Raw,178,963,326
Raw,315,968,326
Raw,189,968,326
Raw,61,973,326
Raw,327,980,326
Raw,152,985,326
Raw,130,985,326
Raw,459,986,326
Raw,184,987,326
Raw,167,988,326
Raw,13,988,326
Raw,148,994,326
Raw,174,997,326
Raw,64,997,326
Raw,338,1000,326
Raw,174,1006,326
Raw,111,1015,326
Raw,182,1017,326
Raw,154,1022,326
Raw,64,1022,326
Raw,248,1025,326
Raw,137,1031,326
Raw,260,1034,326
Raw,303,1035,326
Raw,124,1041,326
Raw,332,1061,326
Raw,157,1062,326
Raw,144,1066,326
Raw,179,1067,326
Raw,179,1068,326
Raw,278,1071,326
Raw,170,1080,326
Raw,161,1083,326
Raw,492,1088,326
Raw,226,1090,326
Raw,204,1092,326
Raw,176,1092,326
Raw,123,1097,326
Raw,162,1098,326
Raw,318,1115,326
Raw,331,1127,326
Raw,174,1127,326
Raw,297,1129,326
Raw,166,1142,326
Raw,166,1149,326
Raw,189,1150,326
Raw,214,1150,326
Raw,215,1160,326
Raw,216,1164,326
Raw,172,1173,326
Raw,170,1179,326
Raw,17,1183,326
Raw,155,1184,326
Raw,157,1184,326
Raw,130,1189,326
Raw,187,1193,326
Raw,206,1195,326
Raw,175,1203,326
Raw,106,1203,326
Raw,182,1208,326
Raw,162,1212,326
Raw,429,1215,326
Raw,334,1218,326
Raw,151,1222,326
Raw,191,1225,326
Raw,171,1226,326
Raw,142,1227,326
Raw,166,1227,326
Raw,210,1228,326
Raw,165,1232,326
Raw,212,1243,326
Raw,51,1244,326
Raw,39,1245,326
Raw,141,1252,326
Raw,56,1256,326
Raw,115,1257,326
Raw,346,1260,326
Raw,175,1266,326
Raw,177,1271,326
Raw,334,1286,326
Raw,69,1296,326
Raw,106,1298,326
Raw,133,1303,326
Raw,188,1305,326
Raw,192,1307,326
Raw,258,1307,326
Raw,333,1346,326
Raw,183,1346,326
Raw,336,1357,326
Raw,187,1368,326
Raw,72,1371,326
Raw,385,1373,326
Raw,109,1375,326
Raw,167,1386,326
Raw,484,1390,326
Raw,60,1396,326
Raw,150,1400,326
Raw,126,1400,326
Raw,341,1405,326
Raw,149,1406,326
Raw,146,1408,326
Raw,185,1436,326
Raw,454,1438,326
Raw,148,1442,326
Raw,172,1448,326
Raw,379,1457,326
Raw,131,1464,326
Raw,156,1465,326
Raw,70,1465,326
Raw,109,1465,326
Raw,374,1467,326
Raw,213,1474,326
Raw,125,1474,326
Raw,176,1478,326
Raw,166,1482,326
Raw,149,1486,326
Raw,99,1489,326
Raw,168,1492,326
Raw,172,1493,326
Raw,148,1494,326
Raw,163,1497,326
Raw,85,1502,326
Raw,164,1505,326
Raw,173,1515,326
Raw,422,1521,326
Raw,306,1531,326
Raw,164,1536,326
Raw,150,1537,326
Raw,297,1538,326
Raw,136,1545,326
Raw,34,1545,326
Raw,184,1553,326
Raw,175,1553,326
Raw,200,1555,326
Raw,363,1556,326
Raw,371,1557,326
Raw,153,1559,326
Raw,374,1566,326
Raw,171,1571,326
Raw,160,1576,326
Raw,156,1577,326
Raw,75,1582,326
Raw,154,1589,326
Raw,61,1590,326
Raw,27,1590,326
Raw,100,1591,326
Raw,61,1599,326
Raw,489,1602,326
Raw,125,1605,326
Raw,51,1609,326
Raw,161,1610,326
Raw,147,1610,326
Raw,153,1623,326
Raw,242,1626,326
Raw,507,1628,326
Raw,89,1629,326
Raw,159,1636,326
Raw,220,1650,326
Raw,155,1651,326
Raw,193,1661,326
Raw,183,1665,326
Raw,185,1667,326
Raw,354,1673,326
Raw,121,1673,326
Raw,86,1673,326
Raw,177,1675,326
Raw,160,1675,326
Raw,355,1682,326
Raw,361,1683,326
Raw,168,1689,326
Raw,149,1691,326
Raw,98,1691,326
Raw,185,1693,326
Raw,349,1694,326
Raw,146,1695,326
Raw,336,1705,326
Raw,152,1706,326
Raw,309,1707,326
Raw,281,1708,326
Raw,61,1717,326
Raw,133,1717,326
Raw,171,1719,326
Raw,179,1727,326
Raw,156,1731,326
Raw,318,1732,326
Raw,346,1742,326
Raw,47,1745,326
Raw,198,1750,326
Raw,369,1761,326
Raw,56,1768,326
Raw,139,1770,326
Raw,135,1776,326
Raw,55,1779,326
Raw,103,1779,326
Raw,43,1780,326
Raw,214,1785,326
Raw,159,1787,326
Raw,147,1787,326
Raw,159,1790,326
Raw,140,1790,326
Raw,165,1803,326
Raw,187,1807,326
Raw,42,1821,326
Raw,148,1825,326
Raw,159,1831,326
Raw,173,1848,326
Raw,60,1848,326
Raw,335,1850,326
Raw,170,1850,326
Raw,215,1853,326
Raw,157,1860,326
Raw,257,1867,326
Raw,29,1867,326
Raw,124,1872,326
Raw,172,1875,326
Raw,49,1884,326
Raw,374,1887,326
Raw,357,1891,326
Raw,290,1897,326
Raw,211,1910,326
Raw,144,1910,326
Raw,176,1916,326
Raw,345,1917,326
Raw,61,1922,326
Raw,179,1928,326
Raw,347,1930,326
Raw,185,1933,326
Raw,347,1941,326
Raw,187,1957,326
Raw,185,1959,326
Raw,345,1961,326
Raw,185,1970,326
Raw,176,1987,326
Raw,81,1990,326
Raw,180,2000,326
Raw,159,2018,326
Raw,180,2019,326
Raw,142,2022,326
Raw,159,2025,326
Raw,174,2039,326
Raw,167,2041,326
Raw,172,2048,326
Raw,143,2048,326
Raw,136,2049,326
Raw,151,2062,326
Raw,170,2065,326
Raw,312,2066,326
Raw,52,2068,326
Raw,162,2076,326
Raw,63,2086,326
Raw,117,2086,326
Raw,249,2093,326
Raw,16,2093,326
Raw,170,2099,326
Raw,182,2103,326
Raw,140,2103,326
Raw,438,2112,326
Raw,119,2113,326
Raw,167,2114,326
Raw,145,2119,326
Raw,225,2120,326
Raw,333,2122,326
Raw,327,2128,326
Raw,344,2129,326
Raw,185,2129,326
Raw,156,2133,326
Raw,158,2135,326
Raw,121,2149,326
Raw,51,2149,326
Raw,173,2151,326
Raw,285,2159,326
Raw,269,2165,326
Raw,229,2172,326
Raw,181,2174,326
Raw,171,2177,326
Raw,524,2184,326
Raw,163,2186,326
Raw,204,2190,326
Raw,325,2191,326
Raw,179,2192,326
Raw,25,2192,326
Raw,173,2194,326
Raw,191,2218,326
Raw,144,2223,326
Raw,265,2229,326
Raw,364,2238,326
Raw,165,2239,326
Raw,177,2245,326
Raw,103,2248,326
Raw,343,2252,326
Raw,32,2254,326
Raw,190,2263,326
Raw,186,2268,326
Raw,67,2270,326
Raw,191,2271,326
Raw,259,2280,326
Raw,191,2281,326
Raw,290,2284,326
Raw,127,2288,326
Raw,74,2292,326
Raw,216,2299,326
Raw,11,2299,326
Raw,164,2313,326
Raw,157,2316,326
Raw,162,2316,326
Raw,173,2320,326
Raw,156,2323,326
Raw,197,2326,326
Raw,213,2334,326
Raw,200,2338,326
Raw,136,2349,326
Raw,269,2349,326
Raw,172,2361,326
Raw,189,2363,326
Raw,165,2365,326
Raw,369,2370,326
Raw,154,2377,326
Raw,152,2389,326
Raw,265,2390,326
Raw,194,2391,326
Raw,464,2397,326
Raw,200,2401,326
Raw,494,2402,326
Raw,131,2403,326
Raw,166,2403,326
Raw,363,2408,326
Raw,338,2409,326
Raw,454,2411,326
Raw,157,2415,326
Raw,82,2415,326
Raw,285,2419,326
Raw,351,2422,326
Raw,342,2430,326
Raw,182,2432,326
Raw,337,2433,326
Raw,198,2436,326
Raw,61,2444,326
Raw,154,2445,326
Raw,144,2447,326
Raw,170,2448,326
Raw,174,2452,326
Raw,126,2456,326
Raw,235,2468,326
Raw,157,2484,326
Raw,500,2485,326
Raw,191,2496,326
Raw,167,2500,326
Raw,152,2509,326
Raw,487,2515,326
Raw,358,2516,326
Raw,387,2517,326
Raw,147,2524,326
Raw,243,2540,326
Raw,83,2541,326
Raw,169,2545,326
Raw,182,2552,326
Raw,314,2556,326
Raw,58,2562,326
Raw,56,2568,326
Raw,43,2568,326
Raw,195,2573,326
Raw,348,2579,326
Raw,364,2581,326
Raw,172,2585,326
Raw,350,2602,326
Raw,28,2604,326
Raw,181,2606,326
Raw,166,2613,326
Raw,147,2614,326
Raw,171,2642,326
Raw,184,2649,326
Raw,163,2650,326
Raw,273,2650,326
Raw,76,2655,326
Raw,277,2668,326
Raw,318,2680,326
Raw,158,2681,326
Raw,341,2687,326
Raw,152,2689,326
Raw,346,2691,326
Raw,152,2699,326
Raw,139,2706,326
Raw,516,2714,326
Raw,297,2723,326
Raw,158,2725,326
Raw,176,2749,326
Raw,494,2751,326
Raw,364,2758,326
Raw,334,2768,326
Raw,133,2773,326
Raw,153,2775,326
Raw,60,2785,326
Raw,170,2810,326
Raw,168,2812,326
Raw,73,2812,326
Raw,224,2829,326
Raw,112,2829,326
Raw,440,2847,326
Raw,256,2861,326
Raw,166,2875,326
Raw,235,2877,326
Raw,175,2885,326
Raw,181,2899,326
Raw,160,2900,326
Raw,142,2902,326
Raw,267,2906,326
Raw,20,2909,326
Raw,181,2910,326
Raw,264,2911,326
Raw,342,2915,326
Raw,46,2916,326
Raw,51,2916,326
Raw,147,2917,326
Raw,191,2917,326
Raw,104,2918,326
Raw,109,2924,326
Raw,175,2928,326
Raw,205,2935,326
Raw,169,2935,326
Raw,131,2936,326
Raw,129,2936,326
Raw,176,2943,326
Raw,66,2943,326
Raw,114,2946,326
Raw,153,2949,326
Raw,151,2949,326
Raw,141,2958,326
Raw,174,2958,326
Raw,336,2959,326
Raw,207,2961,326
Raw,156,2964,326
Raw,260,2964,326
Raw,176,2965,326
Raw,267,2968,326
Raw,175,2973,326
Raw,117,2973,326
Raw,329,2975,326
Raw,194,2976,326
Raw,503,2977,326
Raw,141,2978,326
Raw,127,2987,326
Raw,121,2988,326
Raw,167,2991,326
Raw,168,2994,326
Raw,184,2996,326
Raw,182,3012,326
Raw,254,3013,326
Raw,81,3013,326
Raw,81,3015,326
Raw,178,3019,326
Raw,124,3019,326
Raw,136,3024,326
Raw,212,3028,326
Raw,125,3028,326
Raw,230,3029,326
Raw,153,3035,326
Raw,356,3036,326
Raw,329,3047,326
Raw,274,3049,326
Raw,342,3052,326
Raw,58,3054,326
Raw,174,3072,326
Raw,228,3074,326
Raw,333,3096,326
Raw,55,3097,326
Raw,342,3099,326
Raw,121,3103,326
Raw,367,3105,326
Raw,340,3111,326
Raw,63,3113,326
Raw,194,3115,326
Raw,292,3129,326
Raw,248,3132,326
Raw,152,3136,326
Raw,322,3138,326
Raw,342,3142,326
Raw,63,3142,326
Raw,185,3144,326
Raw,166,3149,326
Raw,175,3157,326
Raw,190,3159,326
Raw,190,3164,326
Raw,333,3166,326
Raw,170,3167,326
Raw,188,3182,326
Raw,100,3186,326
Raw,212,3194,326
Raw,504,3195,326
Raw,175,3197,326
Raw,182,3198,326
Raw,454,3202,326
Raw,360,3207,326
Raw,174,3211,326
Raw,100,3212,326
Raw,197,3213,326
Raw,155,3223,326
Raw,169,3242,326
Raw,140,3248,326
Raw,91,3249,326
Raw,103,3249,326
Raw,493,3250,326
Raw,165,3266,326
Raw,226,3268,326
Raw,156,3270,326
Raw,158,3276,326
Raw,164,3280,326
Raw,160,3290,326
Raw,195,3305,326
Raw,222,3308,326
Raw,191,3314,326
Raw,159,3314,326
Raw,180,3329,326
Raw,174,3342,326
Raw,157,3352,326
Raw,167,3355,326
Raw,148,3358,326
Raw,173,3359,326
Raw,176,3369,326
Raw,64,3370,326
Raw,321,3379,326
Raw,166,3385,326
Raw,168,3394,326
Raw,164,3396,326
Raw,97,3396,326
Raw,143,3400,326
Raw,162,3400,326
Raw,248,3402,326
Raw,189,3404,326
Raw,57,3404,326
Raw,118,3406,326
Raw,188,3408,326
Raw,376,3409,326
Raw,244,3411,326
Raw,370,3416,326
Raw,148,3418,326
Raw,181,3418,326
Raw,151,3418,326
Raw,322,3432,326
Raw,190,3432,326
Raw,186,3441,326
Raw,175,3449,326
Raw,237,3454,326
Raw,37,3454,326
Raw,357,3458,326
Raw,259,3463,326
Raw,182,3464,326
Raw,102,3465,326
Raw,121,3465,326
Raw,161,3471,326
Raw,297,3472,326
Raw,473,3474,326
Raw,189,3475,326
Raw,262,3475,326
Raw,185,3476,326
Raw,96,3476,326
Raw,357,3483,326
Raw,151,3483,326
Raw,166,3499,326
Raw,338,3502,326
Raw,112,3502,326
Raw,361,3507,326
Raw,221,3508,326
Raw,193,3510,326
Raw,159,3512,326
Raw,167,3519,326
Raw,217,3524,326
Raw,198,3529,326
Raw,164,3533,326
Raw,130,3533,326
Raw,158,3545,326
Raw,89,3547,326
Raw,57,3554,326
Raw,173,3556,326
Raw,169,3558,326
Raw,175,3561,326
Raw,125,3580,326
Raw,193,3599,326
Raw,13,3601,326
Raw,199,3605,326
Raw,67,3613,326
Raw,203,3617,326
Raw,154,3634,326
Raw,41,3656,326
Raw,141,3656,326
Raw,212,3661,326
Raw,161,3674,326
Raw,440,3685,326
Raw,200,3697,326
Raw,41,3697,326
Raw,164,3702,326
Raw,69,3702,326
Raw,398,3703,326
Raw,189,3704,326
Raw,199,3705,326
Raw,103,3713,326
Raw,139,3715,326
Raw,149,3721,326
Raw,181,3722,326
Raw,167,3724,326
Raw,163,3725,326
Raw,507,3727,326
Raw,130,3728,326
Raw,12,3728,326
Raw,4,3728,326
Raw,209,3737,326
Raw,300,3738,326
Raw,336,3739,326
Raw,56,3739,326
Raw,179,3740,326
Raw,277,3741,326
Raw,141,3752,326
Raw,381,3755,326
Raw,149,3758,326
Raw,131,3759,326
Raw,392,3780,326
Raw,168,3796,326
Raw,38,3796,326
Raw,335,3801,326
Raw,181,3804,326
Raw,173,3810,326
Raw,146,3815,326
Raw,298,3820,326
Raw,290,3830,326
Raw,452,3834,326
Raw,333,3836,326
Raw,341,3838,326
Raw,190,3838,326
Raw,232,3840,326
Raw,251,3853,326
Raw,190,3854,326
Raw,248,3855,326
Raw,191,3864,326
Raw,370,3867,326
Raw,184,3869,326
Raw,123,3879,326
Raw,164,3897,326
Raw,316,3906,326
Raw,95,3906,326
Raw,24,3906,326
Raw,398,3913,326
Raw,177,3927,326
Raw,172,3927,326
Raw,190,3929,326
Raw,172,3930,326
Raw,314,3935,326
Raw,172,3942,326
Raw,343,3948,326
Raw,143,3948,326
Raw,189,3951,326
Raw,153,3952,326
Raw,440,3954,326
Raw,181,3973,326
Raw,173,3980,326
Raw,172,3981,326
Raw,150,3981,326
Raw,302,3982,326
Raw,335,3983,326
Raw,44,3987,326
Raw,148,3990,326
Raw,120,3994,326
Raw,302,4003,326
Raw,70,4006,326
Raw,390,4016,326
Raw,328,4018,326
Raw,342,4026,326
Raw,70,4026,326
Raw,334,4027,326
Raw,175,4029,326
Raw,46,4029,326
Raw,376,4045,326
Raw,178,4046,326
Raw,163,4049,326
Raw,181,4053,326
Raw,45,4053,326
Raw,515,4060,326
Raw,158,4061,326
Raw,142,4061,326
Raw,177,4063,326
Raw,203,4066,326
Raw,501,4082,326
Raw,192,4083,326
Raw,55,4103,326
Raw,482,4105,326
Raw,185,4105,326
Raw,182,4107,326
Raw,197,4119,326
Raw,313,4121,326
Raw,179,4134,326
Raw,91,4134,326
Raw,181,4135,326
Raw,211,4140,326
Raw,157,4142,326
Raw,113,4142,326
Raw,140,4146,326
Raw,147,4147,326
Raw,140,4149,326
Raw,166,4151,326
Raw,155,4152,326
Raw,150,4162,326
Raw,101,4162,326
Raw,342,4166,326
Raw,88,4167,326
Raw,189,4175,326
Raw,165,4182,326
Raw,385,4185,326
Raw,166,4205,326
Raw,177,4216,326
Raw,375,4217,326
Raw,194,4227,326
Raw,165,4242,326
Raw,62,4260,326
Raw,54,4267,326
Raw,176,4271,326
Raw,54,4272,326
Raw,166,4272,326
Raw,324,4274,326
Raw,206,4279,326
Raw,188,4285,326
Raw,157,4285,326
Raw,187,4288,326
Raw,48,4288,326
Raw,129,4293,326
Raw,96,4297,326
Raw,85,4306,326
Raw,187,4313,326
Raw,66,4315,326
Raw,140,4317,326
Raw,173,4319,326
Raw,196,4324,326
Raw,144,4343,326
Raw,139,4347,326
Raw,217,4352,326
Raw,45,4353,326
Raw,68,4356,326
Raw,483,4367,326
Raw,130,4376,326
Raw,59,4377,326
Raw,221,4379,326
Raw,139,4388,326
Raw,105,4394,326
Raw,180,4423,326
Raw,480,4425,326
Raw,299,4430,326
Raw,184,4438,326
Raw,165,4438,326
Raw,144,4442,326
Raw,70,4442,326
Raw,341,4444,326
Raw,72,4451,326
Raw,276,4455,326
Raw,162,4459,326
Raw,370,4460,326
Raw,377,4464,326
Raw,215,4480,326
Raw,166,4488,326
Raw,207,4494,326
Raw,40,4494,326
Raw,293,4496,326
Raw,77,4496,326
Raw,169,4498,326
Raw,441,4510,326
Raw,161,4514,326
Raw,160,4530,326
Raw,165,4533,326
Raw,162,4535,326
Raw,217,4535,326
Raw,313,4540,326
Raw,167,4545,326
Raw,167,4548,326
Raw,179,4553,326
Raw,524,4562,326
Raw,188,4563,326
Raw,171,4583,326
Raw,50,4584,326
Raw,174,4589,326
Raw,155,4595,326
Raw,327,4596,326
Raw,186,4598,326
Raw,340,4599,326
Raw,167,4606,326
Raw,174,4613,326
Raw,257,4618,326
Raw,188,4623,326
Raw,185,4626,326
Raw,55,4627,326
Raw,163,4630,326
Raw,192,4630,326
Raw,128,4637,326
Raw,192,4647,326
Raw,258,4678,326
Raw,181,4679,326
Raw,130,4679,326
Raw,201,4687,326
Raw,163,4698,326
Raw,42,4698,326
Raw,169,4717,326
Raw,189,4727,326
Raw,62,4730,326
Raw,329,4731,326
Raw,498,4732,326
Raw,315,4736,326
Raw,119,4759,326
Raw,510,4763,326
Raw,61,4765,326
Raw,181,4768,326
Raw,16,4784,326
Raw,176,4797,326
Raw,518,4805,326
Raw,177,4806,326
Raw,132,4811,326
Raw,163,4813,326
Raw,133,4816,326
Raw,171,4816,326
Raw,171,4817,326
Raw,164,4819,326
Raw,267,4820,326
Raw,351,4822,326
Raw,102,4832,326
Raw,339,4840,326
Raw,332,4844,326
Raw,249,4852,326
Raw,22,4852,326
Raw,346,4854,326
Raw,161,4855,326
Raw,200,4856,326
Raw,188,4858,326
Raw,138,4862,326
Raw,515,4867,326
Raw,251,4869,326
Raw,215,4885,326
Raw,186,4891,326
Raw,152,4901,326
Raw,40,4901,326
Raw,171,4906,326
Raw,177,4915,326
Raw,232,4918,326
Raw,174,4919,326
Raw,122,4919,326
Raw,299,4925,326
Raw,147,4925,326
Raw,336,4926,326
Raw,181,4933,326
Raw,185,4936,326
Raw,170,4944,326
Raw,174,4958,326
Raw,153,4958,326
Raw,330,4964,326
Raw,139,4965,326
Raw,196,4967,326
Raw,164,4970,326
Raw,99,4974,326
Raw,163,4983,326
Raw,120,4984,326
Raw,62,4984,326
Raw,337,4986,326
Raw,159,4986,326
Raw,177,4992,326
Raw,31,4995,326
Raw,171,4997,326
Raw,179,5004,326
Raw,146,5006,326
Raw,356,5012,326
Raw,177,5015,326
Raw,366,5036,326
Raw,141,5036,326
Raw,159,5037,326
Raw,193,5041,326
Raw,161,5042,326
Raw,182,5045,326
Raw,174,5045,326
Raw,162,5048,326
Raw,177,5054,326
Raw,316,5070,326
Raw,87,5085,326
Raw,465,5097,326
Raw,185,5108,326
Raw,239,5111,326
Raw,189,5123,326
Raw,214,5135,326
Raw,112,5135,326
Raw,200,5137,326
Raw,74,5140,326
Raw,200,5148,326
Raw,158,5154,326
Raw,158,5158,326
Raw,30,5158,326
Raw,204,5161,326
Raw,173,5169,326
Raw,460,5172,326
Raw,187,5174,326
Raw,178,5177,326
Raw,384,5178,326
Raw,101,5183,326
Raw,513,5187,326
Raw,260,5188,326
Raw,361,5195,326
Raw,101,5196,326
Raw,197,5199,326
Raw,138,5203,326
Raw,170,5203,326
Raw,199,5204,326
Raw,275,5209,326
Raw,186,5213,326
Raw,194,5216,326
Raw,191,5220,326
Raw,196,5224,326
Raw,35,5224,326
Raw,173,5233,326
Raw,116,5240,326
Raw,122,5240,326
Raw,215,5251,326
Raw,305,5254,326
Raw,398,5264,326
Raw,167,5267,326
Raw,371,5269,326
Raw,183,5272,326
Raw,372,5277,326
Raw,183,5280,326
Raw,51,5280,326
Raw,192,5282,326
Raw,409,5288,326
Raw,146,5303,326
Raw,170,5317,326
Raw,180,5324,326
Raw,159,5338,326
Raw,211,5350,326
Raw,194,5357,326
Raw,177,5362,326
Raw,98,5369,326
Raw,170,5372,326
Raw,64,5394,326
Raw,260,5396,326
Raw,441,5397,326
Raw,360,5403,326
Raw,165,5407,326
Raw,42,5418,326
Raw,355,5421,326
Raw,87,5421,326
Raw,61,5429,326
Raw,61,5430,326
Raw,370,5435,326
Raw,109,5438,326
Raw,141,5439,326
Raw,178,5465,326
Raw,195,5483,326
Raw,351,5489,326
Raw,381,5492,326
Raw,315,5498,326
Raw,329,5499,326
Raw,345,5500,326
Raw,192,5500,326
Raw,215,5501,326
Raw,161,5501,326
Raw,123,5502,326
Raw,200,5502,326
Raw,96,5506,326
Raw,328,5507,326
Raw,175,5515,326
Raw,234,5522,326
Raw,158,5525,326
Raw,165,5526,326
Raw,14,5532,326
Raw,193,5538,326
Raw,174,5542,326
Raw,45,5545,326
Raw,332,5558,326
Raw,465,5565,326
Raw,186,5579,326
Raw,220,5581,326
Raw,75,5581,326
Raw,184,5583,326
Raw,524,5595,326
Raw,386,5614,326
Raw,367,5625,326
Raw,170,5630,326
Raw,154,5635,326
Raw,53,5639,326
Raw,77,5644,326
Raw,347,5660,326
Raw,250,5663,326
Raw,348,5673,326
Raw,372,5674,326
Raw,360,5684,326
Raw,112,5684,326
Raw,186,5686,326
Raw,273,5689,326
Raw,178,5702,326
Raw,293,5703,326
Raw,150,5704,326
Raw,142,5706,326
Raw,139,5712,326
Raw,152,5713,326
Raw,487,5718,326
Raw,196,5721,326
Raw,178,5721,326
Raw,342,5723,326
Raw,177,5723,326
Raw,107,5726,326
Raw,78,5729,326
Raw,388,5734,326
Raw,180,5737,326
Raw,22,5737,326
Raw,145,5737,326
Raw,194,5748,326
Raw,138,5757,326
Raw,342,5777,326
Raw,472,5779,326
Raw,174,5787,326
Raw,224,5789,326
Raw,107,5789,326
Raw,45,5798,326
Raw,215,5800,326
Raw,17,5807,326
Raw,168,5813,326
Raw,196,5814,326
Raw,205,5822,326
Raw,192,5824,326
Raw,193,5854,326
Raw,181,5871,326
Raw,369,5873,326
Raw,197,5877,326
Raw,111,5877,326
Raw,189,5885,326
Raw,186,5897,326
Raw,247,5904,326
Raw,164,5912,326
Raw,239,5917,326
Raw,146,5918,326
Raw,350,5934,326
Raw,179,5942,326
Raw,81,5957,326
Raw,182,5957,326
Raw,128,5959,326
Raw,60,5959,326
Raw,175,5962,326
Raw,131,5965,326
Raw,256,5965,326
Raw,185,5967,326
Raw,165,5967,326
Raw,173,5971,326
Raw,176,5975,326
Raw,163,5984,326
Raw,179,5986,326
Raw,123,5986,326
Raw,89,5989,326
Raw,184,5992,326
Raw,68,5999,326
Raw,160,6009,326
Raw,159,6017,326
Raw,160,6018,326
Raw,156,6019,326
Raw,308,6021,326
Raw,128,6026,326
Raw,321,6034,326
Raw,154,6036,326
Raw,363,6036,326
Raw,345,6037,326
Raw,182,6038,326
Raw,314,6052,326
Raw,442,6057,326
Raw,167,6065,326
Raw,503,6067,326
Raw,164,6069,326
Raw,36,6069,326
Raw,172,6078,326
Raw,55,6081,326
Raw,196,6082,326
Raw,157,6086,326
Raw,198,6102,326
Raw,382,6113,326
Raw,122,6118,326
Raw,32,6121,326
Raw,144,6122,326
Raw,165,6122,326
Raw,45,6124,326
Raw,173,6126,326
Raw,395,6134,326
Raw,156,6142,326
Raw,195,6147,326
Raw,35,6155,326
Raw,169,6160,326
Raw,136,6164,326
Raw,187,6176,326
Raw,153,6176,326
Raw,181,6176,326
Raw,180,6178,326
Raw,267,6179,326
Raw,94,6180,326
Raw,305,6182,326
Raw,71,6184,326
Raw,51,6184,326
Raw,182,6186,326
Raw,140,6201,326
Raw,32,6201,326
Raw,317,6222,326
Raw,403,6224,326
Raw,47,6224,326
Raw,339,6230,326
Raw,181,6236,326
Raw,181,6237,326
Raw,88,6246,326
Raw,169,6248,326
Raw,173,6248,326
Raw,42,6248,326
Raw,126,6254,326
Raw,124,6255,326
Raw,166,6255,326
Raw,172,6260,326
Raw,172,6263,326
Raw,171,6264,326
Raw,135,6265,326
Raw,209,6271,326
Raw,166,6273,326
Raw,174,6280,326
Raw,329,6288,326
Raw,182,6289,326
Raw,50,6289,326
Raw,161,6290,326
Raw,68,6292,326
Raw,156,6300,326
Raw,174,6302,326
Raw,453,6305,326
Raw,408,6312,326
Raw,152,6312,326
Raw,174,6317,326
Raw,349,6318,326
Raw,168,6328,326
Raw,165,6328,326
Raw,59,6335,326
Raw,179,6337,326
Raw,60,6338,326
Raw,170,6342,326
Raw,329,6353,326
Raw,345,6355,326
Raw,196,6357,326
Raw,319,6360,326
Raw,73,6369,326
Raw,172,6370,326
Raw,157,6371,326
Raw,169,6371,326
Raw,168,6371,326
Raw,136,6380,326
Raw,54,6384,326
Raw,138,6392,326
Raw,173,6407,326
Raw,185,6419,326
Raw,152,6420,326
Raw,153,6422,326
Raw,203,6432,326
Raw,186,6451,326
Raw,311,6453,326
Raw,94,6456,326
Raw,147,6464,326
Raw,187,6470,326
Raw,344,6490,326
Raw,348,6496,326
Raw,177,6500,326
Raw,174,6502,326
Raw,206,6519,326
Raw,184,6520,326
Raw,124,6520,326
Raw,198,6524,326
Raw,35,6524,326
Raw,187,6526,326
Raw,184,6532,326
Raw,167,6536,326
Raw,143,6539,326
Raw,352,6540,326
Raw,183,6541,326
Raw,303,6542,326
Raw,172,6542,326
Raw,132,6549,326
Raw,129,6555,326
Raw,496,6557,326
Raw,203,6559,326
Raw,157,6567,326
Raw,71,6567,326
Raw,209,6568,326
Raw,156,6570,326
Raw,66,6588,326
Raw,123,6597,326
Raw,312,6606,326
Raw,170,6614,326
Raw,152,6623,326
Raw,210,6625,326
Raw,217,6625,326
Raw,126,6627,326
Raw,351,6628,326
Raw,179,6631,326
Raw,214,6636,326
Raw,221,6641,326
Raw,196,6643,326
Raw,165,6655,326
Raw,331,6662,326
Raw,174,6669,326
Raw,301,6673,326
Raw,65,6675,326
Raw,178,6705,326
Raw,169,6706,326
Raw,352,6709,326
Raw,115,6715,326
Raw,187,6722,326
Raw,176,6722,326
Raw,168,6724,326
Raw,54,6724,326
Raw,131,6729,326
Raw,353,6729,326
Raw,227,6743,326
Raw,148,6753,326
Raw,354,6760,326
Raw,187,6764,326
Raw,186,6767,326
Raw,52,6768,326
Raw,111,6768,326
Raw,170,6770,326
Raw,126,6771,326
Raw,416,6777,326
Raw,124,6778,326
Raw,124,6780,326
Raw,187,6782,326
Raw,118,6782,326
Raw,181,6783,326
Raw,3,6783,326
Raw,175,6789,326
Raw,185,6789,326
Raw,169,6791,326
Raw,192,6794,326
Raw,53,6796,326
Raw,284,6807,326
Raw,167,6807,326
Raw,95,6809,326
Raw,327,6811,326
Raw,325,6813,326
Raw,40,6813,326
Raw,168,6824,326
Raw,195,6827,326
Raw,173,6829,326
Raw,175,6831,326
Raw,52,6834,326
Raw,176,6837,326
Raw,35,6837,326
Raw,194,6849,326
Raw,3,6849,326
Raw,182,6852,326
Raw,171,6853,326
Raw,169,6858,326
Raw,236,6867,326
Raw,261,6868,326
Raw,184,6873,326
Raw,216,6879,326
Raw,189,6883,326
Raw,160,6883,326
Raw,110,6892,326
Raw,369,6896,326
Raw,125,6896,326
Raw,129,6902,326
Raw,66,6905,326
Raw,196,6906,326
Raw,249,6909,326
Raw,81,6913,326
Raw,151,6920,326
Raw,146,6920,326
Raw,240,6924,326
Raw,179,6928,326
Raw,178,6930,326
Raw,178,6930,326
Raw,393,6934,326
Raw,359,6935,326
Raw,188,6938,326
Raw,200,6947,326
Raw,170,6957,326
Raw,159,6957,326
Raw,61,6970,326
Raw,171,6977,326
Raw,182,6978,326
Raw,487,6983,326
Raw,149,6985,326
Raw,180,6987,326
Raw,126,6991,326
Raw,174,6993,326
Raw,181,7005,326
Raw,180,7009,326
Raw,186,7013,326
Raw,366,7014,326
Raw,189,7015,326
Raw,163,7018,326
Raw,88,7021,326
Raw,279,7028,326
Raw,328,7040,326
Raw,401,7046,326
Raw,328,7050,326
Raw,291,7056,326
Raw,144,7059,326
Raw,198,7059,326
Raw,348,7072,326
Raw,258,7074,326
Raw,156,7087,326
Raw,337,7092,326
Raw,133,7095,326
Raw,162,7096,326
Raw,6,7096,326
Raw,148,7106,326
Raw,148,7112,326
Raw,149,7119,326
Raw,111,7119,326
Raw,179,7123,326
Raw,127,7123,326
Raw,163,7124,326
Raw,325,7136,326
Raw,165,7153,326
Raw,166,7157,326
Raw,74,7160,326
Raw,161,7161,326
Raw,167,7165,326
Raw,97,7165,326
Raw,143,7166,326
Raw,178,7166,326
Raw,165,7167,326
Raw,340,7168,326
Raw,359,7170,326
Raw,163,7174,326
Raw,75,7174,326
Raw,138,7177,326
Raw,362,7182,326
Raw,290,7187,326
Raw,364,7189,326
Raw,500,7195,326
Raw,182,7200,326
Raw,144,7201,326
Raw,175,7201,326
Raw,116,7214,326
Raw,377,7233,326
Raw,446,7238,326
Raw,155,7240,326
Raw,128,7244,326
Raw,65,7245,326
Raw,183,7256,326
Raw,178,7256,326
Raw,227,7282,326
Raw,121,7287,326
Raw,82,7288,326
Raw,160,7291,326
Raw,163,7299,326
Raw,186,7299,326
Raw,135,7304,326
Raw,348,7310,326
Raw,178,7313,326
Raw,136,7313,326
Raw,167,7315,326
Raw,122,7315,326
Raw,201,7323,326
Raw,507,7325,326
Raw,131,7330,326
Raw,113,7336,326
Raw,316,7342,326
Raw,178,7347,326
Raw,174,7349,326
Raw,140,7350,326
Raw,186,7350,326
Raw,192,7372,326
Raw,180,7393,326
Raw,374,7395,326
Raw,324,7397,326
Raw,184,7401,326
Raw,19,7405,326
Raw,155,7413,326
Raw,372,7423,326
Raw,445,7425,326
Raw,146,7435,326
Raw,167,7440,326
Raw,198,7443,326
Raw,414,7445,326
Raw,167,7454,326
Raw,177,7459,326
Raw,108,7470,326
Raw,172,7472,326
Raw,373,7472,326
Raw,122,7478,326
Raw,155,7482,326
Raw,140,7485,326
Raw,342,7487,326
Raw,341,7493,326
Raw,188,7497,326
Raw,157,7502,326
Raw,131,7507,326
Raw,181,7521,326
Raw,113,7521,326
Raw,146,7533,326
Raw,253,7535,326
Raw,56,7535,326
Raw,172,7542,326
Raw,177,7545,326
Raw,119,7546,326
Raw,65,7547,326
Raw,259,7550,326
Raw,171,7550,326
Raw,305,7552,326
Raw,347,7554,326
Raw,362,7555,326
Raw,361,7567,326
Raw,73,7569,326
Raw,351,7570,326
Raw,183,7592,326
Raw,307,7595,326
Raw,68,7601,326
Raw,179,7606,326
Raw,130,7609,326
Raw,164,7616,326
Raw,102,7616,326
Raw,395,7624,326
Raw,159,7635,326
Raw,174,7635,326
Raw,205,7640,326
Raw,180,7649,326
Raw,149,7655,326
Raw,180,7656,326
Raw,146,7658,326
Raw,236,7664,326
Raw,174,7668,326
Raw,349,7701,326
Raw,188,7702,326
Raw,174,7707,326
Raw,240,7717,326
Raw,165,7722,326
Raw,363,7729,326
Raw,200,7731,326
Raw,180,7741,326
Raw,484,7750,326
Raw,164,7761,326
Raw,166,7765,326
Raw,140,7770,326
Raw,508,7771,326
Raw,173,7778,326
Raw,175,7785,326
Raw,177,7791,326
Raw,411,7798,326
Raw,314,7807,326
Raw,176,7809,326
Raw,160,7816,326
Raw,326,7822,326
Raw,213,7824,326
Raw,386,7828,326
Raw,270,7835,326
Raw,236,7836,326
Raw,56,7836,326
Raw,356,7839,326
Raw,168,7845,326
Raw,348,7848,326
Raw,60,7852,326
Raw,307,7862,326
Raw,185,7865,326
Raw,45,7865,326
Raw,63,7872,326
Raw,249,7880,326
Raw,169,7887,326
Raw,170,7893,326
Raw,66,7914,326
Raw,160,7918,326
Raw,174,7927,326
Raw,171,7935,326
Raw,173,7941,326
Raw,76,7942,326
Raw,192,7945,326
Raw,198,7952,326
Raw,309,7959,326
Raw,116,7963,326
Raw,177,7965,326
Raw,155,7974,326
Raw,291,7976,326
Raw,169,7979,326
Raw,521,7983,326
Raw,185,7994,326
Raw,172,7996,326
Raw,143,8001,326
Raw,167,8015,326
Raw,157,8020,326
Raw,53,8020,326
Raw,190,8027,326
Raw,362,8035,326
Raw,136,8046,326
Raw,254,8061,326
Raw,60,8062,326
Raw,183,8070,326
Raw,159,8072,326
Raw,125,8084,326
Raw,140,8089,326
Raw,389,8093,326
Raw,166,8114,326
Raw,81,8114,326
Raw,203,8125,326
Raw,241,8141,326
Raw,65,8149,326
Raw,226,8152,326
Raw,166,8155,326
Raw,177,8184,326
Raw,179,8186,326
Raw,180,8190,326
Raw,168,8195,326
Raw,172,8212,326
Raw,207,8213,326
Raw,250,8214,326
Raw,169,8220,326
Raw,142,8228,326
Raw,160,8234,326
Raw,184,8235,326
Raw,392,8236,326
Raw,175,8239,326
Raw,75,8240,326
Raw,67,8249,326
Raw,180,8253,326
Raw,24,8257,326
Raw,172,8266,326
Raw,323,8267,326
Raw,345,8271,326
Raw,321,8275,326
Raw,137,8276,326
Raw,409,8277,326
Raw,47,8281,326
Raw,314,8289,326
Raw,165,8290,326
Raw,89,8297,326
Raw,172,8301,326
Raw,162,8304,326
Raw,105,8304,326
Raw,202,8309,326
Raw,346,8310,326
Raw,116,8313,326
Raw,71,8319,326
Raw,437,8323,326
Raw,181,8329,326
Raw,170,8340,326
Raw,186,8352,326
Raw,357,8362,326
Raw,238,8372,326
Raw,335,8377,326
Raw,171,8377,326
Raw,160,8382,326
Raw,167,8382,326
Raw,301,8386,326
Raw,185,8391,326
Raw,198,8395,326
Raw,155,8404,326
Raw,384,8404,326
Raw,183,8405,326
Raw,103,8405,326
Raw,141,8412,326
Raw,154,8415,326
Raw,507,8420,326
Raw,183,8423,326
Raw,77,8425,326
Raw,214,8434,326
Raw,112,8442,326
Raw,179,8443,326
Raw,244,8445,326
Raw,167,8446,326
Raw,127,8449,326
Raw,165,8450,326
Raw,188,8459,326
Raw,161,8460,326
Raw,357,8473,326
Raw,158,8473,326
Raw,193,8474,326
Raw,397,8479,326
Raw,78,8480,326
Raw,140,8481,326
Raw,290,8483,326
Raw,122,8488,326
Raw,143,8491,326
Raw,157,8493,326
Raw,198,8494,326
Raw,127,8496,326
Raw,140,8504,326
Raw,305,8506,326
Raw,342,8515,326
Raw,166,8516,326
Raw,69,8520,326
Raw,178,8530,326
Raw,134,8542,326
Raw,179,8542,326
Raw,341,8547,326
Raw,523,8554,326
Raw,166,8555,326
Raw,359,8557,326
Raw,161,8557,326
Raw,183,8558,326
Raw,193,8561,326
Raw,141,8565,326
Raw,192,8570,326
Raw,87,8570,326
Raw,322,8579,326
Raw,169,8584,326
Raw,55,8584,326
Raw,168,8585,326
Raw,179,8585,326
Raw,351,8588,326
Raw,161,8591,326
Raw,151,8602,326
Raw,380,8625,326
Raw,184,8639,326
Raw,11,8639,326
Raw,167,8645,326
Raw,301,8647,326
Raw,162,8651,326
Raw,38,8651,326
Raw,198,8665,326
Raw,165,8666,326
Raw,106,8671,326
Raw,157,8688,326
Raw,375,8696,326
Raw,339,8709,326
Raw,135,8710,326
Raw,186,8710,326
Raw,271,8714,326
Raw,139,8715,326
Raw,110,8719,326
Raw,183,8725,326
Raw,176,8731,326
Raw,5,8731,326
Raw,210,8733,326
Raw,286,8733,326
Raw,180,8737,326
Raw,407,8738,326
Raw,158,8740,326
Raw,410,8760,326
Raw,173,8771,326
Raw,174,8788,326
Raw,177,8790,326
Raw,175,8793,326
Raw,192,8797,326
Raw,163,8833,326
Raw,176,8834,326
Raw,53,8836,326
Raw,21,8837,326
Raw,171,8839,326
Raw,169,8841,326
Raw,74,8841,326
Raw,164,8846,326
Raw,156,8846,326
Raw,178,8847,326
Raw,62,8848,326
Raw,195,8857,326
Raw,384,8876,326
Raw,163,8877,326
Raw,181,8882,326
Raw,144,8883,326
Raw,162,8890,326
Raw,58,8890,326
Raw,334,8909,326
Raw,252,8911,326
Raw,166,8915,326
Raw,153,8938,326
Raw,195,8940,326
Raw,183,8940,326
Raw,46,8949,326
Raw,277,8955,326
Raw,176,8956,326
Raw,475,8958,326
Raw,24,8972,326
Raw,387,8973,326
Raw,173,8977,326
Raw,177,8992,326
Raw,188,9002,326
Raw,186,9006,326
Raw,174,9006,326
Raw,157,9007,326
Raw,147,9010,326
Raw,49,9010,326
Raw,115,9012,326
Raw,61,9012,326
Raw,124,9021,326
Raw,102,9021,326
Raw,458,9046,326
Raw,351,9048,326
Raw,226,9050,326
Raw,132,9050,326
Raw,161,9058,326
Raw,174,9063,326
Raw,155,9076,326
Raw,195,9080,326
Raw,357,9081,326
Raw,166,9084,326
Raw,162,9085,326
Raw,51,9085,326
Raw,517,9088,326
Raw,126,9096,326
Raw,185,9113,326
Raw,150,9113,326
Raw,519,9114,326
Raw,175,9116,326
Raw,85,9116,326
Raw,122,9129,326
Raw,167,9136,326
Raw,35,9136,326
Raw,275,9150,326
Raw,482,9164,326
Raw,199,9170,326
Raw,185,9172,326
Raw,212,9180,326
Raw,158,9181,326
Raw,460,9183,326
Raw,160,9186,326
Raw,473,9200,326
Raw,349,9201,326
Raw,182,9207,326
Raw,84,9207,326
Raw,152,9210,326
Raw,123,9215,326
Raw,297,9215,326
Raw,180,9217,326
Raw,322,9220,326
Raw,192,9223,326
Raw,153,9226,326
Raw,174,9242,326
Raw,161,9244,326
Raw,164,9295,326
Raw,398,9298,326
Raw,177,9298,326
Raw,226,9299,326
Raw,55,9313,326
Raw,177,9315,326
Raw,166,9320,326
Raw,167,9322,326
Raw,54,9328,326
Raw,185,9332,326
Raw,181,9335,326
Raw,191,9336,326
Raw,174,9336,326
Raw,174,9337,326
Raw,28,9337,326
Raw,68,9338,326
Raw,139,9344,326
Raw,63,9345,326
Raw,197,9349,326
Raw,152,9353,326
Raw,259,9358,326
Raw,293,9365,326
Raw,276,9366,326
Raw,186,9373,326
Raw,165,9388,326
Raw,304,9393,326
Raw,72,9406,326
Raw,21,9410,326
Raw,346,9410,326
Raw,23,9414,326
Raw,66,9426,326
Raw,165,9429,326
Raw,171,9433,326
Raw,212,9433,326
Raw,56,9439,326
Raw,62,9439,326
Raw,188,9448,326
Raw,171,9455,326
Raw,131,9455,326
Raw,500,9464,326
Raw,71,9470,326
Raw,160,9471,326
Raw,5,9471,326
Raw,194,9473,326
Raw,358,9484,326
Raw,178,9492,326
Raw,41,9493,326
Raw,321,9511,326
Raw,170,9519,326
Raw,48,9519,326
Raw,321,9520,326
Raw,73,9533,326
Raw,178,9538,326
Raw,358,9542,326
Raw,175,9543,326
Raw,129,9555,326
Raw,425,9556,326
Raw,301,9559,326
Raw,353,9588,326
Raw,346,9590,326
Raw,358,9592,326
Raw,173,9594,326
Raw,61,9596,326
Raw,171,9597,326
Raw,163,9603,326
Raw,178,9607,326
Raw,31,9607,326
Raw,126,9626,326
Raw,63,9630,326
Raw,322,9637,326
Raw,130,9644,326
Raw,41,9647,326
Raw,54,9647,326
Raw,190,9651,326
Raw,175,9655,326
Raw,183,9667,326
Raw,127,9674,326
Raw,185,9680,326
Raw,510,9681,326
Raw,123,9689,326
Raw,195,9694,326
Raw,91,9695,326
Raw,194,9699,326
Raw,168,9707,326
Raw,140,9711,326
Raw,39,9711,326
Raw,149,9719,326
Raw,252,9719,326
Raw,115,9725,326
Raw,19,9725,326
Raw,168,9726,326
Raw,162,9732,326
Raw,197,9744,326
Raw,95,9751,326
Raw,168,9766,326
Raw,150,9772,326
Raw,303,9773,326
Raw,327,9778,326
Raw,159,9778,326
Raw,177,9788,326
Raw,325,9792,326
Raw,196,9794,326
Raw,158,9805,326
Raw,277,9805,326
Raw,214,9808,326
Raw,193,9818,326
Raw,155,9818,326
Raw,153,9822,326
Raw,190,9822,326
Raw,130,9829,326
Raw,317,9830,326
Raw,171,9831,326
Raw,122,9837,326
Raw,72,9838,326
Raw,167,9839,326
Raw,66,9839,326
Raw,140,9851,326
Raw,147,9859,326
Raw,192,9869,326
Raw,60,9883,326
Raw,177,9884,326
Raw,186,9889,326
Raw,195,9893,326
Raw,103,9893,326
Raw,78,9894,326
Raw,346,9903,326
Raw,169,9904,326
Raw,190,9905,326
Raw,452,9906,326
Raw,228,9918,326
Raw,350,9923,326
Raw,167,9924,326
Raw,107,9924,326
Raw,172,9928,326
Raw,172,9930,326
Raw,322,9936,326
Raw,180,9938,326
Raw,60,9940,326
Raw,102,9942,326
Raw,150,9948,326
Raw,138,9948,326
Raw,509,9951,326
Raw,162,9951,326
Raw,150,9957,326
Raw,169,9965,326
Raw,324,9969,326
Raw,185,9974,326
Raw,199,9986,326
Raw,206,9987,326
Raw,198,9987,326
Raw,340,9993,326
Raw,355,10003,326
Raw,504,10004,326
Raw,143,10008,326
Raw,168,10008,326
Raw,443,10012,326
Raw,328,10018,326
Raw,390,10030,326
Raw,316,10037,326
Raw,342,10043,326
Raw,264,10044,326
Raw,163,10049,326
Raw,176,10049,326
Raw,308,10051,326
Raw,84,10055,326
Raw,140,10065,326
Raw,128,10068,326
Raw,172,10070,326
Raw,350,10074,326
Raw,182,10088,326
Raw,438,10094,326
Raw,291,10105,326
Raw,58,10107,326
Raw,199,10108,326
Raw,54,10108,326
Raw,391,10111,326
Raw,349,10117,326
Raw,168,10117,326
Raw,49,10123,326
Raw,313,10128,326
Raw,160,10131,326
Raw,172,10140,326
Raw,154,10141,326
Raw,49,10141,326
Raw,77,10142,326
Raw,182,10146,326
Raw,235,10149,326
Raw,336,10163,326
Raw,145,10168,326
Raw,310,10171,326
Raw,347,10179,326
Raw,173,10183,326
Raw,168,10188,326
Raw,171,10188,326
Raw,202,10191,326
Raw,381,10198,326
Raw,378,10204,326
Raw,344,10208,326
Raw,162,10215,326
Raw,96,10217,326
Raw,71,10223,326
Raw,162,10233,326
Raw,161,10234,326
Raw,97,10238,326
Raw,126,10238,326
Raw,338,10239,326
Raw,513,10240,326
Raw,269,10247,326
Raw,370,10248,326
Raw,169,10262,326
Raw,23,10267,326
Raw,358,10268,326
Raw,100,10268,326
Raw,170,10271,326
Raw,112,10277,326
Raw,154,10281,326
Raw,208,10285,326
Raw,520,10289,326
Raw,144,10293,326
Raw,170,10293,326
Raw,162,10307,326
Raw,338,10328,326
Raw,454,10329,326
Raw,137,10331,326
Raw,267,10331,326
Raw,347,10333,326
Raw,334,10335,326
Raw,119,10343,326
Raw,89,10348,326
Raw,358,10352,326
Raw,165,10354,326
Raw,46,10360,326
Raw,377,10369,326
Raw,171,10384,326
Raw,180,10385,326
Raw,165,10385,326
Raw,160,10391,326
Raw,193,10394,326
Raw,98,10396,326
Raw,171,10397,326
Raw,103,10409,326
Raw,161,10417,326
Raw,319,10427,326
Raw,22,10427,326
Raw,162,10432,326
Raw,168,10433,326
Raw,149,10434,326
Raw,162,10444,326
Raw,221,10445,326
Raw,165,10446,326
Raw,122,10450,326
Raw,145,10453,326
Raw,111,10456,326
Raw,365,10457,326
Raw,486,10460,326
Raw,193,10471,326
Raw,518,10480,326
Raw,190,10490,326
Raw,490,10496,326
Raw,199,10500,326
Raw,172,10500,326
Raw,51,10500,326
Raw,162,10519,326
Raw,157,10524,326
Raw,184,10532,326
Raw,273,10538,326
Raw,163,10540,326
Raw,179,10548,326
Raw,164,10548,326
Raw,192,10557,326
Raw,138,10562,326
Raw,351,10564,326
Raw,424,10570,326
Raw,431,10577,326
Raw,73,10589,326
Raw,177,10603,326
Raw,168,10603,326
Raw,503,10606,326
Raw,64,10621,326
Raw,111,10621,326
Raw,170,10623,326
Raw,61,10623,326
Raw,239,10624,326
Raw,138,10624,326
Raw,164,10626,326
Raw,349,10630,326
Raw,96,10632,326
Raw,121,10636,326
Raw,194,10642,326
Raw,171,10647,326
Raw,171,10651,326
Raw,348,10660,326
Raw,203,10667,326
Raw,181,10672,326
Raw,88,10683,326
Raw,306,10689,326
Raw,153,10689,326
Raw,60,10692,326
Raw,150,10695,326
Raw,270,10700,326
Raw,271,10712,326
Raw,24,10712,326
Raw,138,10716,326
Raw,166,10722,326
Raw,223,10725,326
Raw,216,10727,326
Raw,140,10729,326
Raw,69,10729,326
Raw,348,10740,326
Raw,258,10742,326
Raw,175,10750,326
Raw,333,10753,326
Raw,169,10754,326
Raw,346,10756,326
Raw,174,10758,326
Raw,180,10764,326
Raw,177,10765,326
Raw,7,10769,326
Raw,94,10771,326
Raw,476,10779,326
Raw,144,10786,326
Raw,330,10790,326
Raw,172,10810,326
Raw,173,10815,326
Raw,72,10819,326
Raw,173,10821,326
Raw,154,10833,326
Raw,75,10839,326
Raw,168,10844,326
Raw,153,10854,326
Raw,363,10860,326
Raw,110,10860,326
Raw,354,10863,326
Raw,177,10867,326
Raw,178,10872,326
Raw,178,10879,326
Raw,304,10896,326
Raw,181,10896,326
Raw,316,10898,326
Raw,63,10900,326
Raw,75,10902,326
Raw,172,10906,326
Raw,117,10908,326
Raw,31,10911,326
Raw,182,10917,326
Raw,154,10918,326
Raw,514,10919,326
Raw,275,10920,326
Raw,187,10922,326
Raw,503,10930,326
Raw,180,10933,326
Raw,180,10936,326
Raw,174,10946,326
Raw,190,10949,326
Raw,115,10949,326
Raw,158,10957,326
Raw,269,10959,326
Raw,169,10960,326
Raw,329,10966,326
Raw,180,10974,326
Raw,163,10979,326
Raw,161,10979,326
Raw,144,10981,326
Raw,59,10981,326
Raw,347,10996,326
Raw,230,11001,326
Raw,386,11009,326
Raw,95,11010,326
Raw,168,11012,326
Raw,350,11017,326
Raw,176,11023,326
Raw,161,11025,326
Raw,139,11026,326
Raw,171,11038,326
Raw,180,11040,326
Raw,50,11040,326
Raw,401,11043,326
Raw,188,11046,326
Raw,201,11062,326
Raw,174,11064,326
Raw,178,11071,326
Raw,198,11072,326
Raw,235,11074,326
Raw,173,11077,326
Raw,185,11083,326
Raw,165,11084,326
Raw,200,11106,326
Raw,147,11115,326
Raw,290,11118,326
Raw,173,11121,326
Raw,154,11131,326
Raw,175,11139,326
Raw,164,11149,326
Raw,132,11151,326
Raw,172,11155,326
Raw,162,11172,326
Raw,165,11177,326
Raw,124,11177,326
Raw,139,11177,326
Raw,134,11182,326
Raw,178,11182,326
Raw,158,11193,326
Raw,145,11195,326
Raw,94,11195,326
Raw,171,11206,326
Raw,178,11207,326
Raw,183,11207,326
Raw,307,11218,326
Raw,512,11223,326
Raw,164,11236,326
Raw,167,11236,326
Raw,53,11240,326
Raw,57,11248,326
Raw,128,11255,326
Raw,178,11260,326
Raw,47,11260,326
Raw,185,11273,326
Raw,159,11277,326
Raw,352,11279,326
Raw,118,11280,326
Raw,262,11284,326
Raw,163,11291,326
Raw,113,11295,326
Raw,124,11297,326
Raw,167,11304,326
Raw,142,11312,326
Raw,34,11312,326
Raw,178,11321,326
Raw,65,11321,326
Raw,213,11322,326
Raw,170,11325,326
Raw,221,11325,326
Raw,184,11331,326
Raw,320,11332,326
Raw,55,11333,326
Raw,164,11335,326
Raw,285,11335,326
Raw,160,11336,326
Raw,179,11345,326
Raw,168,11351,326
Raw,180,11352,326
Raw,50,11365,326
Raw,342,11375,326
Raw,335,11376,326
Raw,138,11378,326
Raw,441,11379,326
Raw,338,11380,326
Raw,173,11380,326
Raw,360,11381,326
Raw,157,11381,326
Raw,290,11383,326
Raw,180,11385,326
Raw,474,11390,326
Raw,170,11391,326
Raw,43,11397,326
Raw,366,11400,326
Raw,86,11404,326
Raw,177,11409,326
Raw,175,11417,326
Raw,347,11431,326
Raw,75,11436,326
Raw,246,11444,326
Raw,64,11449,326
Raw,505,11483,326
Raw,269,11483,326
Raw,185,11491,326
Raw,170,11493,326
Raw,26,11493,326
Raw,58,11499,326
Raw,514,11503,326
Raw,72,11504,326
Raw,154,11514,326
Raw,178,11518,326
Raw,164,11519,326
Raw,86,11528,326
Raw,348,11529,326
Raw,346,11530,326
Raw,165,11535,326
Raw,161,11545,326
Raw,61,11548,326
Raw,147,11555,326
Raw,156,11564,326
Raw,199,11570,326
Raw,52,11570,326
Raw,376,11573,326
Raw,467,11574,326
Raw,478,11577,326
Raw,149,11585,326
Raw,146,11589,326
Raw,180,11592,326
Raw,182,11594,326
Raw,176,11595,326
Raw,55,11595,326
Raw,236,11604,326
Raw,352,11616,326
Raw,190,11621,326
Raw,363,11633,326
Raw,166,11635,326
Raw,61,11638,326
Raw,181,11639,326
Raw,46,11644,326
Raw,375,11647,326
Raw,162,11648,326
Raw,170,11651,326
Raw,162,11652,326
Raw,133,11665,326
Raw,153,11666,326
Raw,157,11674,326
Raw,174,11677,326
Raw,231,11682,326
Raw,184,11688,326
Raw,169,11692,326
Raw,334,11706,326
Raw,162,11709,326
Raw,233,11713,326
Raw,56,11713,326
Raw,47,11718,326
Raw,178,11725,326
Raw,170,11729,326
Raw,228,11737,326
Raw,329,11739,326
Raw,176,11739,326
Raw,525,11747,326
Raw,147,11749,326
Raw,188,11751,326
Raw,166,11752,326
Raw,398,11756,326
Raw,148,11765,326
Raw,328,11767,326
Raw,150,11775,326
Raw,209,11777,326
Raw,36,11777,326
Raw,143,11793,326
Raw,188,11793,326
Raw,163,11797,326
Raw,168,11799,326
Raw,168,11799,326
Raw,69,11799,326
Raw,150,11802,326
Raw,140,11808,326
Raw,334,11813,326
Raw,481,11817,326
Raw,190,11825,326
Raw,367,11826,326
Raw,134,11832,326
Raw,200,11835,326
Raw,172,11841,326
Raw,158,11841,326
Raw,83,11845,326
Raw,126,11845,326
Raw,64,11849,326
Raw,153,11868,326
Raw,141,11868,326
Raw,104,11872,326
Raw,163,11876,326
Raw,174,11878,326
Raw,158,11878,326
Raw,339,11885,326
Raw,156,11887,326
Raw,186,11888,326
Raw,178,11888,326
Raw,186,11899,326
Raw,185,11913,326
Raw,34,11918,326
Raw,168,11934,326
Raw,196,11935,326
Raw,174,11938,326
Raw,58,11956,326
Raw,230,11961,326
Raw,244,11965,326
Raw,49,11965,326
Raw,36,11966,326
Raw,273,11979,326
Raw,162,11980,326
Raw,315,11984,326
Raw,250,11990,326
Raw,164,12000,326
Raw,107,12000,326
Raw,156,12008,326
Raw,151,12008,326
Raw,95,12011,326
Raw,171,12019,326
Raw,359,12020,326
Raw,163,12027,326
Raw,193,12027,326
Raw,173,12031,326
Raw,131,12035,326
Raw,324,12038,326
Raw,354,12038,326
Raw,168,12043,326
Raw,165,12043,326
Raw,456,12046,326
Raw,39,12048,326
Raw,58,12066,326
Raw,54,12068,326
Raw,164,12072,326
Raw,202,12079,326
Raw,32,12081,326
Raw,262,12087,326
Raw,97,12089,326
Raw,116,12092,326
Raw,189,12093,326
Raw,157,12094,326
Raw,186,12095,326
Raw,163,12102,326
Raw,361,12104,326
Raw,313,12116,326
Raw,61,12120,326
Raw,196,12126,326
Raw,210,12136,326
Raw,181,12136,326
Raw,187,12139,326
Raw,291,12148,326
Raw,61,12149,326
Raw,52,12149,326
Raw,145,12155,326
Raw,170,12156,326
Raw,370,12162,326
Raw,156,12170,326
Raw,178,12171,326
Raw,168,12172,326
Raw,133,12177,326
Raw,57,12191,326
Raw,317,12197,326
Raw,507,12198,326
Raw,324,12201,326
Raw,149,12201,326
Raw,524,12202,326
Raw,161,12215,326
Raw,4,12229,326
Raw,205,12230,326
Raw,149,12233,326
Raw,289,12235,326
Raw,173,12244,326
Raw,183,12245,326
Raw,336,12248,326
Raw,187,12255,326
Raw,197,12260,326
Raw,53,12260,326
Raw,313,12263,326
Raw,181,12291,326
Raw,166,12297,326
Raw,145,12304,326
Raw,231,12312,326
Raw,139,12321,326
Raw,165,12325,326
Raw,53,12343,326
Raw,334,12345,326
Raw,167,12358,326
Raw,159,12366,326
Raw,58,12372,326
Raw,162,12379,326
Raw,75,12380,326
Raw,93,12387,326
Raw,3,12399,326
Raw,169,12400,326
Raw,49,12400,326
Raw,190,12408,326
Raw,476,12419,326
Raw,143,12421,326
Raw,112,12421,326
Raw,172,12425,326
Raw,175,12430,326
Raw,353,12435,326
Raw,361,12444,326
Raw,331,12451,326
Raw,80,12463,326
Raw,180,12465,326
Raw,114,12469,326
Raw,53,12469,326
Raw,219,12470,326
Raw,42,12478,326
Raw,169,12480,326
Raw,169,12480,326
Raw,162,12482,326
Raw,178,12483,326
Raw,333,12486,326
Raw,86,12486,326
Raw,177,12489,326
Raw,166,12491,326
Raw,190,12491,326
Raw,204,12498,326
Raw,167,12511,326
Raw,183,12516,326
Raw,160,12520,326
Raw,518,12527,326
Raw,164,12528,326
Raw,147,12531,326
Raw,167,12537,326
Raw,84,12539,326
Raw,376,12540,326
Raw,162,12546,326
Raw,285,12547,326
Raw,179,12551,326
Raw,184,12558,326
Raw,185,12558,326
Raw,333,12559,326
Raw,133,12571,326
Raw,191,12574,326
Raw,167,12579,326
Raw,161,12583,326
Raw,155,12589,326
Raw,187,12590,326
Raw,168,12591,326
Raw,171,12593,326
Raw,171,12600,326
Raw,142,12600,326
Raw,62,12606,326
Raw,71,12607,326
Raw,77,12631,326
Raw,356,12638,326
Raw,173,12641,326
Raw,150,12642,326
Raw,406,12647,326
Raw,153,12650,326
Raw,136,12650,326
Raw,157,12651,326
Raw,165,12661,326
Raw,200,12668,326
Raw,308,12673,326
Raw,157,12673,326
Raw,177,12673,326
Raw,188,12679,326
Raw,356,12685,326
Raw,363,12694,326
Raw,159,12699,326
Raw,186,12703,326
Raw,76,12712,326
Raw,149,12713,326
Raw,195,12713,326
Raw,516,12718,326
Raw,148,12722,326
Raw,175,12722,326
Raw,189,12728,326
Raw,45,12728,326
Raw,169,12747,326
Raw,323,12750,326
Raw,132,12750,326
Raw,174,12751,326
Raw,61,12751,326
Raw,167,12752,326
Raw,177,12756,326
Raw,334,12759,326
Raw,109,12769,326
Raw,187,12780,326
Raw,115,12780,326
Raw,171,12788,326
Raw,131,12793,326
Raw,357,12797,326
Raw,60,12800,326
Raw,359,12802,326
Raw,186,12813,326
Raw,174,12813,326
Raw,164,12815,326
Raw,174,12817,326
Raw,182,12827,326
Raw,377,12828,326
Raw,133,12844,326
Raw,423,12852,326
Raw,180,12855,326
Raw,177,12865,326
Raw,109,12867,326
Raw,160,12868,326
Raw,170,12880,326
Raw,245,12881,326
Raw,377,12883,326
Raw,155,12886,326
Raw,79,12889,326
Raw,167,12900,326
Raw,189,12902,326
Raw,108,12908,326
Raw,66,12912,326
Raw,262,12933,326
Raw,141,12935,326
Raw,214,12936,326
Raw,159,12937,326
Raw,317,12946,326
Raw,152,12966,326
Raw,145,12972,326
Raw,171,12979,326
Raw,187,12981,326
Raw,275,12981,326
Raw,336,12985,326
Raw,176,12987,326
Raw,165,12996,326
Raw,46,13002,326
Raw,142,13005,326
Raw,191,13009,326
Raw,138,13020,326
Raw,180,13023,326
Raw,153,13053,326
Raw,157,13055,326
Raw,175,13058,326
Raw,145,13060,326
Raw,267,13061,326
Raw,159,13061,326
Raw,49,13064,326
Raw,209,13076,326
Raw,201,13077,326
Raw,128,13090,326
Raw,109,13095,326
Raw,64,13095,326
Raw,180,13098,326
Raw,264,13100,326
Raw,175,13106,326
Raw,150,13106,326
Raw,119,13111,326
Raw,97,13111,326
Raw,199,13114,326
Raw,98,13114,326
Raw,177,13120,326
Raw,175,13123,326
Raw,187,13128,326
Raw,166,13135,326
Raw,134,13141,326
Raw,133,13156,326
Raw,97,13156,326
Raw,179,13160,326
Raw,133,13171,326
Raw,54,13173,326
Raw,183,13178,326
Raw,283,13181,326
Raw,456,13183,326
Raw,169,13211,326
Raw,62,13211,326
Raw,355,13215,326
Raw,174,13215,326
Raw,166,13219,326
Raw,159,13220,326
Raw,340,13221,326
Raw,163,13224,326
Raw,193,13229,326
Raw,130,13235,326
Raw,151,13245,326
Raw,101,13245,326
Raw,161,13246,326
Raw,180,13246,326
Raw,191,13247,326
Raw,144,13251,326
Raw,128,13254,326
Raw,104,13256,326
Raw,340,13257,326
Raw,86,13262,326
Raw,91,13262,326
Raw,106,13262,326
Raw,151,13266,326
Raw,151,13274,326
Raw,180,13283,326
Raw,161,13283,326
Raw,178,13289,326
Raw,170,13294,326
Raw,106,13295,326
Raw,183,13299,326
Raw,156,13307,326
Raw,134,13309,326
Raw,110,13321,326
Raw,437,13322,326
Raw,380,13323,326
Raw,204,13336,326
Raw,281,13336,326
Raw,162,13345,326
Raw,114,13347,326
Raw,77,13350,326
Raw,162,13353,326
Raw,163,13361,326
Raw,51,13366,326
Raw,188,13369,326
Raw,168,13376,326
Raw,183,13377,326
Raw,312,13380,326
Raw,189,13381,326
Raw,171,13382,326
Raw,66,13382,326
Raw,62,13386,326
Raw,337,13398,326
Raw,323,13402,326
Raw,201,13406,326
Raw,92,13414,326
Raw,166,13415,326
Raw,242,13417,326
Raw,89,13421,326
Raw,245,13429,326
Raw,402,13430,326
Raw,263,13436,326
Raw,179,13437,326
Raw,143,13461,326
Raw,405,13462,326
Raw,272,13466,326
Raw,84,13468,326
Raw,159,13471,326
Raw,344,13473,326
Raw,171,13480,326
Raw,177,13498,326
Raw,61,13507,326
Raw,350,13518,326
Raw,276,13524,326
Raw,190,13530,326
Raw,64,13552,326
Raw,131,13553,326
Raw,102,13558,326
Raw,56,13562,326
Raw,345,13591,326
Raw,112,13591,326
Raw,291,13599,326
Raw,473,13608,326
Raw,160,13612,326
Raw,186,13618,326
Raw,179,13621,326
Raw,114,13621,326
Raw,177,13627,326
Raw,178,13629,326
Raw,91,13632,326
Raw,150,13642,326
Raw,156,13656,326
Raw,163,13661,326
Raw,167,13663,326
Raw,183,13669,326
Raw,106,13669,326
Raw,161,13695,326
Raw,350,13696,326
Raw,227,13700,326
Raw,186,13702,326
Raw,153,13704,326
Raw,158,13708,326
Raw,62,13708,326
Raw,308,13724,326
Raw,62,13724,326
Raw,181,13726,326
Raw,29,13726,326
Raw,151,13730,326
Raw,175,13734,326
Raw,311,13735,326
Raw,121,13737,326
Raw,146,13748,326
Raw,170,13759,326
Raw,163,13761,326
Raw,306,13766,326
Raw,136,13766,326
Raw,337,13767,326
Raw,173,13771,326
Raw,138,13778,326
Raw,95,13778,326
Raw,76,13780,326
Raw,168,13783,326
Raw,202,13789,326
Raw,140,13800,326
Raw,243,13804,326
Raw,134,13806,326
Raw,142,13820,326
Raw,150,13822,326
Raw,144,13824,326
Raw,167,13827,326
Raw,161,13830,326
Raw,180,13835,326
Raw,63,13835,326
Raw,190,13836,326
Raw,38,13836,326
Raw,179,13841,326
Raw,185,13851,326
Raw,140,13858,326
Raw,48,13860,326
Raw,350,13872,326
Raw,184,13873,326
Raw,363,13876,326
Raw,146,13886,326
Raw,46,13889,326
Raw,163,13893,326
Raw,181,13901,326
Raw,483,13908,326
Raw,151,13911,326
Raw,183,13913,326
Raw,156,13925,326
Raw,255,13936,326
Raw,258,13937,326
Raw,168,13942,326
Raw,166,13948,326
Raw,137,13964,326
Raw,179,13969,326
Raw,65,13973,326
Raw,337,13981,326
Raw,179,13985,326
Raw,305,13988,326
Raw,130,13995,326
Raw,311,13998,326
Raw,144,14001,326
Raw,228,14005,326
Raw,83,14006,326
Raw,196,14013,326
Raw,157,14021,326
Raw,188,14029,326
Raw,187,14031,326
Raw,153,14036,326
Raw,110,14048,326
Raw,195,14055,326
Raw,77,14072,326
Raw,351,14073,326
Raw,168,14075,326
Raw,176,14086,326
Raw,309,14092,326
Raw,358,14096,326
Raw,432,14106,326
Raw,135,14117,326
Raw,13,14131,326
Raw,73,14134,326
Raw,79,14135,326
Raw,334,14145,326
Raw,349,14149,326
Raw,342,14153,326
Raw,309,14155,326
Raw,161,14158,326
Raw,181,14164,326
Raw,138,14172,326
Raw,135,14177,326
Raw,206,14191,326
Raw,177,14192,326
Raw,348,14198,326
Raw,119,14199,326
Raw,175,14201,326
Raw,488,14204,326
Raw,194,14212,326
Raw,141,14214,326
Raw,316,14220,326
Raw,170,14223,326
Raw,170,14223,326
Raw,190,14231,326
Raw,128,14237,326
Raw,179,14239,326
Raw,44,14244,326
Raw,336,14248,326
Raw,178,14248,326
Raw,176,14250,326
Raw,162,14259,326
Raw,141,14264,326
Raw,174,14264,326
Raw,168,14266,326
Raw,223,14266,326
Raw,89,14267,326
Raw,158,14271,326
Raw,364,14272,326
Raw,165,14280,326
Raw,332,14281,326
Raw,117,14298,326
Raw,268,14303,326
Raw,340,14307,326
Raw,213,14316,326
Raw,334,14329,326
Raw,308,14334,326
Raw,59,14335,326
Raw,167,14337,326
Raw,158,14343,326
Raw,175,14345,326
Raw,296,14347,326
Raw,169,14350,326
Raw,228,14356,326
Raw,159,14364,326
Raw,119,14364,326
Raw,132,14369,326
Raw,37,14371,326
Raw,190,14394,326
Raw,178,14412,326
Raw,161,14416,326
Raw,189,14419,326
Raw,172,14424,326
Raw,164,14431,326
Raw,106,14432,326
Raw,168,14440,326
Raw,57,14456,326
Raw,312,14459,326
Raw,181,14462,326
Raw,181,14470,326
Raw,151,14472,326
Raw,48,14475,326
Raw,352,14477,326
Raw,92,14477,326
Raw,185,14486,326
Raw,104,14486,326
Raw,55,14507,326
Raw,364,14516,326
Raw,186,14522,326
Raw,149,14533,326
Raw,124,14533,326
Raw,202,14555,326
Raw,170,14573,326
Raw,177,14573,326
Raw,155,14579,326
Raw,138,14581,326
Raw,153,14589,326
Raw,168,14594,326
Raw,181,14595,326
Raw,132,14602,326
Raw,269,14606,326
Raw,183,14607,326
Raw,141,14609,326
Raw,191,14610,326
Raw,168,14610,326
Raw,182,14629,326
Raw,142,14636,326
Raw,159,14638,326
Raw,157,14642,326
Raw,49,14642,326
Raw,352,14643,326
Raw,373,14644,326
Raw,412,14659,326
Raw,166,14674,326
Raw,309,14686,326
Raw,170,14692,326
Raw,232,14692,326
Raw,316,14695,326
Raw,183,14697,326
Raw,180,14699,326
Raw,186,14706,326
Raw,69,14707,326
Raw,331,14724,326
Raw,152,14730,326
Raw,59,14731,326
Raw,418,14734,326
Raw,172,14735,326
Raw,58,14743,326
Raw,164,14758,326
Raw,168,14758,326
Raw,173,14763,326
Raw,176,14768,326
Raw,381,14769,326
Raw,164,14775,326
Raw,147,14777,326
Raw,174,14778,326
Raw,337,14779,326
Raw,307,14790,326
Raw,114,14808,326
Raw,135,14813,326
Raw,170,14814,326
Raw,159,14815,326
Raw,389,14818,326
Raw,199,14824,326
Raw,507,14829,326
Raw,428,14837,326
Raw,64,14845,326
Raw,166,14859,326
Raw,120,14859,326
Raw,177,14860,326
Raw,261,14861,326
Raw,122,14861,326
Raw,208,14888,326
Raw,178,14891,326
Raw,210,14898,326
Raw,400,14905,326
Raw,371,14916,326
Raw,362,14919,326
Raw,158,14921,326
Raw,369,14922,326
Raw,164,14927,326
Raw,18,14933,326
Raw,354,14935,326
Raw,199,14945,326
Raw,191,14948,326
Raw,186,14949,326
Raw,202,14959,326
Raw,142,14959,326
Raw,189,14960,326
Raw,92,14961,326
Raw,195,14971,326
Raw,245,14978,326
Raw,180,14992,326
Raw,186,14995,326
Raw,163,14998,326
Raw,171,15003,326
Raw,47,15003,326
Raw,303,15006,326
Raw,193,15010,326
Raw,148,15011,326
Raw,226,15015,326
Raw,193,15017,326
Raw,169,15022,326
Raw,324,15026,326
Raw,58,15034,326
Raw,64,15039,326
Raw,159,15048,326
Raw,148,15048,326
Raw,171,15050,326
Raw,168,15056,326
Raw,185,15057,326
Raw,179,15058,326
Raw,296,15064,326
Raw,186,15065,326
Raw,43,15069,326
Raw,178,15070,326
Raw,178,15074,326
Raw,358,15082,326
Raw,171,15084,326
Raw,46,15084,326
Raw,162,15087,326
Raw,85,15094,326
Raw,137,15108,326
Raw,54,15108,326
Raw,343,15109,326
Raw,183,15112,326
Raw,171,15113,326
Raw,183,15113,326
Raw,150,15114,326
Raw,192,15130,326
Raw,378,15135,326
Raw,382,15136,326
Raw,352,15138,326
Raw,230,15150,326
Raw,42,15150,326
Raw,169,15152,326
Raw,172,15161,326
Raw,167,15162,326
Raw,165,15163,326
Raw,125,15166,326
Raw,175,15177,326
Raw,156,15179,326
Raw,179,15181,326
Raw,145,15184,326
Raw,181,15197,326
Raw,336,15202,326
Raw,89,15211,326
Raw,149,15225,326
Raw,163,15234,326
Raw,171,15235,326
Raw,199,15240,326
Raw,130,15242,326
Raw,152,15245,326
Raw,149,15249,326
Raw,215,15252,326
Raw,141,15258,326
Raw,228,15260,326
Raw,138,15262,326
Raw,140,15262,326
Raw,53,15268,326
Raw,307,15270,326
Raw,178,15271,326
Raw,162,15281,326
Raw,160,15281,326
Raw,320,15287,326
Raw,163,15293,326
Raw,159,15301,326
Raw,189,15314,326
Raw,175,15320,326
Raw,180,15321,326
Raw,177,15324,326
Raw,161,15327,326
Raw,185,15331,326
Raw,136,15334,326
Raw,26,15341,326
Raw,176,15346,326
Raw,358,15348,326
Raw,324,15356,326
Raw,141,15363,326
Raw,59,15363,326
Raw,159,15364,326
Raw,345,15367,326
Raw,183,15383,326
Raw,294,15387,326
Raw,168,15389,326
Raw,198,15390,326
Raw,490,15392,326
Raw,166,15398,326
Raw,154,15407,326
Raw,109,15407,326
Raw,366,15408,326
Raw,159,15408,326
Raw,342,15412,326
Raw,252,15426,326
Raw,396,15437,326
Raw,130,15443,326
Raw,176,15446,326
Raw,134,15446,326
Raw,158,15448,326
Raw,140,15451,326
Raw,44,15451,326
Raw,379,15454,326
Raw,3,15454,326
Raw,380,15476,326
Raw,444,15478,326
Raw,138,15486,326
Raw,159,15486,326
Raw,506,15494,326
Raw,63,15495,326
Raw,188,15497,326
Raw,143,15498,326
Raw,181,15501,326
Raw,307,15508,326
Raw,183,15514,326
Raw,187,15519,326
Raw,160,15522,326
Raw,119,15533,326
Raw,333,15544,326
Raw,522,15552,326
Raw,171,15555,326
Raw,52,15559,326
Raw,159,15562,326
Raw,210,15564,326
Raw,265,15565,326
Raw,241,15571,326
Raw,163,15582,326
Raw,164,15587,326
Raw,149,15590,326
Raw,171,15594,326
Raw,181,15606,326
Raw,167,15607,326
Raw,345,15609,326
Raw,317,15617,326
Raw,176,15630,326
Raw,163,15632,326
Raw,56,15634,326
Raw,103,15635,326
Raw,137,15645,326
Raw,192,15647,326
Raw,154,15658,326
Raw,153,15658,326
Raw,472,15682,326
Raw,156,15684,326
Raw,137,15684,326
Raw,341,15694,326
Raw,158,15702,326
Raw,502,15709,326
Raw,58,15713,326
Raw,174,15715,326
Raw,168,15726,326
Raw,114,15729,326
Raw,137,15736,326
Raw,161,15740,326
Raw,159,15742,326
Raw,347,15743,326
Raw,61,15757,326
Raw,120,15760,326
Raw,235,15771,326
Raw,164,15782,326
Raw,341,15783,326
Raw,199,15785,326
Raw,349,15786,326
Raw,435,15787,326
Raw,168,15791,326
Raw,167,15796,326
Raw,310,15799,326
Raw,171,15803,326
Raw,166,15812,326
Raw,39,15818,326
Raw,222,15819,326
Raw,180,15822,326
Raw,175,15834,326
Raw,158,15835,326
Raw,277,15838,326
Raw,345,15840,326
Raw,185,15845,326
Raw,180,15845,326
Raw,186,15856,326
Raw,314,15876,326
Raw,155,15876,326
Raw,166,15882,326
Raw,173,15894,326
Raw,64,15896,326
Raw,143,15902,326
Raw,190,15904,326
Raw,334,15910,326
Raw,176,15915,326
Raw,108,15926,326
Raw,519,15927,326
Raw,81,15929,326
Raw,164,15936,326
Raw,180,15938,326
Raw,141,15938,326
Raw,515,15947,326
Raw,70,15948,326
Raw,254,15951,326
Raw,134,15959,326
Raw,140,15959,326
Raw,134,15969,326
Raw,172,15969,326
Raw,129,15972,326
Raw,146,15973,326
Raw,238,15980,326
Raw,84,15984,326
Raw,190,15987,326
Raw,197,16009,326
Raw,500,16014,326
Raw,70,16023,326
Raw,169,16044,326
Raw,358,16048,326
Raw,318,16056,326
Raw,145,16073,326
Raw,491,16078,326
Raw,313,16086,326
Raw,165,16086,326
Raw,516,16093,326
Raw,153,16105,326
Raw,74,16105,326
Raw,142,16105,326
Raw,173,16114,326
Raw,179,16115,326
Raw,164,16123,326
Raw,141,16133,326
Raw,162,16134,326
Raw,516,16136,326
Raw,142,16141,326
Raw,140,16141,326
Raw,98,16142,326
Raw,137,16145,326
Raw,424,16147,326
Raw,64,16156,326
Raw,147,16159,326
Raw,174,16160,326
Raw,26,16162,326
Raw,506,16164,326
Raw,104,16169,326
Raw,187,16171,326
Raw,146,16176,326
Raw,191,16181,326
Raw,113,16194,326
Raw,129,16195,326
Raw,289,16199,326
Raw,199,16202,326
Raw,119,16203,326
Raw,357,16208,326
Raw,345,16209,326
Raw,166,16215,326
Raw,179,16223,326
Raw,437,16226,326
Raw,151,16231,326
Raw,64,16232,326
Raw,147,16233,326
Raw,223,16243,326
Raw,156,16243,326
Raw,316,16247,326
Raw,203,16250,326
Raw,152,16257,326
Raw,373,16258,326
Raw,151,16261,326
Raw,156,16261,326
Raw,142,16277,326
Raw,336,16279,326
Raw,177,16290,326
Raw,160,16294,326
Raw,138,16310,326
Raw,60,16313,326
Raw,162,16314,326
Raw,240,16318,326
Raw,40,16321,326
Raw,173,16322,326
Raw,179,16329,326
Raw,68,16343,326
Raw,100,16343,326
Raw,189,16344,326
Raw,189,16354,326
Raw,358,16362,326
Raw,146,16364,326
Raw,79,16378,326
Raw,480,16388,326
Raw,164,16391,326
Raw,131,16391,326
Raw,449,16410,326
Raw,3,16410,326
Raw,188,16425,326
Raw,148,16428,326
Raw,169,16432,326
Raw,152,16434,326
Raw,175,16435,326
Raw,173,16449,326
Raw,157,16450,326
Raw,160,16459,326
Raw,183,16466,326
Raw,181,16469,326
Raw,178,16470,326
Raw,154,16473,326
Raw,167,16477,326
Raw,169,16477,326
Raw,36,16481,326
Raw,159,16484,326
Raw,176,16489,326
Raw,187,16491,326
Raw,355,16496,326
Raw,174,16499,326
Raw,93,16499,326
Raw,160,16502,326
Raw,166,16503,326
Raw,199,16515,326
Raw,162,16517,326
Raw,128,16517,326
Raw,343,16522,326
Raw,133,16527,326
Raw,312,16554,326
Raw,170,16557,326
Raw,131,16557,326
Raw,336,16568,326
Raw,42,16578,326
Raw,175,16579,326
Raw,267,16590,326
Raw,236,16593,326
Raw,162,16595,326
Raw,173,16601,326
Raw,188,16605,326
Raw,85,16605,326
Raw,170,16615,326
Raw,169,16622,326
Raw,363,16628,326
Raw,236,16630,326
Raw,158,16632,326
Raw,189,16645,326
Raw,160,16645,326
Raw,82,16654,326
Raw,231,16661,326
Raw,161,16662,326
Raw,436,16668,326
Raw,449,16670,326
Raw,321,16672,326
Raw,320,16685,326
Raw,154,16685,326
Raw,465,16686,326
Raw,128,16689,326
Raw,151,16690,326
Raw,344,16695,326
Raw,166,16707,326
Raw,171,16726,326
Raw,354,16728,326
Raw,217,16729,326
Raw,98,16731,326
Raw,273,16732,326
Raw,83,16734,326
Raw,251,16748,326
Raw,84,16748,326
Raw,169,16752,326
Raw,336,16757,326
Raw,366,16771,326
Raw,148,16771,326
Raw,41,16773,326
Raw,204,16779,326
Raw,165,16782,326
Raw,156,16791,326
Raw,384,16792,326
Raw,59,16796,326
Raw,170,16819,326
Raw,5,16821,326
Raw,132,16821,326
Raw,367,16830,326
Raw,168,16838,326
Raw,130,16839,326
Raw,159,16840,326
Raw,292,16844,326
Raw,208,16853,326
Raw,405,16857,326
Raw,372,16874,326
Raw,196,16877,326
Raw,367,16887,326
Raw,64,16890,326
Raw,195,16896,326
Raw,65,16902,326
Raw,98,16912,326
Raw,169,16919,326
Raw,84,16919,326
Raw,106,16926,326
Raw,166,16929,326
Raw,278,16932,326
Raw,242,16934,326
Raw,172,16936,326
Raw,183,16940,326
Raw,319,16942,326
Raw,156,16944,326
Raw,305,16944,326
Raw,194,16945,326
Raw,47,16948,326
Raw,122,16951,326
Raw,152,16952,326
Raw,144,16952,326
Raw,178,16970,326
Raw,112,16970,326
Raw,244,16982,326
Raw,157,16984,326
Raw,158,16991,326
Raw,174,16996,326
Raw,347,16999,326
