Cut?,Counts,eventNumber,runNumber
Raw,1.21386055e+05,2,326
Raw,5.00746605e+05,5,326
Raw,8.4399646e+05,10,326
Raw,3.27379145e+05,11,326
Raw,9.197515e+05,13,326
Raw,1.38034865e+05,13,326
Raw,1.1472584e+06,19,326
Raw,3.05763589e+05,23,326
Raw,9.46966077e+05,30,326
Raw,9.82764325e+05,31,326
Raw,3.97204748e+05,40,326
Raw,1.1031416e+06,45,326
Raw,9.3772707e+05,59,326
Raw,4.16777665e+05,88,326
Raw,9.61025686e+05,93,326
Raw,4.46183907e+05,94,326
Raw,4.42197123e+05,94,326
Raw,4.17348877e+05,101,326
Raw,1.34110473e+06,111,326
Raw,1.12932139e+06,113,326
Raw,4.4326836e+05,120,326
Raw,2.12280121e+05,120,326
Raw,4.48855216e+05,124,326
Raw,5.0753323e+05,138,326
Raw,3.90708482e+05,141,326
Raw,8.14091246e+05,142,326
Raw,3.82279667e+05,142,326
Raw,3.52770778e+05,149,326
Raw,3.61267228e+05,157,326
Raw,9.28304097e+05,157,326
Raw,1.95392292e+05,161,326
Raw,8.74357314e+05,166,326
Raw,4.16268516e+05,168,326
Raw,4.98632276e+05,171,326
Raw,1.04591756e+06,172,326
Raw,4.43207489e+05,174,326
Raw,1.16748764e+06,175,326
Raw,6.31016506e+05,177,326
Raw,9.96183842e+05,179,326
Raw,8.26109775e+05,182,326
Raw,3.90206017e+05,182,326
Raw,4.19357885e+05,183,326
Raw,13625.024,187,326
Raw,2.19397916e+05,187,326
Raw,1.40870675e+05,187,326
Raw,1.72253469e+05,200,326
Raw,8.48279734e+05,206,326
Raw,8.77341875e+05,208,326
Raw,5.1242414e+05,211,326
Raw,3.04971194e+05,213,326
Raw,98237.682,213,326
Raw,5.3549707e+05,225,326
Raw,4.04160127e+05,229,326
Raw,9.65242264e+05,240,326
Raw,6.02469325e+05,241,326
Raw,62458.812,243,326
Raw,3.37724582e+05,256,326
Raw,4.06285625e+05,259,326
Raw,5.25961461e+05,269,326
Raw,1.35454182e+06,270,326
Raw,4.3141745e+05,279,326
Raw,5.07445751e+05,281,326
Raw,7.57140779e+05,282,326
Raw,4.77530552e+05,282,326
Raw,4.90838275e+05,290,326
Raw,8.528174e+05,291,326
Raw,8.15666292e+05,298,326
Raw,2.9753886e+05,303,326
Raw,3.74093279e+05,310,326
Raw,2.35958104e+05,314,326
Raw,2.64587483e+05,314,326
Raw,3.7688606e+05,315,326
Raw,9.31758891e+05,317,326
Raw,3.91758737e+05,317,326
Raw,5.20269734e+05,321,326
Raw,5.08174311e+05,322,326
Raw,8.99474126e+05,324,326
Raw,4.16512214e+05,331,326
Raw,6.46410741e+05,342,326
Raw,3.77701565e+05,346,326
Raw,2.42477502e+05,352,326
Raw,4.26311266e+05,356,326
Raw,4.58951815e+05,364,326
Raw,1.52594677e+05,378,326
Raw,1.04579134e+06,379,326
Raw,5.68990467e+05,394,326
Raw,2.98150377e+05,396,326
Raw,94655.483,397,326
Raw,4.76501919e+05,400,326
Raw,3.49830483e+05,400,326
Raw,4.32930811e+05,409,326
Raw,3.6513296e+05,409,326
Raw,6.53584192e+05,414,326
Raw,4.59586641e+05,418,326
Raw,4.5753462e+05,422,326
Raw,4.20906079e+05,434,326
Raw,4.02179885e+05,440,326
Raw,5.5728138e+05,440,326
Raw,3.38710727e+05,442,326
Raw,8.87173524e+05,446,326
Raw,2.95851119e+05,447,326
Raw,4.96365727e+05,465,326
Raw,4.71425981e+05,469,326
Raw,3.2578609e+05,472,326
Raw,5.24166807e+05,486,326
Raw,4.56419488e+05,489,326
Raw,3.80410467e+05,490,326
Raw,1.37296455e+05,502,326
Raw,4.90596499e+05,504,326
Raw,8.22236256e+05,513,326
Raw,7.15671031e+05,518,326
Raw,4.50709866e+05,524,326
Raw,5.10630563e+05,529,326
Raw,4.11931574e+05,538,326
Raw,5.91392882e+05,539,326
Raw,29747.273,539,326
Raw,4.58781728e+05,561,326
Raw,1.36523045e+06,563,326
Raw,4.9492018e+05,578,326
Raw,1.21313309e+05,585,326
Raw,3.40985843e+05,587,326
Raw,4.00181316e+05,593,326
Raw,3.30195313e+05,598,326
Raw,2.22981503e+05,599,326
Raw,9.51159257e+05,601,326
Raw,4.94222289e+05,603,326
Raw,9.8932429e+05,619,326
Raw,3.5433124e+05,620,326
Raw,7.82192366e+05,621,326
Raw,4.44976291e+05,650,326
Raw,2.7420041e+05,653,326
Raw,1.19772441e+06,655,326
Raw,3.13905035e+05,656,326
Raw,4.12083822e+05,657,326
Raw,4.14288999e+05,657,326
Raw,5.22792345e+05,659,326
Raw,5.35175942e+05,659,326
Raw,8.53080254e+05,665,326
Raw,9.93762684e+05,667,326
Raw,5.26823868e+05,669,326
Raw,3.66449066e+05,670,326
Raw,3.97146241e+05,671,326
Raw,4.9864678e+05,681,326
Raw,4.47523176e+05,687,326
Raw,9.66374527e+05,688,326
Raw,3.98096506e+05,689,326
Raw,3.24281595e+05,689,326
Raw,4.66049685e+05,693,326
Raw,4.45931659e+05,694,326
Raw,4.20945666e+05,704,326
Raw,4.76044363e+05,705,326
Raw,3.2495031e+05,710,326
Raw,1.83971321e+05,711,326
Raw,3.59289548e+05,712,326
Raw,2.37834444e+05,713,326
Raw,2.85875059e+05,716,326
Raw,1.16858165e+06,727,326
Raw,4.02711349e+05,727,326
Raw,1.83769881e+05,732,326
Raw,3.2257752e+05,735,326
Raw,8.265885e+05,739,326
Raw,1.44583334e+05,744,326
Raw,4.99653744e+05,744,326
Raw,4.18930712e+05,755,326
Raw,4.27659697e+05,755,326
Raw,4.25216875e+05,758,326
Raw,7.72211003e+05,767,326
Raw,9.85502974e+05,775,326
Raw,1.09259313e+05,781,326
Raw,9.60486819e+05,804,326
Raw,7.18507302e+05,809,326
Raw,1.35154288e+06,811,326
Raw,2.44701007e+05,812,326
Raw,4.2298587e+05,823,326
Raw,9.48450439e+05,842,326
Raw,8.84699594e+05,843,326
Raw,9.13140495e+05,849,326
Raw,5.2887225e+05,850,326
Raw,4.00662123e+05,854,326
Raw,4.53498731e+05,854,326
Raw,4.50964506e+05,863,326
Raw,1.73048814e+05,869,326
Raw,3.66313792e+05,873,326
Raw,4.04915834e+05,881,326
Raw,1.3951367e+05,885,326
Raw,4.35741733e+05,891,326
Raw,6.41300299e+05,896,326
Raw,4.46936356e+05,897,326
Raw,8.39571071e+05,903,326
Raw,9.61805949e+05,904,326
Raw,1.06320001e+06,915,326
Raw,8.39321793e+05,924,326
Raw,5.07076737e+05,924,326
Raw,9.89589543e+05,926,326
Raw,4.51507701e+05,939,326
Raw,6.45114321e+05,942,326
Raw,3.47430192e+05,949,326
Raw,4.9099461e+05,950,326
Raw,4.79606994e+05,963,326
Raw,9.04280602e+05,968,326
Raw,4.79990526e+05,968,326
Raw,1.78079713e+05,973,326
Raw,8.37956846e+05,980,326
Raw,4.21119867e+05,985,326
Raw,3.72104843e+05,985,326
Raw,1.18577071e+06,986,326
Raw,4.95463986e+05,987,326
Raw,5.30472815e+05,988,326
Raw,32283.234,988,326
Raw,4.61899112e+05,994,326
Raw,4.11142248e+05,997,326
Raw,1.79250562e+05,997,326
Raw,8.7134677e+05,1000,326
Raw,4.54926786e+05,1006,326
Raw,3.09888459e+05,1015,326
Raw,4.8396513e+05,1017,326
Raw,4.1768928e+05,1022,326
Raw,1.55952648e+05,1022,326
Raw,6.32459663e+05,1025,326
Raw,3.61973935e+05,1031,326
Raw,6.75537686e+05,1034,326
Raw,7.4321157e+05,1035,326
Raw,3.30849351e+05,1041,326
Raw,8.59426643e+05,1061,326
Raw,3.82078939e+05,1062,326
Raw,3.55748048e+05,1066,326
Raw,4.74693593e+05,1067,326
Raw,5.07211698e+05,1068,326
Raw,7.00855006e+05,1071,326
Raw,4.22253075e+05,1080,326
Raw,4.03542385e+05,1083,326
Raw,1.28479531e+06,1088,326
Raw,6.55319234e+05,1090,326
Raw,5.37613284e+05,1092,326
Raw,4.2983619e+05,1092,326
Raw,2.95848889e+05,1097,326
Raw,4.07206235e+05,1098,326
Raw,9.17975042e+05,1115,326
Raw,8.07703305e+05,1127,326
Raw,4.83842693e+05,1127,326
Raw,8.26191876e+05,1129,326
Raw,4.33670619e+05,1142,326
Raw,4.52337128e+05,1149,326
Raw,4.69929608e+05,1150,326
Raw,5.89166576e+05,1150,326
Raw,5.34646623e+05,1160,326
Raw,5.47575273e+05,1164,326
Raw,4.5326979e+05,1173,326
Raw,4.34111866e+05,1179,326
Raw,39386.788,1183,326
Raw,4.26003338e+05,1184,326
Raw,4.52881176e+05,1184,326
Raw,3.29596017e+05,1189,326
Raw,4.9063529e+05,1193,326
Raw,5.46469514e+05,1195,326
Raw,5.02825775e+05,1203,326
Raw,2.6539757e+05,1203,326
Raw,5.34793335e+05,1208,326
Raw,4.67958591e+05,1212,326
Raw,1.17892887e+06,1215,326
Raw,9.2174998e+05,1218,326
Raw,3.68310269e+05,1222,326
Raw,4.88424182e+05,1225,326
Raw,4.31122022e+05,1226,326
Raw,3.67262189e+05,1227,326
Raw,4.29347968e+05,1227,326
Raw,6.01245508e+05,1228,326
Raw,4.0282313e+05,1232,326
Raw,5.33576346e+05,1243,326
Raw,1.21369114e+05,1244,326
Raw,92642.134,1245,326
Raw,4.03437751e+05,1252,326
Raw,1.40346629e+05,1256,326
Raw,2.93968195e+05,1257,326
Raw,8.207984e+05,1260,326
Raw,4.49355714e+05,1266,326
Raw,5.05819046e+05,1271,326
Raw,9.18574255e+05,1286,326
Raw,2.08413989e+05,1296,326
Raw,2.68460349e+05,1298,326
Raw,3.72112123e+05,1303,326
Raw,5.15549301e+05,1305,326
Raw,4.96449137e+05,1307,326
Raw,7.07790678e+05,1307,326
Raw,9.26719196e+05,1346,326
Raw,5.28088143e+05,1346,326
Raw,8.66891241e+05,1357,326
Raw,5.43648344e+05,1368,326
Raw,2.13273379e+05,1371,326
Raw,9.76839925e+05,1373,326
Raw,2.79691725e+05,1375,326
Raw,3.9801034e+05,1386,326
Raw,1.28253497e+06,1390,326
Raw,1.48888782e+05,1396,326
Raw,3.49704712e+05,1400,326
Raw,3.46428129e+05,1400,326
Raw,1.00247603e+06,1405,326
Raw,3.83294812e+05,1406,326
Raw,3.9765428e+05,1408,326
Raw,4.88318421e+05,1436,326
Raw,3.65886995e+05,1442,326
Raw,4.28158131e+05,1448,326
Raw,1.07351109e+06,1457,326
Raw,3.40405482e+05,1464,326
Raw,4.25479247e+05,1465,326
Raw,2.03569083e+05,1465,326
Raw,2.56966899e+05,1465,326
Raw,9.93510564e+05,1467,326
Raw,5.89574579e+05,1474,326
Raw,3.0130516e+05,1474,326
Raw,5.36555709e+05,1478,326
Raw,4.03050871e+05,1482,326
Raw,3.55149697e+05,1486,326
Raw,2.44227455e+05,1489,326
Raw,4.43615136e+05,1492,326
Raw,4.56066135e+05,1493,326
Raw,3.45940441e+05,1494,326
Raw,4.30887987e+05,1497,326
Raw,2.02482973e+05,1502,326
Raw,4.01705815e+05,1505,326
Raw,5.04307587e+05,1515,326
Raw,1.12622437e+06,1521,326
Raw,9.91401819e+05,1531,326
Raw,4.35745142e+05,1536,326
Raw,4.78809662e+05,1537,326
Raw,7.97606044e+05,1538,326
Raw,3.66677683e+05,1545,326
Raw,89601.104,1545,326
Raw,4.99973362e+05,1553,326
Raw,4.24748339e+05,1553,326
Raw,5.35691356e+05,1555,326
Raw,9.97051687e+05,1556,326
Raw,1.05960707e+06,1557,326
Raw,3.57726147e+05,1559,326
Raw,1.0121336e+06,1566,326
Raw,4.91326955e+05,1571,326
Raw,4.16694514e+05,1576,326
Raw,4.00136945e+05,1577,326
Raw,1.9409445e+05,1582,326
Raw,3.98522318e+05,1589,326
Raw,1.6373677e+05,1590,326
Raw,71344.75,1590,326
Raw,2.8342747e+05,1591,326
Raw,1.81973481e+05,1599,326
Raw,1.24268964e+06,1602,326
Raw,3.23556888e+05,1605,326
Raw,1.35698562e+05,1609,326
Raw,3.79444672e+05,1610,326
Raw,4.90103558e+05,1610,326
Raw,3.78921603e+05,1623,326
Raw,6.30924418e+05,1626,326
Raw,1.33804425e+06,1628,326
Raw,2.61612149e+05,1629,326
Raw,3.69079517e+05,1636,326
Raw,6.16147203e+05,1650,326
Raw,3.93841029e+05,1651,326
Raw,5.23258283e+05,1661,326
Raw,5.41065761e+05,1665,326
Raw,4.61033713e+05,1667,326
Raw,8.83066185e+05,1673,326
Raw,3.15379163e+05,1673,326
Raw,2.11503628e+05,1673,326
Raw,4.40644388e+05,1675,326
Raw,4.72069162e+05,1675,326
Raw,9.8142733e+05,1682,326
Raw,9.97568602e+05,1683,326
Raw,4.15871077e+05,1689,326
Raw,3.86896857e+05,1691,326
Raw,2.58489381e+05,1691,326
Raw,5.37637839e+05,1693,326
Raw,9.01792514e+05,1694,326
Raw,3.88138527e+05,1695,326
Raw,9.29564739e+05,1705,326
Raw,3.6700077e+05,1706,326
Raw,7.51138785e+05,1707,326
Raw,7.08957301e+05,1708,326
Raw,1.50462971e+05,1717,326
Raw,3.17727817e+05,1717,326
Raw,4.38946792e+05,1719,326
Raw,4.32567285e+05,1727,326
Raw,3.78148116e+05,1731,326
Raw,8.03329798e+05,1732,326
Raw,8.65327546e+05,1742,326
Raw,1.03132591e+05,1745,326
Raw,4.95028983e+05,1750,326
Raw,9.87776824e+05,1761,326
Raw,1.43544408e+05,1768,326
Raw,3.64251995e+05,1770,326
Raw,3.75344067e+05,1776,326
Raw,1.36600032e+05,1779,326
Raw,2.61573922e+05,1779,326
Raw,1.11289246e+05,1780,326
Raw,5.41119293e+05,1785,326
Raw,4.53562229e+05,1787,326
Raw,3.86503055e+05,1787,326
Raw,3.52873228e+05,1790,326
Raw,4.22493512e+05,1790,326
Raw,4.4605176e+05,1803,326
Raw,4.81587584e+05,1807,326
Raw,1.15627961e+05,1821,326
Raw,3.5841418e+05,1825,326
Raw,4.64738309e+05,1831,326
Raw,5.04826789e+05,1848,326
Raw,1.37932437e+05,1848,326
Raw,8.82685143e+05,1850,326
Raw,5.32997594e+05,1850,326
Raw,5.43471851e+05,1853,326
Raw,3.97751473e+05,1860,326
Raw,7.45574539e+05,1867,326
Raw,71370.472,1867,326
Raw,2.82959136e+05,1872,326
Raw,4.0780767e+05,1875,326
Raw,1.31083215e+05,1884,326
Raw,1.12302386e+06,1887,326
Raw,1.02131288e+06,1891,326
Raw,8.08544327e+05,1897,326
Raw,5.72526873e+05,1910,326
Raw,3.52858287e+05,1910,326
Raw,4.68286481e+05,1916,326
Raw,9.45237555e+05,1917,326
Raw,2.03834065e+05,1922,326
Raw,4.59889648e+05,1928,326
Raw,8.05290725e+05,1930,326
Raw,4.90947437e+05,1933,326
Raw,1.01029306e+06,1941,326
Raw,4.8288476e+05,1957,326
Raw,4.68271285e+05,1959,326
Raw,8.9271541e+05,1961,326
Raw,4.50897985e+05,1970,326
Raw,4.81739622e+05,1987,326
Raw,2.22361177e+05,1990,326
Raw,4.07032761e+05,2000,326
Raw,3.81188004e+05,2018,326
Raw,4.4506192e+05,2019,326
Raw,3.61708721e+05,2022,326
Raw,4.40871779e+05,2025,326
Raw,4.06104159e+05,2039,326
Raw,4.58209541e+05,2041,326
Raw,4.69491734e+05,2048,326
Raw,4.31365529e+05,2048,326
Raw,5.23854544e+05,2049,326
Raw,4.15362731e+05,2062,326
Raw,4.3219116e+05,2065,326
Raw,7.79077147e+05,2066,326
Raw,1.38703426e+05,2068,326
Raw,3.98479707e+05,2076,326
Raw,1.85703525e+05,2086,326
Raw,2.7133977e+05,2086,326
Raw,6.99795212e+05,2093,326
Raw,53382.528,2093,326
Raw,4.86052134e+05,2099,326
Raw,4.78614326e+05,2103,326
Raw,3.77480227e+05,2103,326
Raw,1.17515608e+06,2112,326
Raw,3.04181831e+05,2113,326
Raw,3.88446541e+05,2114,326
Raw,3.48162243e+05,2119,326
Raw,5.53371042e+05,2120,326
Raw,9.56826381e+05,2122,326
Raw,9.24259365e+05,2128,326
Raw,1.00219019e+06,2129,326
Raw,4.89859452e+05,2129,326
Raw,4.96998296e+05,2133,326
Raw,4.44219496e+05,2135,326
Raw,3.39968391e+05,2149,326
Raw,1.27102127e+05,2149,326
Raw,5.16535197e+05,2151,326
Raw,7.56397961e+05,2159,326
Raw,7.54877874e+05,2165,326
Raw,6.27815056e+05,2172,326
Raw,4.0275389e+05,2174,326
Raw,4.02089824e+05,2177,326
Raw,1.34821044e+06,2184,326
Raw,4.35470175e+05,2186,326
Raw,4.81858909e+05,2190,326
Raw,7.97049558e+05,2191,326
Raw,4.82134623e+05,2192,326
Raw,58025.823,2192,326
Raw,4.22402221e+05,2194,326
Raw,5.15895459e+05,2218,326
Raw,5.53124964e+05,2223,326
Raw,6.70625072e+05,2229,326
Raw,1.00733132e+06,2238,326
Raw,4.38684659e+05,2239,326
Raw,4.94335938e+05,2245,326
Raw,2.92739554e+05,2248,326
Raw,9.61704938e+05,2252,326
Raw,71605.441,2254,326
Raw,5.31358696e+05,2263,326
Raw,4.61490905e+05,2268,326
Raw,1.77985194e+05,2270,326
Raw,4.86882755e+05,2271,326
Raw,6.87054521e+05,2280,326
Raw,4.730184e+05,2281,326
Raw,7.4997081e+05,2284,326
Raw,3.2623671e+05,2288,326
Raw,1.92032606e+05,2292,326
Raw,5.77229791e+05,2299,326
Raw,30622.575,2299,326
Raw,3.85233291e+05,2313,326
Raw,4.06076764e+05,2316,326
Raw,5.00718138e+05,2316,326
Raw,4.65521814e+05,2320,326
Raw,3.82584248e+05,2323,326
Raw,5.64335745e+05,2326,326
Raw,5.57917206e+05,2334,326
Raw,4.9514349e+05,2338,326
Raw,3.87951772e+05,2349,326
Raw,7.58681863e+05,2349,326
Raw,4.47352637e+05,2361,326
Raw,4.99479776e+05,2363,326
Raw,4.12479498e+05,2365,326
Raw,9.97152644e+05,2370,326
Raw,4.03145799e+05,2377,326
Raw,3.76410683e+05,2389,326
Raw,6.7425381e+05,2390,326
Raw,4.86477971e+05,2391,326
Raw,1.28283495e+06,2397,326
Raw,4.89129425e+05,2401,326
Raw,1.27485579e+06,2402,326
Raw,3.11048345e+05,2403,326
Raw,5.01165056e+05,2403,326
Raw,9.20234804e+05,2408,326
Raw,8.88329222e+05,2409,326
Raw,4.56432949e+05,2415,326
Raw,2.27161558e+05,2415,326
Raw,7.23971579e+05,2419,326
Raw,9.48133985e+05,2422,326
Raw,9.59948598e+05,2430,326
Raw,5.00281551e+05,2432,326
Raw,8.29406636e+05,2433,326
Raw,4.79925874e+05,2436,326
Raw,1.68536475e+05,2444,326
Raw,4.01626665e+05,2445,326
Raw,3.80549701e+05,2447,326
Raw,4.61165165e+05,2448,326
Raw,4.98942728e+05,2452,326
Raw,3.15466465e+05,2456,326
Raw,6.21091571e+05,2468,326
Raw,4.33325907e+05,2484,326
Raw,1.24575994e+06,2485,326
Raw,5.23772046e+05,2496,326
Raw,4.8777975e+05,2500,326
Raw,4.16250995e+05,2509,326
Raw,9.13547155e+05,2516,326
Raw,1.07142099e+06,2517,326
Raw,4.14645832e+05,2524,326
Raw,6.66805947e+05,2540,326
Raw,1.96465341e+05,2541,326
Raw,4.20837396e+05,2545,326
Raw,4.84362156e+05,2552,326
Raw,8.01852587e+05,2556,326
Raw,1.41318236e+05,2562,326
Raw,1.29429286e+05,2568,326
Raw,1.10455444e+05,2568,326
Raw,5.38264556e+05,2573,326
Raw,8.8714706e+05,2579,326
Raw,9.82576102e+05,2581,326
Raw,4.76696121e+05,2585,326
Raw,9.0721306e+05,2602,326
Raw,96639.668,2604,326
Raw,4.65070138e+05,2606,326
Raw,4.0842136e+05,2613,326
Raw,3.89067308e+05,2614,326
Raw,5.35389834e+05,2642,326
Raw,4.85485394e+05,2649,326
Raw,4.54961724e+05,2650,326
Raw,7.15348589e+05,2650,326
Raw,2.09507909e+05,2655,326
Raw,7.48924987e+05,2668,326
Raw,8.51940594e+05,2680,326
Raw,4.48258643e+05,2681,326
Raw,9.45500978e+05,2687,326
Raw,4.38234848e+05,2689,326
Raw,9.39921329e+05,2691,326
Raw,3.70586809e+05,2699,326
Raw,3.5679248e+05,2706,326
Raw,1.3066623e+06,2714,326
Raw,7.63937818e+05,2723,326
Raw,4.34026343e+05,2725,326
Raw,3.90818001e+05,2749,326
Raw,1.28985557e+06,2751,326
Raw,8.91113486e+05,2758,326
Raw,8.91833418e+05,2768,326
Raw,3.40460162e+05,2773,326
Raw,3.96971936e+05,2775,326
Raw,1.50077906e+05,2785,326
Raw,4.63119627e+05,2810,326
Raw,4.29251918e+05,2812,326
Raw,2.12096234e+05,2812,326
Raw,5.81017866e+05,2829,326
Raw,3.0812764e+05,2829,326
Raw,1.17857027e+06,2847,326
Raw,6.09263797e+05,2861,326
Raw,4.25281871e+05,2875,326
Raw,6.68746314e+05,2877,326
Raw,4.61080226e+05,2885,326
Raw,4.62941117e+05,2899,326
Raw,4.18642682e+05,2900,326
Raw,3.3552864e+05,2902,326
Raw,6.5971786e+05,2906,326
Raw,53049.454,2909,326
Raw,4.9694096e+05,2910,326
Raw,6.64727381e+05,2911,326
Raw,8.64903273e+05,2915,326
Raw,1.28702606e+05,2916,326
Raw,1.26464051e+05,2916,326
Raw,3.86094471e+05,2917,326
Raw,5.21076668e+05,2917,326
Raw,2.46345033e+05,2918,326
Raw,2.6411582e+05,2924,326
Raw,4.66926685e+05,2928,326
Raw,5.40496954e+05,2935,326
Raw,4.12452762e+05,2935,326
Raw,3.79838254e+05,2936,326
Raw,3.18843191e+05,2936,326
Raw,4.1793956e+05,2943,326
Raw,1.89199937e+05,2943,326
Raw,2.89885054e+05,2946,326
Raw,3.99191709e+05,2949,326
Raw,4.12199661e+05,2949,326
Raw,3.33670502e+05,2958,326
Raw,5.01303734e+05,2958,326
Raw,8.47164581e+05,2959,326
Raw,6.29487083e+05,2961,326
Raw,4.9992055e+05,2964,326
Raw,7.02781661e+05,2964,326
Raw,5.26021197e+05,2965,326
Raw,6.86206346e+05,2968,326
Raw,4.43266401e+05,2973,326
Raw,2.72368423e+05,2973,326
Raw,1.18772389e+06,2975,326
Raw,5.55966147e+05,2976,326
Raw,1.28126847e+06,2977,326
Raw,4.06298979e+05,2978,326
Raw,3.30014575e+05,2987,326
Raw,5.36208428e+05,2988,326
Raw,4.26807403e+05,2991,326
Raw,4.30603525e+05,2994,326
Raw,5.1161748e+05,2996,326
Raw,4.85219332e+05,3012,326
Raw,6.72259391e+05,3013,326
Raw,1.95983072e+05,3013,326
Raw,2.10617632e+05,3015,326
Raw,4.79992948e+05,3019,326
Raw,3.78972533e+05,3019,326
Raw,3.93109752e+05,3024,326
Raw,5.74308762e+05,3028,326
Raw,3.00023709e+05,3028,326
Raw,5.95962604e+05,3029,326
Raw,4.31155028e+05,3035,326
Raw,8.77488046e+05,3036,326
Raw,8.61732779e+05,3047,326
Raw,7.65996887e+05,3049,326
Raw,8.89602821e+05,3052,326
Raw,1.50714874e+05,3054,326
Raw,4.47940025e+05,3072,326
Raw,5.92959937e+05,3074,326
Raw,9.33977482e+05,3096,326
Raw,1.4757594e+05,3097,326
Raw,9.50753959e+05,3099,326
Raw,2.88326012e+05,3103,326
Raw,1.02140452e+06,3105,326
Raw,9.29887303e+05,3111,326
Raw,1.66105805e+05,3113,326
Raw,5.13189871e+05,3115,326
Raw,8.15500603e+05,3129,326
Raw,6.23377295e+05,3132,326
Raw,5.15545339e+05,3136,326
Raw,8.74330751e+05,3138,326
Raw,9.7309569e+05,3142,326
Raw,1.6534106e+05,3142,326
Raw,5.16760825e+05,3144,326
Raw,4.22058867e+05,3149,326
Raw,4.90417817e+05,3157,326
Raw,6.28256007e+05,3159,326
Raw,4.93888862e+05,3164,326
Raw,8.52912059e+05,3166,326
Raw,4.27124126e+05,3167,326
Raw,5.22643443e+05,3182,326
Raw,2.28124418e+05,3186,326
Raw,6.2016403e+05,3194,326
Raw,1.33229067e+06,3195,326
Raw,4.66373595e+05,3197,326
Raw,5.31672832e+05,3198,326
Raw,1.31687238e+06,3202,326
Raw,1.03260664e+06,3207,326
Raw,4.72004391e+05,3211,326
Raw,3.05661743e+05,3212,326
Raw,5.28537703e+05,3213,326
Raw,4.66691851e+05,3223,326
Raw,5.06245127e+05,3242,326
Raw,3.87386176e+05,3248,326
Raw,2.75446266e+05,3249,326
Raw,2.64956238e+05,3249,326
Raw,1.36885543e+06,3250,326
Raw,4.56595936e+05,3266,326
Raw,5.91695397e+05,3268,326
Raw,4.78994854e+05,3270,326
Raw,3.79876893e+05,3276,326
Raw,4.5629736e+05,3280,326
Raw,4.8488152e+05,3290,326
Raw,5.0014214e+05,3305,326
Raw,6.0172879e+05,3308,326
Raw,5.45748577e+05,3314,326
Raw,4.41119179e+05,3314,326
Raw,4.52155659e+05,3329,326
Raw,4.85461221e+05,3342,326
Raw,4.64888209e+05,3352,326
Raw,4.21399666e+05,3355,326
Raw,3.67584231e+05,3358,326
Raw,5.32139504e+05,3359,326
Raw,5.09126241e+05,3369,326
Raw,1.70482002e+05,3370,326
Raw,8.98904917e+05,3379,326
Raw,5.14302186e+05,3385,326
Raw,4.46904277e+05,3394,326
Raw,4.33215902e+05,3396,326
Raw,2.46090936e+05,3396,326
Raw,3.78338727e+05,3400,326
Raw,4.61782142e+05,3400,326
Raw,6.66415115e+05,3402,326
Raw,5.5608019e+05,3404,326
Raw,1.42378299e+05,3404,326
Raw,3.55360813e+05,3406,326
Raw,5.17895587e+05,3408,326
Raw,1.02602295e+06,3409,326
Raw,6.81501201e+05,3411,326
Raw,1.05579415e+06,3416,326
Raw,5.70719037e+05,3418,326
Raw,4.73133715e+05,3418,326
Raw,4.14904324e+05,3418,326
Raw,8.37628234e+05,3432,326
Raw,5.18157853e+05,3432,326
Raw,4.95632613e+05,3441,326
Raw,4.64472551e+05,3449,326
Raw,6.01268276e+05,3454,326
Raw,1.12679653e+05,3454,326
Raw,9.94241436e+05,3458,326
Raw,7.2482752e+05,3463,326
Raw,5.1919982e+05,3464,326
Raw,2.62351456e+05,3465,326
Raw,3.44272805e+05,3465,326
Raw,5.35558037e+05,3471,326
Raw,7.83462615e+05,3472,326
Raw,1.29494151e+06,3474,326
Raw,5.21138537e+05,3475,326
Raw,7.11380737e+05,3475,326
Raw,5.21281046e+05,3476,326
Raw,2.52440379e+05,3476,326
Raw,9.59157523e+05,3483,326
Raw,4.17759751e+05,3483,326
Raw,4.35110234e+05,3499,326
Raw,8.9095527e+05,3502,326
Raw,3.3192294e+05,3502,326
Raw,9.56977914e+05,3507,326
Raw,5.98239719e+05,3508,326
Raw,6.07361497e+05,3510,326
Raw,4.08489551e+05,3512,326
Raw,4.67112949e+05,3519,326
Raw,7.39884791e+05,3524,326
Raw,5.02483947e+05,3529,326
Raw,5.13104503e+05,3533,326
Raw,3.51407496e+05,3533,326
Raw,4.42522941e+05,3545,326
Raw,2.30858214e+05,3547,326
Raw,1.57012178e+05,3554,326
Raw,4.89432961e+05,3556,326
Raw,4.2832307e+05,3558,326
Raw,5.11202202e+05,3561,326
Raw,3.18627167e+05,3580,326
Raw,5.3564522e+05,3599,326
Raw,34236.45,3601,326
Raw,5.4453961e+05,3605,326
Raw,1.78265121e+05,3613,326
Raw,5.79939331e+05,3617,326
Raw,3.81754378e+05,3634,326
Raw,1.18604296e+05,3656,326
Raw,3.29318114e+05,3656,326
Raw,6.22924533e+05,3661,326
Raw,4.04764465e+05,3674,326
Raw,1.28515877e+06,3685,326
Raw,5.84566721e+05,3697,326
Raw,1.00393428e+05,3697,326
Raw,5.66739362e+05,3702,326
Raw,1.88294176e+05,3702,326
Raw,1.14952472e+06,3703,326
Raw,4.56192162e+05,3704,326
Raw,5.85185307e+05,3705,326
Raw,2.51864411e+05,3713,326
Raw,3.59429933e+05,3715,326
Raw,4.35811632e+05,3721,326
Raw,4.64480817e+05,3722,326
Raw,4.40279797e+05,3724,326
Raw,4.45138642e+05,3725,326
Raw,3.59663221e+05,3728,326
Raw,24605.693,3728,326
Raw,8175.2643,3728,326
Raw,5.62597075e+05,3737,326
Raw,8.21226311e+05,3738,326
Raw,8.23993225e+05,3739,326
Raw,1.35435623e+05,3739,326
Raw,5.80806217e+05,3740,326
Raw,7.84215756e+05,3741,326
Raw,3.72188091e+05,3752,326
Raw,1.04418406e+06,3755,326
Raw,3.90670123e+05,3758,326
Raw,3.002078e+05,3759,326
Raw,1.02871205e+06,3780,326
Raw,4.43900462e+05,3796,326
Raw,1.03955134e+05,3796,326
Raw,8.75392348e+05,3801,326
Raw,5.17510479e+05,3804,326
Raw,4.31638206e+05,3810,326
Raw,3.738725e+05,3815,326
Raw,8.17970052e+05,3820,326
Raw,7.934766e+05,3830,326
Raw,1.2520259e+06,3834,326
Raw,1.02592804e+06,3836,326
Raw,9.66822689e+05,3838,326
Raw,5.03491533e+05,3838,326
Raw,6.16645602e+05,3840,326
Raw,6.7091146e+05,3853,326
Raw,5.63215183e+05,3854,326
Raw,6.63963458e+05,3855,326
Raw,5.62759648e+05,3864,326
Raw,1.0318101e+06,3867,326
Raw,4.6104452e+05,3869,326
Raw,3.10523072e+05,3879,326
Raw,4.76047102e+05,3897,326
Raw,8.81481825e+05,3906,326
Raw,2.4266745e+05,3906,326
Raw,64248.064,3906,326
Raw,1.07253751e+06,3913,326
Raw,4.87921692e+05,3927,326
Raw,4.44447817e+05,3927,326
Raw,5.04339548e+05,3929,326
Raw,4.43698358e+05,3930,326
Raw,8.35347649e+05,3935,326
Raw,4.49272169e+05,3942,326
Raw,9.80343475e+05,3948,326
Raw,3.85579864e+05,3948,326
Raw,5.49159015e+05,3951,326
Raw,4.41583397e+05,3952,326
Raw,1.15127371e+06,3954,326
Raw,4.97397344e+05,3973,326
Raw,4.50369576e+05,3980,326
Raw,4.14966201e+05,3981,326
Raw,4.62278071e+05,3981,326
Raw,8.53249037e+05,3982,326
Raw,1.00134807e+06,3983,326
Raw,86640.215,3987,326
Raw,3.84914568e+05,3990,326
Raw,3.64455806e+05,3994,326
Raw,8.29604715e+05,4003,326
Raw,1.82449187e+05,4006,326
Raw,1.05426724e+06,4016,326
Raw,1.119201e+06,4018,326
Raw,9.7348323e+05,4026,326
Raw,1.98973562e+05,4026,326
Raw,8.94592538e+05,4027,326
Raw,5.14493845e+05,4029,326
Raw,1.07603468e+05,4029,326
Raw,1.07231837e+06,4045,326
Raw,4.81852332e+05,4046,326
Raw,4.72542914e+05,4049,326
Raw,5.11565744e+05,4053,326
Raw,1.36734573e+05,4053,326
Raw,1.37286592e+06,4060,326
Raw,4.13745348e+05,4061,326
Raw,3.6705304e+05,4061,326
Raw,5.27327729e+05,4063,326
Raw,5.11936982e+05,4066,326
Raw,5.07374016e+05,4083,326
Raw,1.65381492e+05,4103,326
Raw,1.29817767e+06,4105,326
Raw,5.0412383e+05,4105,326
Raw,4.76213791e+05,4107,326
Raw,5.16151969e+05,4119,326
Raw,8.84098446e+05,4121,326
Raw,4.87578263e+05,4134,326
Raw,2.47452905e+05,4134,326
Raw,4.8905444e+05,4135,326
Raw,6.01878641e+05,4140,326
Raw,4.10355503e+05,4142,326
Raw,3.03301148e+05,4142,326
Raw,3.72887946e+05,4146,326
Raw,3.77122145e+05,4147,326
Raw,3.97407893e+05,4149,326
Raw,4.38644461e+05,4151,326
Raw,3.91804932e+05,4152,326
Raw,4.33949532e+05,4162,326
Raw,2.6765105e+05,4162,326
Raw,9.15453571e+05,4166,326
Raw,2.2122855e+05,4167,326
Raw,4.889818e+05,4175,326
Raw,5.82767821e+05,4182,326
Raw,1.07529344e+06,4185,326
Raw,4.61660621e+05,4205,326
Raw,4.72874118e+05,4216,326
Raw,1.02335657e+06,4217,326
Raw,5.05058586e+05,4227,326
Raw,4.50864052e+05,4242,326
Raw,1.69318014e+05,4260,326
Raw,1.35079551e+05,4267,326
Raw,5.2558816e+05,4271,326
Raw,1.39587646e+05,4272,326
Raw,4.60128347e+05,4272,326
Raw,8.47454804e+05,4274,326
Raw,5.83558745e+05,4279,326
Raw,5.40626571e+05,4285,326
Raw,4.23847507e+05,4285,326
Raw,5.37397646e+05,4288,326
Raw,1.23462956e+05,4288,326
Raw,3.75208956e+05,4293,326
Raw,2.37167355e+05,4297,326
Raw,2.1985151e+05,4306,326
Raw,4.88444289e+05,4313,326
Raw,1.85833296e+05,4315,326
Raw,3.63687245e+05,4317,326
Raw,4.81113545e+05,4319,326
Raw,4.93236388e+05,4324,326
Raw,3.87328981e+05,4343,326
Raw,3.7338537e+05,4347,326
Raw,5.84568333e+05,4352,326
Raw,1.83038722e+05,4353,326
Raw,1.69452168e+05,4356,326
Raw,1.38418959e+06,4367,326
Raw,3.76449181e+05,4376,326
Raw,1.25005108e+05,4377,326
Raw,5.95514589e+05,4379,326
Raw,3.52623514e+05,4388,326
Raw,2.66917043e+05,4394,326
Raw,5.2468643e+05,4423,326
Raw,1.25021908e+06,4425,326
Raw,8.23442616e+05,4430,326
Raw,5.05047468e+05,4438,326
Raw,4.07198226e+05,4438,326
Raw,3.8504789e+05,4442,326
Raw,2.02989318e+05,4442,326
Raw,9.18398425e+05,4444,326
Raw,1.98574604e+05,4451,326
Raw,7.02071967e+05,4455,326
Raw,4.14626055e+05,4459,326
Raw,1.0610033e+06,4460,326
Raw,1.02954378e+06,4464,326
Raw,5.24228888e+05,4480,326
Raw,4.74961558e+05,4488,326
Raw,5.64240686e+05,4494,326
Raw,94226.189,4494,326
Raw,7.57053227e+05,4496,326
Raw,1.97748437e+05,4496,326
Raw,4.51693666e+05,4498,326
Raw,1.17763906e+06,4510,326
Raw,4.76289732e+05,4514,326
Raw,3.69590516e+05,4530,326
Raw,4.36009289e+05,4533,326
Raw,4.47604002e+05,4535,326
Raw,5.64481599e+05,4535,326
Raw,8.41267973e+05,4540,326
Raw,4.59294444e+05,4545,326
Raw,4.6822204e+05,4548,326
Raw,4.75911183e+05,4553,326
Raw,5.24663218e+05,4563,326
Raw,4.36348723e+05,4583,326
Raw,1.31919266e+05,4584,326
Raw,4.78312336e+05,4589,326
Raw,4.15546125e+05,4595,326
Raw,8.92241682e+05,4596,326
Raw,5.16627803e+05,4598,326
Raw,8.92738962e+05,4599,326
Raw,4.3946697e+05,4606,326
Raw,4.52618611e+05,4613,326
Raw,6.47220148e+05,4618,326
Raw,4.94353999e+05,4623,326
Raw,4.7758584e+05,4626,326
Raw,1.57107714e+05,4627,326
Raw,4.06753052e+05,4630,326
Raw,5.0263746e+05,4630,326
Raw,3.46979237e+05,4637,326
Raw,5.30272657e+05,4647,326
Raw,6.23590254e+05,4678,326
Raw,5.10631646e+05,4679,326
Raw,3.3592004e+05,4679,326
Raw,5.93703581e+05,4687,326
Raw,4.46787406e+05,4698,326
Raw,4.78010956e+05,4698,326
Raw,3.97809832e+05,4717,326
Raw,5.45735313e+05,4727,326
Raw,1.41894519e+05,4730,326
Raw,8.84301668e+05,4731,326
Raw,8.10105985e+05,4736,326
Raw,3.07544338e+05,4759,326
Raw,1.59063601e+05,4765,326
Raw,4.80107845e+05,4768,326
Raw,30284.323,4784,326
Raw,4.60113601e+05,4797,326
Raw,4.9007828e+05,4806,326
Raw,3.7965492e+05,4811,326
Raw,4.53849353e+05,4813,326
Raw,3.21817262e+05,4816,326
Raw,4.7657911e+05,4816,326
Raw,4.30915917e+05,4817,326
Raw,4.49693817e+05,4819,326
Raw,6.88981312e+05,4820,326
Raw,1.04118182e+06,4822,326
Raw,2.59488835e+05,4832,326
Raw,8.96354209e+05,4840,326
Raw,8.56908552e+05,4844,326
Raw,6.6089578e+05,4852,326
Raw,46149.029,4852,326
Raw,1.05930883e+06,4854,326
Raw,4.01038842e+05,4855,326
Raw,6.03275751e+05,4856,326
Raw,4.83135888e+05,4858,326
Raw,3.32340426e+05,4862,326
Raw,1.38146721e+06,4867,326
Raw,6.91275737e+05,4869,326
Raw,6.21903555e+05,4885,326
Raw,4.56235442e+05,4891,326
Raw,3.82702611e+05,4901,326
Raw,93245.832,4901,326
Raw,4.91627002e+05,4906,326
Raw,5.11204668e+05,4915,326
Raw,6.2870735e+05,4918,326
Raw,5.22659557e+05,4919,326
Raw,3.31677968e+05,4919,326
Raw,8.66544405e+05,4925,326
Raw,3.7735058e+05,4925,326
Raw,9.05867538e+05,4926,326
Raw,4.96155204e+05,4933,326
Raw,5.91058051e+05,4936,326
Raw,4.42006546e+05,4944,326
Raw,4.6172303e+05,4958,326
Raw,4.24029771e+05,4958,326
Raw,8.31602201e+05,4964,326
Raw,3.61990711e+05,4965,326
Raw,5.96091352e+05,4967,326
Raw,4.61789135e+05,4970,326
Raw,2.75107262e+05,4974,326
Raw,4.40310835e+05,4983,326
Raw,3.31455961e+05,4984,326
Raw,1.40723796e+05,4984,326
Raw,8.65329356e+05,4986,326
Raw,3.9845688e+05,4986,326
Raw,5.01827341e+05,4992,326
Raw,66415.56,4995,326
Raw,4.18427593e+05,4997,326
Raw,5.0557547e+05,5004,326
Raw,3.64898127e+05,5006,326
Raw,9.64737684e+05,5012,326
Raw,4.57433655e+05,5015,326
Raw,9.86213748e+05,5036,326
Raw,3.89268019e+05,5036,326
Raw,4.28362325e+05,5037,326
Raw,4.67708175e+05,5041,326
Raw,4.25314956e+05,5042,326
Raw,4.7340546e+05,5045,326
Raw,4.84363605e+05,5045,326
Raw,4.33200577e+05,5048,326
Raw,4.85077923e+05,5054,326
Raw,8.06692006e+05,5070,326
Raw,2.32693835e+05,5085,326
Raw,1.29223342e+06,5097,326
Raw,5.28274032e+05,5108,326
Raw,6.14020416e+05,5111,326
Raw,4.76860067e+05,5123,326
Raw,5.919661e+05,5135,326
Raw,2.98747554e+05,5135,326
Raw,5.78703363e+05,5137,326
Raw,1.82710879e+05,5140,326
Raw,5.57692124e+05,5148,326
Raw,4.01146073e+05,5154,326
Raw,3.86323312e+05,5158,326
Raw,83250.995,5158,326
Raw,5.39571404e+05,5161,326
Raw,4.48138874e+05,5169,326
Raw,1.33307091e+06,5172,326
Raw,5.1251513e+05,5174,326
Raw,5.25052652e+05,5177,326
Raw,1.09794506e+06,5178,326
Raw,2.72665342e+05,5183,326
Raw,7.36610511e+05,5188,326
Raw,9.59801034e+05,5195,326
Raw,2.88481077e+05,5196,326
Raw,5.9242806e+05,5199,326
Raw,3.97623894e+05,5203,326
Raw,4.51036995e+05,5203,326
Raw,5.0608572e+05,5204,326
Raw,7.74079753e+05,5209,326
Raw,5.03202399e+05,5213,326
Raw,5.07526019e+05,5216,326
Raw,4.83209085e+05,5220,326
Raw,5.51210922e+05,5224,326
Raw,85908.284,5224,326
Raw,4.64222478e+05,5233,326
Raw,3.39108644e+05,5240,326
Raw,3.43290634e+05,5240,326
Raw,6.20105312e+05,5251,326
Raw,8.91048189e+05,5254,326
Raw,1.10930192e+06,5264,326
Raw,4.33497368e+05,5267,326
Raw,1.06371485e+06,5269,326
Raw,5.59738036e+05,5272,326
Raw,1.104753e+06,5277,326
Raw,4.99340897e+05,5280,326
Raw,1.62744497e+05,5280,326
Raw,5.30016913e+05,5282,326
Raw,1.14039113e+06,5288,326
Raw,5.55511872e+05,5303,326
Raw,4.50606148e+05,5317,326
Raw,4.83846472e+05,5324,326
Raw,4.17508596e+05,5338,326
Raw,6.01734597e+05,5350,326
Raw,5.23664583e+05,5357,326
Raw,4.7652023e+05,5362,326
Raw,2.4322575e+05,5369,326
Raw,5.05232957e+05,5372,326
Raw,1.81653385e+05,5394,326
Raw,6.55853075e+05,5396,326
Raw,1.21078772e+06,5397,326
Raw,1.01078051e+06,5403,326
Raw,4.87249082e+05,5407,326
Raw,89508.795,5418,326
Raw,9.76985156e+05,5421,326
Raw,2.24157524e+05,5421,326
Raw,1.60815595e+05,5429,326
Raw,1.59334115e+05,5430,326
Raw,1.01148807e+06,5435,326
Raw,3.21754522e+05,5438,326
Raw,4.49156309e+05,5439,326
Raw,4.94365616e+05,5465,326
Raw,5.90756568e+05,5483,326
Raw,9.611163e+05,5489,326
Raw,9.91100503e+05,5492,326
Raw,8.84617458e+05,5498,326
Raw,1.10798707e+06,5499,326
Raw,9.3816175e+05,5500,326
Raw,5.11658717e+05,5500,326
Raw,6.29084515e+05,5501,326
Raw,3.96777844e+05,5501,326
Raw,3.28746967e+05,5502,326
Raw,5.35881092e+05,5502,326
Raw,2.37796492e+05,5506,326
Raw,9.43420361e+05,5507,326
Raw,4.81574666e+05,5515,326
Raw,6.25252538e+05,5522,326
Raw,4.30553402e+05,5525,326
Raw,4.41445839e+05,5526,326
Raw,33207.294,5532,326
Raw,4.9419394e+05,5538,326
Raw,4.45863065e+05,5542,326
Raw,1.37037275e+05,5545,326
Raw,8.87470791e+05,5558,326
Raw,1.29937896e+06,5565,326
Raw,5.28718328e+05,5579,326
Raw,6.31675135e+05,5581,326
Raw,1.71749379e+05,5581,326
Raw,5.28600186e+05,5583,326
Raw,1.38300239e+06,5595,326
Raw,1.06012764e+06,5614,326
Raw,1.08020288e+06,5625,326
Raw,4.97979796e+05,5630,326
Raw,4.38180205e+05,5635,326
Raw,1.51491851e+05,5639,326
Raw,2.67835805e+05,5644,326
Raw,9.64696444e+05,5660,326
Raw,7.02940906e+05,5663,326
Raw,1.04487507e+06,5673,326
Raw,1.03670079e+06,5674,326
Raw,1.07788401e+06,5684,326
Raw,2.7113266e+05,5684,326
Raw,5.00227685e+05,5686,326
Raw,7.56553922e+05,5689,326
Raw,5.02281897e+05,5702,326
Raw,8.43964196e+05,5703,326
Raw,4.21768315e+05,5704,326
Raw,3.7620308e+05,5706,326
Raw,3.43246158e+05,5712,326
Raw,3.70221106e+05,5713,326
Raw,1.29054617e+06,5718,326
Raw,5.38193817e+05,5721,326
Raw,4.66266163e+05,5721,326
Raw,1.03297866e+06,5723,326
Raw,5.30102981e+05,5723,326
Raw,2.60297657e+05,5726,326
Raw,2.35687913e+05,5729,326
Raw,1.01910864e+06,5734,326
Raw,5.16403028e+05,5737,326
Raw,59384.823,5737,326
Raw,3.49132646e+05,5737,326
Raw,5.02360303e+05,5748,326
Raw,3.55204379e+05,5757,326
Raw,9.32337207e+05,5777,326
Raw,1.20961802e+06,5779,326
Raw,4.48503787e+05,5787,326
Raw,5.90049165e+05,5789,326
Raw,3.27060998e+05,5789,326
Raw,1.29909018e+05,5798,326
Raw,5.88110626e+05,5800,326
Raw,39440.514,5807,326
Raw,4.78396093e+05,5813,326
Raw,5.13481373e+05,5814,326
Raw,5.41036022e+05,5822,326
Raw,5.74667271e+05,5824,326
Raw,5.28376257e+05,5854,326
Raw,5.40681662e+05,5871,326
Raw,1.01873371e+06,5873,326
Raw,4.47575094e+05,5877,326
Raw,3.37421179e+05,5877,326
Raw,4.38816888e+05,5885,326
Raw,5.13604634e+05,5897,326
Raw,6.70550737e+05,5904,326
Raw,4.70267432e+05,5912,326
Raw,7.06782862e+05,5917,326
Raw,4.07215117e+05,5918,326
Raw,9.24337391e+05,5934,326
Raw,4.9504444e+05,5942,326
Raw,2.33667054e+05,5957,326
Raw,4.80759315e+05,5957,326
Raw,3.79722443e+05,5959,326
Raw,1.32333821e+05,5959,326
Raw,4.57179273e+05,5962,326
Raw,3.73266649e+05,5965,326
Raw,6.834128e+05,5965,326
Raw,5.26145075e+05,5967,326
Raw,4.01201727e+05,5967,326
Raw,4.37146151e+05,5971,326
Raw,4.74095437e+05,5975,326
Raw,3.77461516e+05,5984,326
Raw,4.70031289e+05,5986,326
Raw,3.62253056e+05,5986,326
Raw,2.50209219e+05,5989,326
Raw,5.39233084e+05,5992,326
Raw,1.86574862e+05,5999,326
Raw,4.17100482e+05,6009,326
Raw,5.94033143e+05,6017,326
Raw,4.25916497e+05,6018,326
Raw,3.89003389e+05,6019,326
Raw,7.24502004e+05,6021,326
Raw,3.40928931e+05,6026,326
Raw,8.47206944e+05,6034,326
Raw,4.53146165e+05,6036,326
Raw,9.24698419e+05,6036,326
Raw,9.56512591e+05,6037,326
Raw,5.00651463e+05,6038,326
Raw,8.58078003e+05,6052,326
Raw,1.0766726e+06,6057,326
Raw,4.14086606e+05,6065,326
Raw,1.31545965e+06,6067,326
Raw,4.24339661e+05,6069,326
Raw,85625.612,6069,326
Raw,4.46631922e+05,6078,326
Raw,6.04955931e+05,6081,326
Raw,5.65796324e+05,6082,326
Raw,3.91382273e+05,6086,326
Raw,5.19975748e+05,6102,326
Raw,1.04292945e+06,6113,326
Raw,5.15982327e+05,6118,326
Raw,71209.189,6121,326
Raw,3.91407947e+05,6122,326
Raw,4.48848895e+05,6122,326
Raw,1.10340555e+05,6124,326
Raw,4.20633717e+05,6126,326
Raw,1.03385439e+06,6134,326
Raw,4.05009916e+05,6142,326
Raw,5.30173057e+05,6147,326
Raw,90501.179,6155,326
Raw,3.96712937e+05,6160,326
Raw,4.00562268e+05,6164,326
Raw,5.38146381e+05,6176,326
Raw,4.31827409e+05,6176,326
Raw,5.24263772e+05,6176,326
Raw,4.64627144e+05,6178,326
Raw,7.09205131e+05,6179,326
Raw,2.81994296e+05,6180,326
Raw,8.64879712e+05,6182,326
Raw,1.70413325e+05,6184,326
Raw,1.2731076e+05,6184,326
Raw,5.08612245e+05,6186,326
Raw,3.89044006e+05,6201,326
Raw,74995.005,6201,326
Raw,8.13196122e+05,6222,326
Raw,1.16831662e+06,6224,326
Raw,1.10573574e+05,6224,326
Raw,8.67387451e+05,6230,326
Raw,4.78328901e+05,6236,326
Raw,4.88631633e+05,6237,326
Raw,2.40193268e+05,6246,326
Raw,4.96457912e+05,6248,326
Raw,4.47619465e+05,6248,326
Raw,1.02719903e+05,6248,326
Raw,3.70501546e+05,6254,326
Raw,3.0253912e+05,6255,326
Raw,4.27021122e+05,6255,326
Raw,4.30104696e+05,6260,326
Raw,4.8382518e+05,6263,326
Raw,4.65398521e+05,6264,326
Raw,3.80727986e+05,6265,326
Raw,5.73549034e+05,6271,326
Raw,4.40732749e+05,6273,326
Raw,4.31288111e+05,6280,326
Raw,8.78656197e+05,6288,326
Raw,4.93051286e+05,6289,326
Raw,1.21409243e+05,6289,326
Raw,4.14576107e+05,6290,326
Raw,1.83202758e+05,6292,326
Raw,4.34315693e+05,6300,326
Raw,4.37203406e+05,6302,326
Raw,1.19415015e+06,6305,326
Raw,1.05052965e+06,6312,326
Raw,4.24317248e+05,6312,326
Raw,4.68580303e+05,6317,326
Raw,1.00449908e+06,6318,326
Raw,6.08058403e+05,6328,326
Raw,4.15263576e+05,6328,326
Raw,1.58929317e+05,6335,326
Raw,5.18285786e+05,6337,326
Raw,1.43661642e+05,6338,326
Raw,4.76450959e+05,6342,326
Raw,8.82214177e+05,6353,326
Raw,9.45698073e+05,6355,326
Raw,4.72909993e+05,6357,326
Raw,8.56149477e+05,6360,326
Raw,1.96807279e+05,6369,326
Raw,4.66011323e+05,6370,326
Raw,4.22082375e+05,6371,326
Raw,4.95805713e+05,6371,326
Raw,4.40010567e+05,6371,326
Raw,3.44678572e+05,6380,326
Raw,1.27385583e+05,6384,326
Raw,3.60575542e+05,6392,326
Raw,5.05994728e+05,6407,326
Raw,5.1692777e+05,6419,326
Raw,3.88634749e+05,6420,326
Raw,6.79239006e+05,6422,326
Raw,5.64078626e+05,6432,326
Raw,5.20837342e+05,6451,326
Raw,8.50735508e+05,6453,326
Raw,2.23159714e+05,6456,326
Raw,5.22451405e+05,6464,326
Raw,5.10097586e+05,6470,326
Raw,9.61720443e+05,6490,326
Raw,9.24808595e+05,6496,326
Raw,5.12654975e+05,6500,326
Raw,4.34167511e+05,6502,326
Raw,5.46372712e+05,6519,326
Raw,5.29397848e+05,6520,326
Raw,3.13738611e+05,6520,326
Raw,5.67542752e+05,6524,326
Raw,90486.787,6524,326
Raw,5.19564216e+05,6526,326
Raw,4.49347455e+05,6532,326
Raw,4.61322371e+05,6536,326
Raw,3.76924024e+05,6539,326
Raw,9.73563934e+05,6540,326
Raw,5.02127762e+05,6541,326
Raw,8.34102485e+05,6542,326
Raw,4.4169588e+05,6542,326
Raw,3.3599356e+05,6549,326
Raw,4.43555018e+05,6555,326
Raw,1.27193111e+06,6557,326
Raw,6.0310181e+05,6559,326
Raw,4.46799671e+05,6567,326
Raw,2.05581575e+05,6567,326
Raw,5.97360972e+05,6568,326
Raw,4.18214681e+05,6570,326
Raw,1.59837716e+05,6588,326
Raw,3.82190798e+05,6597,326
Raw,8.82761874e+05,6606,326
Raw,5.13324524e+05,6614,326
Raw,4.20858654e+05,6623,326
Raw,6.38381285e+05,6625,326
Raw,5.58857339e+05,6625,326
Raw,3.68846466e+05,6627,326
Raw,9.28243045e+05,6628,326
Raw,5.23796871e+05,6631,326
Raw,5.79538562e+05,6636,326
Raw,6.01283025e+05,6641,326
Raw,5.68654442e+05,6643,326
Raw,4.10884645e+05,6655,326
Raw,9.79615347e+05,6662,326
Raw,4.82407126e+05,6669,326
Raw,8.13742889e+05,6673,326
Raw,1.57008818e+05,6675,326
Raw,5.74022363e+05,6705,326
Raw,4.04983994e+05,6706,326
Raw,9.43009047e+05,6709,326
Raw,2.94187229e+05,6715,326
Raw,5.0326212e+05,6722,326
Raw,4.5337103e+05,6722,326
Raw,4.99531391e+05,6724,326
Raw,1.40919508e+05,6724,326
Raw,3.85281446e+05,6729,326
Raw,9.87107351e+05,6729,326
Raw,5.82092412e+05,6743,326
Raw,4.06196354e+05,6753,326
Raw,1.0001001e+06,6760,326
Raw,5.80916329e+05,6764,326
Raw,4.69215278e+05,6767,326
Raw,1.23400871e+05,6768,326
Raw,2.85501236e+05,6768,326
Raw,5.81600252e+05,6770,326
Raw,3.28884695e+05,6771,326
Raw,1.15355782e+06,6777,326
Raw,5.05796422e+05,6778,326
Raw,3.24715713e+05,6780,326
Raw,5.13079282e+05,6782,326
Raw,2.97000635e+05,6782,326
Raw,4.71476075e+05,6783,326
Raw,8227.2879,6783,326
Raw,4.47524569e+05,6789,326
Raw,4.78744429e+05,6789,326
Raw,4.89319384e+05,6791,326
Raw,5.30633113e+05,6794,326
Raw,1.19722591e+05,6796,326
Raw,7.87643965e+05,6807,326
Raw,4.31939007e+05,6807,326
Raw,2.9114535e+05,6809,326
Raw,8.31238171e+05,6811,326
Raw,9.92741627e+05,6813,326
Raw,85352.156,6813,326
Raw,5.2260279e+05,6824,326
Raw,5.68404272e+05,6827,326
Raw,4.91782482e+05,6829,326
Raw,4.95440512e+05,6831,326
Raw,1.29524802e+05,6834,326
Raw,5.15380515e+05,6837,326
Raw,84514.173,6837,326
Raw,5.49538848e+05,6849,326
Raw,13231.059,6849,326
Raw,5.04755838e+05,6852,326
Raw,4.82542234e+05,6853,326
Raw,4.55383171e+05,6858,326
Raw,5.87626592e+05,6867,326
Raw,7.00502295e+05,6868,326
Raw,4.95087701e+05,6873,326
Raw,5.79553795e+05,6879,326
Raw,5.99579144e+05,6883,326
Raw,5.19723404e+05,6883,326
Raw,3.14333694e+05,6892,326
Raw,1.02033372e+06,6896,326
Raw,3.60053607e+05,6896,326
Raw,3.78347214e+05,6902,326
Raw,1.83331932e+05,6905,326
Raw,5.21209321e+05,6906,326
Raw,6.86009767e+05,6909,326
Raw,2.14941877e+05,6913,326
Raw,3.84395757e+05,6920,326
Raw,5.42708069e+05,6920,326
Raw,6.32292622e+05,6924,326
Raw,5.14258601e+05,6928,326
Raw,4.89115227e+05,6930,326
Raw,4.83886471e+05,6930,326
Raw,1.03252108e+06,6934,326
Raw,1.13366271e+06,6935,326
Raw,5.40022055e+05,6938,326
Raw,5.63194872e+05,6947,326
Raw,4.22525584e+05,6957,326
Raw,4.37987021e+05,6957,326
Raw,1.57257707e+05,6970,326
Raw,5.16548686e+05,6977,326
Raw,5.38623524e+05,6978,326
Raw,3.91918413e+05,6985,326
Raw,4.65246722e+05,6987,326
Raw,3.71088676e+05,6991,326
Raw,4.73208048e+05,6993,326
Raw,4.79532137e+05,7005,326
Raw,5.03197373e+05,7009,326
Raw,5.34878841e+05,7013,326
Raw,1.0078033e+06,7014,326
Raw,5.52592563e+05,7015,326
Raw,4.87449935e+05,7018,326
Raw,2.51128686e+05,7021,326
Raw,7.30844392e+05,7028,326
Raw,9.16723311e+05,7040,326
Raw,1.08840199e+06,7046,326
Raw,9.53390761e+05,7050,326
Raw,8.87027965e+05,7056,326
Raw,3.48874824e+05,7059,326
Raw,5.59661664e+05,7059,326
Raw,9.8114563e+05,7072,326
Raw,7.02130397e+05,7074,326
Raw,4.14459836e+05,7087,326
Raw,9.62998203e+05,7092,326
Raw,3.26718335e+05,7095,326
Raw,4.50672076e+05,7096,326
Raw,14499.18,7096,326
Raw,4.82752998e+05,7106,326
Raw,3.96893591e+05,7112,326
Raw,4.14274014e+05,7119,326
Raw,3.07053498e+05,7119,326
Raw,4.76966361e+05,7123,326
Raw,3.51630697e+05,7123,326
Raw,4.21139797e+05,7124,326
Raw,8.64605344e+05,7136,326
Raw,4.38932669e+05,7153,326
Raw,4.18429027e+05,7157,326
Raw,2.0821413e+05,7160,326
Raw,4.04686303e+05,7161,326
Raw,4.0811931e+05,7165,326
Raw,2.65174724e+05,7165,326
Raw,3.63699811e+05,7166,326
Raw,5.38731014e+05,7166,326
Raw,3.95843505e+05,7167,326
Raw,8.74913582e+05,7168,326
Raw,1.08265098e+06,7170,326
Raw,4.66970274e+05,7174,326
Raw,2.07891857e+05,7174,326
Raw,3.40727607e+05,7177,326
Raw,9.63489576e+05,7182,326
Raw,7.93084802e+05,7187,326
Raw,9.2901145e+05,7189,326
Raw,1.32678642e+06,7195,326
Raw,4.55840651e+05,7200,326
Raw,3.38198904e+05,7201,326
Raw,5.87043018e+05,7201,326
Raw,3.27453822e+05,7214,326
Raw,1.17097755e+06,7233,326
Raw,1.29121471e+06,7238,326
Raw,3.97979907e+05,7240,326
Raw,3.83695398e+05,7244,326
Raw,1.77125283e+05,7245,326
Raw,5.5389945e+05,7256,326
Raw,4.69314146e+05,7256,326
Raw,6.97800711e+05,7282,326
Raw,3.36257497e+05,7287,326
Raw,1.93476488e+05,7288,326
Raw,4.48831341e+05,7291,326
Raw,5.05713938e+05,7299,326
Raw,5.16324209e+05,7299,326
Raw,3.98825807e+05,7304,326
Raw,9.62547873e+05,7310,326
Raw,4.48492212e+05,7313,326
Raw,3.94935799e+05,7313,326
Raw,4.49366882e+05,7315,326
Raw,2.94594845e+05,7315,326
Raw,5.93056112e+05,7323,326
Raw,1.36148677e+06,7325,326
Raw,3.46788426e+05,7330,326
Raw,2.74520526e+05,7336,326
Raw,8.59826563e+05,7342,326
Raw,4.92170885e+05,7347,326
Raw,5.44380864e+05,7349,326
Raw,3.66339148e+05,7350,326
Raw,5.12809254e+05,7350,326
Raw,4.81043678e+05,7372,326
Raw,5.37424257e+05,7393,326
Raw,1.04082303e+06,7395,326
Raw,8.69862287e+05,7397,326
Raw,4.77971245e+05,7401,326
Raw,47694.344,7405,326
Raw,4.56377283e+05,7413,326
Raw,9.61088473e+05,7423,326
Raw,1.22310088e+06,7425,326
Raw,4.61687794e+05,7435,326
Raw,4.39584817e+05,7440,326
Raw,5.38539347e+05,7443,326
Raw,1.16945443e+06,7445,326
Raw,4.78842775e+05,7454,326
Raw,4.96895199e+05,7459,326
Raw,2.79275609e+05,7470,326
Raw,5.09779642e+05,7472,326
Raw,1.04188145e+06,7472,326
Raw,3.35409583e+05,7478,326
Raw,4.0497221e+05,7482,326
Raw,3.54292432e+05,7485,326
Raw,9.39207522e+05,7487,326
Raw,1.19760099e+06,7493,326
Raw,5.66983555e+05,7497,326
Raw,4.1274611e+05,7502,326
Raw,3.72402437e+05,7507,326
Raw,5.14320883e+05,7521,326
Raw,2.8726475e+05,7521,326
Raw,3.81939818e+05,7533,326
Raw,6.97223494e+05,7535,326
Raw,1.7670883e+05,7535,326
Raw,4.37022906e+05,7542,326
Raw,4.93581446e+05,7545,326
Raw,3.32793168e+05,7546,326
Raw,1.75384414e+05,7547,326
Raw,8.00295432e+05,7550,326
Raw,4.61669601e+05,7550,326
Raw,8.42364029e+05,7552,326
Raw,8.72072148e+05,7554,326
Raw,1.01211541e+06,7555,326
Raw,9.85039331e+05,7567,326
Raw,1.93116581e+05,7569,326
Raw,9.46429513e+05,7570,326
Raw,4.90590287e+05,7592,326
Raw,8.37130468e+05,7595,326
Raw,1.70063983e+05,7601,326
Raw,5.03277792e+05,7606,326
Raw,3.79314973e+05,7609,326
Raw,4.17273451e+05,7616,326
Raw,2.6990459e+05,7616,326
Raw,1.09532562e+06,7624,326
Raw,4.39958894e+05,7635,326
Raw,5.01556972e+05,7635,326
Raw,5.57498832e+05,7640,326
Raw,4.68780438e+05,7649,326
Raw,3.82245152e+05,7655,326
Raw,4.90062866e+05,7656,326
Raw,4.04818995e+05,7658,326
Raw,6.18626003e+05,7664,326
Raw,4.95393427e+05,7668,326
Raw,9.70781337e+05,7701,326
Raw,5.10193052e+05,7702,326
Raw,4.31537712e+05,7707,326
Raw,6.54726711e+05,7717,326
Raw,4.41408416e+05,7722,326
Raw,9.97921352e+05,7729,326
Raw,5.81714736e+05,7731,326
Raw,5.5730296e+05,7741,326
Raw,1.36993535e+06,7750,326
Raw,4.05241328e+05,7761,326
Raw,4.26778512e+05,7765,326
Raw,3.8725906e+05,7770,326
Raw,1.3386833e+06,7771,326
Raw,4.67366456e+05,7778,326
Raw,4.59638324e+05,7785,326
Raw,4.83647511e+05,7791,326
Raw,1.03472758e+06,7798,326
Raw,8.02760871e+05,7807,326
Raw,4.88564007e+05,7809,326
Raw,4.18392675e+05,7816,326
Raw,9.07140002e+05,7822,326
Raw,6.60363142e+05,7824,326
Raw,1.01513629e+06,7828,326
Raw,7.00883109e+05,7835,326
Raw,6.24370385e+05,7836,326
Raw,1.34516658e+05,7836,326
Raw,9.90994346e+05,7839,326
Raw,4.83398048e+05,7845,326
Raw,8.91368389e+05,7848,326
Raw,1.29142808e+05,7852,326
Raw,8.72355672e+05,7862,326
Raw,5.00898185e+05,7865,326
Raw,1.1140083e+05,7865,326
Raw,1.76817773e+05,7872,326
Raw,6.66964884e+05,7880,326
Raw,4.42524931e+05,7887,326
Raw,4.28725392e+05,7893,326
Raw,1.7688015e+05,7914,326
Raw,4.5491254e+05,7918,326
Raw,5.05292563e+05,7927,326
Raw,4.73643074e+05,7935,326
Raw,4.49416983e+05,7941,326
Raw,1.97454877e+05,7942,326
Raw,5.23465031e+05,7945,326
Raw,5.7037183e+05,7952,326
Raw,8.10656726e+05,7959,326
Raw,3.11404912e+05,7963,326
Raw,4.81113719e+05,7965,326
Raw,4.21621641e+05,7974,326
Raw,7.56175409e+05,7976,326
Raw,4.73292578e+05,7979,326
Raw,5.13744145e+05,7994,326
Raw,4.07677435e+05,7996,326
Raw,3.73343626e+05,8001,326
Raw,4.59745158e+05,8015,326
Raw,3.69164315e+05,8020,326
Raw,1.34548011e+05,8020,326
Raw,5.60395858e+05,8027,326
Raw,1.03896306e+06,8035,326
Raw,3.47299817e+05,8046,326
Raw,6.81436849e+05,8061,326
Raw,1.47943619e+05,8062,326
Raw,5.78078621e+05,8070,326
Raw,4.19903039e+05,8072,326
Raw,3.44179086e+05,8084,326
Raw,6.29632231e+05,8089,326
Raw,1.04373429e+06,8093,326
Raw,4.18535286e+05,8114,326
Raw,2.61676949e+05,8114,326
Raw,5.77620126e+05,8125,326
Raw,6.52962861e+05,8141,326
Raw,1.61967979e+05,8149,326
Raw,6.42223105e+05,8152,326
Raw,4.41227313e+05,8155,326
Raw,4.4358552e+05,8184,326
Raw,4.61724615e+05,8186,326
Raw,5.04918865e+05,8190,326
Raw,5.42432128e+05,8195,326
Raw,5.73379174e+05,8212,326
Raw,6.21603856e+05,8213,326
Raw,6.735632e+05,8214,326
Raw,4.00413864e+05,8220,326
Raw,3.86567895e+05,8228,326
Raw,3.88280485e+05,8234,326
Raw,5.73408499e+05,8235,326
Raw,1.09346882e+06,8236,326
Raw,4.41648514e+05,8239,326
Raw,2.07922645e+05,8240,326
Raw,1.68827274e+05,8249,326
Raw,5.31502776e+05,8253,326
Raw,60567.171,8257,326
Raw,4.6628981e+05,8266,326
Raw,8.84945401e+05,8267,326
Raw,9.07055123e+05,8271,326
Raw,8.9144955e+05,8275,326
Raw,3.64442273e+05,8276,326
Raw,1.13790248e+06,8277,326
Raw,1.1724361e+05,8281,326
Raw,8.47951089e+05,8289,326
Raw,4.96281371e+05,8290,326
Raw,2.32625406e+05,8297,326
Raw,5.05242758e+05,8301,326
Raw,4.45413656e+05,8304,326
Raw,2.74086685e+05,8304,326
Raw,5.72776452e+05,8309,326
Raw,9.91270473e+05,8310,326
Raw,3.0168383e+05,8313,326
Raw,1.91355753e+05,8319,326
Raw,1.19046959e+06,8323,326
Raw,5.08982033e+05,8329,326
Raw,4.28743704e+05,8340,326
Raw,5.38168475e+05,8352,326
Raw,9.98254434e+05,8362,326
Raw,6.81655647e+05,8372,326
Raw,9.08855232e+05,8377,326
Raw,4.63176628e+05,8377,326
Raw,4.35740564e+05,8382,326
Raw,4.67837281e+05,8382,326
Raw,8.41570705e+05,8386,326
Raw,5.33351791e+05,8391,326
Raw,5.53546553e+05,8395,326
Raw,4.54763427e+05,8404,326
Raw,9.9915646e+05,8404,326
Raw,5.20644318e+05,8405,326
Raw,2.73336559e+05,8405,326
Raw,5.25670126e+05,8412,326
Raw,3.86957672e+05,8415,326
Raw,1.3593417e+06,8420,326
Raw,5.17811643e+05,8423,326
Raw,2.30437189e+05,8425,326
Raw,5.75351831e+05,8434,326
Raw,3.24710195e+05,8442,326
Raw,4.57263796e+05,8443,326
Raw,6.33220473e+05,8445,326
Raw,4.56124802e+05,8446,326
Raw,3.16532817e+05,8449,326
Raw,4.62176335e+05,8450,326
Raw,5.07046763e+05,8459,326
Raw,4.08002762e+05,8460,326
Raw,1.04225493e+06,8473,326
Raw,4.7175211e+05,8473,326
Raw,5.47480701e+05,8474,326
Raw,1.0196072e+06,8479,326
Raw,2.23026632e+05,8480,326
Raw,3.56359013e+05,8481,326
Raw,7.8697125e+05,8483,326
Raw,3.45337463e+05,8488,326
Raw,3.96670381e+05,8491,326
Raw,4.31769099e+05,8493,326
Raw,5.80808474e+05,8494,326
Raw,3.44542051e+05,8496,326
Raw,4.15614069e+05,8504,326
Raw,8.63126658e+05,8506,326
Raw,9.09149769e+05,8515,326
Raw,3.78873434e+05,8516,326
Raw,1.83696722e+05,8520,326
Raw,4.27655529e+05,8530,326
Raw,3.91823228e+05,8542,326
Raw,5.50409022e+05,8542,326
Raw,9.52141922e+05,8547,326
Raw,1.3827066e+06,8554,326
Raw,4.36640798e+05,8555,326
Raw,9.50343214e+05,8557,326
Raw,5.70985069e+05,8557,326
Raw,4.77204654e+05,8558,326
Raw,5.41200649e+05,8561,326
Raw,4.20703802e+05,8565,326
Raw,5.0841416e+05,8570,326
Raw,2.11243285e+05,8570,326
Raw,8.70454772e+05,8579,326
Raw,4.4517096e+05,8584,326
Raw,1.39298711e+05,8584,326
Raw,4.64905334e+05,8585,326
Raw,5.0854137e+05,8585,326
Raw,1.00160765e+06,8588,326
Raw,3.79505035e+05,8591,326
Raw,4.18371725e+05,8602,326
Raw,1.05070618e+06,8625,326
Raw,4.94794626e+05,8639,326
Raw,33378.709,8639,326
Raw,4.34053657e+05,8645,326
Raw,8.07935639e+05,8647,326
Raw,4.21992022e+05,8651,326
Raw,1.04142931e+05,8651,326
Raw,5.0282746e+05,8665,326
Raw,4.07613955e+05,8666,326
Raw,3.01252833e+05,8671,326
Raw,4.01299931e+05,8688,326
Raw,1.02475978e+06,8696,326
Raw,9.40436101e+05,8709,326
Raw,3.51439613e+05,8710,326
Raw,4.95678263e+05,8710,326
Raw,7.83207232e+05,8714,326
Raw,3.31932347e+05,8715,326
Raw,2.81716542e+05,8719,326
Raw,4.53718209e+05,8725,326
Raw,5.12207137e+05,8731,326
Raw,11473.528,8731,326
Raw,6.45369961e+05,8733,326
Raw,7.70374053e+05,8733,326
Raw,4.53156564e+05,8737,326
Raw,9.92271721e+05,8738,326
Raw,4.50508144e+05,8740,326
Raw,1.13746168e+06,8760,326
Raw,5.08487733e+05,8771,326
Raw,4.38464012e+05,8788,326
Raw,4.42551947e+05,8790,326
Raw,4.47844201e+05,8793,326
Raw,5.00678485e+05,8797,326
Raw,4.22101405e+05,8833,326
Raw,4.99214375e+05,8834,326
Raw,1.52501968e+05,8836,326
Raw,49077.605,8837,326
Raw,4.28683648e+05,8839,326
Raw,5.13573381e+05,8841,326
Raw,2.04568481e+05,8841,326
Raw,4.03847141e+05,8846,326
Raw,3.80525255e+05,8846,326
Raw,4.38422385e+05,8847,326
Raw,1.31135007e+05,8848,326
Raw,5.37456128e+05,8857,326
Raw,1.03493741e+06,8876,326
Raw,4.38710138e+05,8877,326
Raw,4.82741626e+05,8882,326
Raw,4.06498107e+05,8883,326
Raw,4.14264128e+05,8890,326
Raw,1.71634671e+05,8890,326
Raw,9.91142553e+05,8909,326
Raw,7.17198677e+05,8911,326
Raw,4.50472958e+05,8915,326
Raw,4.11690643e+05,8938,326
Raw,5.55591688e+05,8940,326
Raw,5.02087977e+05,8940,326
Raw,1.18874723e+05,8949,326
Raw,6.76642299e+05,8955,326
Raw,5.14996897e+05,8956,326
Raw,1.28559008e+06,8958,326
Raw,45122.565,8972,326
Raw,9.41500151e+05,8973,326
Raw,4.37872923e+05,8977,326
Raw,4.54527127e+05,8992,326
Raw,5.00167115e+05,9002,326
Raw,5.66992169e+05,9006,326
Raw,4.09661736e+05,9006,326
Raw,3.86353797e+05,9007,326
Raw,4.2878714e+05,9010,326
Raw,1.10238554e+05,9010,326
Raw,3.1400167e+05,9012,326
Raw,1.5752417e+05,9012,326
Raw,3.26020923e+05,9021,326
Raw,2.63437465e+05,9021,326
Raw,1.24317943e+06,9046,326
Raw,9.2813891e+05,9048,326
Raw,5.89659051e+05,9050,326
Raw,3.55705726e+05,9050,326
Raw,4.64313818e+05,9058,326
Raw,4.56386767e+05,9063,326
Raw,4.29051145e+05,9076,326
Raw,5.63055365e+05,9080,326
Raw,8.62268779e+05,9081,326
Raw,4.38199475e+05,9084,326
Raw,4.2880272e+05,9085,326
Raw,1.38315553e+05,9085,326
Raw,3.01157503e+05,9096,326
Raw,5.69003678e+05,9113,326
Raw,4.02715675e+05,9113,326
Raw,4.56593559e+05,9116,326
Raw,2.46482965e+05,9116,326
Raw,3.60433847e+05,9129,326
Raw,4.37959413e+05,9136,326
Raw,97249.58,9136,326
Raw,7.39375448e+05,9150,326
Raw,1.15971952e+06,9164,326
Raw,5.47585959e+05,9170,326
Raw,5.1440213e+05,9172,326
Raw,5.43063998e+05,9180,326
Raw,5.30037965e+05,9181,326
Raw,1.27198322e+06,9183,326
Raw,3.92079415e+05,9186,326
Raw,1.16735864e+06,9200,326
Raw,9.70141049e+05,9201,326
Raw,5.16293811e+05,9207,326
Raw,2.0569133e+05,9207,326
Raw,4.81242985e+05,9210,326
Raw,3.23850464e+05,9215,326
Raw,8.14819361e+05,9215,326
Raw,4.53305627e+05,9217,326
Raw,9.51106776e+05,9220,326
Raw,5.48370806e+05,9223,326
Raw,3.57884272e+05,9226,326
Raw,4.8405855e+05,9242,326
Raw,4.00742002e+05,9244,326
Raw,4.69578159e+05,9295,326
Raw,1.10756165e+06,9298,326
Raw,4.6326015e+05,9298,326
Raw,5.91513058e+05,9299,326
Raw,2.88260783e+05,9313,326
Raw,4.59470977e+05,9315,326
Raw,4.0463362e+05,9320,326
Raw,4.83698189e+05,9322,326
Raw,1.26768429e+05,9328,326
Raw,4.86676725e+05,9332,326
Raw,5.23971882e+05,9335,326
Raw,5.37966108e+05,9336,326
Raw,4.07385107e+05,9336,326
Raw,4.54617194e+05,9337,326
Raw,63583.554,9337,326
Raw,1.76491581e+05,9338,326
Raw,4.04292955e+05,9344,326
Raw,1.60492501e+05,9345,326
Raw,4.86851338e+05,9349,326
Raw,3.95185544e+05,9353,326
Raw,6.45986417e+05,9358,326
Raw,7.68524304e+05,9365,326
Raw,6.94928852e+05,9366,326
Raw,5.27958589e+05,9373,326
Raw,4.58774027e+05,9388,326
Raw,7.97479142e+05,9393,326
Raw,1.99774178e+05,9406,326
Raw,55757.903,9410,326
Raw,9.75756033e+05,9410,326
Raw,64241.776,9414,326
Raw,1.78097596e+05,9426,326
Raw,4.18379558e+05,9429,326
Raw,4.64951111e+05,9433,326
Raw,5.50406928e+05,9433,326
Raw,1.37222555e+05,9439,326
Raw,1.94242576e+05,9439,326
Raw,5.42288583e+05,9448,326
Raw,4.18809684e+05,9455,326
Raw,4.19785729e+05,9455,326
Raw,1.35499979e+06,9464,326
Raw,1.74857619e+05,9470,326
Raw,4.51384232e+05,9471,326
Raw,12573.288,9471,326
Raw,5.14868806e+05,9473,326
Raw,9.2086811e+05,9484,326
Raw,4.50968242e+05,9492,326
Raw,1.12003001e+05,9493,326
Raw,8.48397727e+05,9511,326
Raw,4.35411021e+05,9519,326
Raw,1.15791162e+05,9519,326
Raw,8.41609721e+05,9520,326
Raw,1.84430743e+05,9533,326
Raw,4.78532358e+05,9538,326
Raw,9.27099098e+05,9542,326
Raw,4.71170881e+05,9543,326
Raw,3.22571457e+05,9555,326
Raw,1.0522772e+06,9556,326
Raw,7.94378803e+05,9559,326
Raw,9.48308265e+05,9588,326
Raw,9.55825289e+05,9590,326
Raw,9.15647029e+05,9592,326
Raw,4.62960459e+05,9594,326
Raw,1.63663939e+05,9596,326
Raw,4.30280071e+05,9597,326
Raw,4.33797191e+05,9603,326
Raw,5.00686921e+05,9607,326
Raw,94739.322,9607,326
Raw,3.39021131e+05,9626,326
Raw,1.46101248e+05,9630,326
Raw,8.38755809e+05,9637,326
Raw,3.76355143e+05,9644,326
Raw,1.10415612e+05,9647,326
Raw,1.26158139e+05,9647,326
Raw,5.13669978e+05,9651,326
Raw,4.99165089e+05,9655,326
Raw,4.72547874e+05,9667,326
Raw,3.22711035e+05,9674,326
Raw,4.75087123e+05,9680,326
Raw,1.30197913e+06,9681,326
Raw,3.45431033e+05,9689,326
Raw,5.08213876e+05,9694,326
Raw,2.17323908e+05,9695,326
Raw,5.07113546e+05,9699,326
Raw,4.2077463e+05,9707,326
Raw,4.1535789e+05,9711,326
Raw,87811.822,9711,326
Raw,4.56766008e+05,9719,326
Raw,6.66609524e+05,9719,326
Raw,3.05921035e+05,9725,326
Raw,46160.345,9725,326
Raw,4.13660444e+05,9726,326
Raw,4.30558935e+05,9732,326
Raw,5.21239611e+05,9744,326
Raw,2.57233629e+05,9751,326
Raw,4.55701088e+05,9766,326
Raw,3.66877531e+05,9772,326
Raw,8.04542422e+05,9773,326
Raw,1.16407318e+06,9778,326
Raw,3.68927131e+05,9778,326
Raw,5.14149331e+05,9788,326
Raw,9.59485774e+05,9792,326
Raw,5.51440972e+05,9794,326
Raw,4.42456763e+05,9805,326
Raw,7.22124974e+05,9805,326
Raw,5.30801019e+05,9808,326
Raw,4.88432628e+05,9818,326
Raw,3.78348026e+05,9818,326
Raw,4.29812921e+05,9822,326
Raw,4.61646502e+05,9822,326
Raw,3.11229403e+05,9829,326
Raw,8.01878783e+05,9830,326
Raw,4.8371291e+05,9831,326
Raw,3.3867305e+05,9837,326
Raw,1.72840816e+05,9838,326
Raw,3.92072563e+05,9839,326
Raw,1.86707176e+05,9839,326
Raw,3.67046418e+05,9851,326
Raw,3.62710946e+05,9859,326
Raw,5.5732935e+05,9869,326
Raw,1.26866856e+05,9883,326
Raw,4.55019849e+05,9884,326
Raw,5.15428798e+05,9889,326
Raw,5.02831856e+05,9893,326
Raw,3.01033779e+05,9893,326
Raw,2.07140614e+05,9894,326
Raw,8.48919503e+05,9903,326
Raw,4.16658445e+05,9904,326
Raw,5.17333967e+05,9905,326
Raw,1.32528047e+06,9906,326
Raw,6.06787591e+05,9918,326
Raw,8.8763174e+05,9923,326
Raw,3.66078925e+05,9924,326
Raw,3.10784076e+05,9924,326
Raw,4.30694472e+05,9928,326
Raw,4.30908376e+05,9930,326
Raw,8.0980695e+05,9936,326
Raw,5.15256079e+05,9938,326
Raw,1.49111597e+05,9940,326
Raw,2.62384587e+05,9942,326
Raw,4.27048848e+05,9948,326
Raw,3.72540302e+05,9948,326
Raw,1.35205657e+06,9951,326
Raw,3.76034841e+05,9951,326
Raw,4.21014088e+05,9957,326
Raw,4.46628522e+05,9965,326
Raw,8.69465547e+05,9969,326
Raw,5.40200424e+05,9974,326
Raw,5.2339722e+05,9986,326
Raw,5.82245753e+05,9987,326
Raw,4.88745715e+05,9987,326
Raw,9.60834007e+05,9993,326
Raw,9.13127457e+05,10003,326
Raw,1.29166976e+06,10004,326
Raw,3.5239619e+05,10008,326
Raw,4.97183267e+05,10008,326
Raw,1.18647413e+06,10012,326
Raw,9.29630453e+05,10018,326
Raw,1.09777233e+06,10030,326
Raw,7.78592283e+05,10037,326
Raw,9.18101009e+05,10043,326
Raw,6.46583073e+05,10044,326
Raw,3.90217717e+05,10049,326
Raw,4.89337947e+05,10049,326
Raw,8.21944062e+05,10051,326
Raw,2.04291807e+05,10055,326
Raw,3.90801559e+05,10065,326
Raw,3.43431584e+05,10068,326
Raw,4.74269051e+05,10070,326
Raw,8.91762963e+05,10074,326
Raw,4.45444844e+05,10088,326
Raw,1.14847691e+06,10094,326
Raw,8.4748349e+05,10105,326
Raw,1.64040318e+05,10107,326
Raw,5.36564703e+05,10108,326
Raw,1.42163183e+05,10108,326
Raw,1.08683274e+06,10111,326
Raw,9.52673664e+05,10117,326
Raw,4.54319264e+05,10117,326
Raw,1.29148922e+05,10123,326
Raw,7.99706904e+05,10128,326
Raw,4.08756235e+05,10131,326
Raw,4.34643461e+05,10140,326
Raw,3.8735645e+05,10141,326
Raw,1.27958462e+05,10141,326
Raw,2.10873013e+05,10142,326
Raw,4.82054964e+05,10146,326
Raw,5.15069824e+05,10149,326
Raw,9.38628863e+05,10163,326
Raw,4.24333967e+05,10168,326
Raw,8.33042905e+05,10171,326
Raw,9.14047578e+05,10179,326
Raw,4.9776152e+05,10183,326
Raw,3.92133121e+05,10188,326
Raw,4.52623808e+05,10188,326
Raw,5.14742963e+05,10191,326
Raw,1.14153137e+06,10198,326
Raw,9.68495109e+05,10204,326
Raw,9.67907109e+05,10208,326
Raw,4.22815204e+05,10215,326
Raw,2.58405833e+05,10217,326
Raw,1.81344314e+05,10223,326
Raw,4.09181885e+05,10233,326
Raw,4.21140871e+05,10234,326
Raw,7.42410363e+05,10238,326
Raw,3.13937888e+05,10238,326
Raw,8.96714322e+05,10239,326
Raw,1.34758775e+06,10240,326
Raw,6.76481363e+05,10247,326
Raw,1.02545461e+06,10248,326
Raw,4.36032985e+05,10262,326
Raw,62905.099,10267,326
Raw,9.57662845e+05,10268,326
Raw,2.37917306e+05,10268,326
Raw,5.79277387e+05,10271,326
Raw,2.39587424e+05,10277,326
Raw,4.07519371e+05,10281,326
Raw,5.74708006e+05,10285,326
Raw,3.56460505e+05,10293,326
Raw,4.59521368e+05,10293,326
Raw,4.71485619e+05,10307,326
Raw,9.52717585e+05,10328,326
Raw,1.22293863e+06,10329,326
Raw,3.75737467e+05,10331,326
Raw,6.91755889e+05,10331,326
Raw,9.03139019e+05,10333,326
Raw,9.14643927e+05,10335,326
Raw,3.05957778e+05,10343,326
Raw,3.45261131e+05,10348,326
Raw,4.74824513e+05,10354,326
Raw,1.14730196e+05,10360,326
Raw,9.59897373e+05,10369,326
Raw,4.46339976e+05,10384,326
Raw,5.02849787e+05,10385,326
Raw,4.07426481e+05,10385,326
Raw,5.01600197e+05,10391,326
Raw,5.09448554e+05,10394,326
Raw,2.20789777e+05,10396,326
Raw,4.88763992e+05,10397,326
Raw,2.68809366e+05,10409,326
Raw,4.33422967e+05,10417,326
Raw,8.27190671e+05,10427,326
Raw,56430.297,10427,326
Raw,3.98632611e+05,10432,326
Raw,4.58893288e+05,10433,326
Raw,4.32387636e+05,10434,326
Raw,3.70897e+05,10444,326
Raw,5.7496356e+05,10445,326
Raw,4.09429036e+05,10446,326
Raw,2.80404459e+05,10450,326
Raw,3.78826539e+05,10453,326
Raw,2.56774936e+05,10456,326
Raw,8.99134122e+05,10457,326
Raw,1.30352444e+06,10460,326
Raw,4.89217502e+05,10471,326
Raw,4.56556256e+05,10490,326
Raw,1.29405363e+06,10496,326
Raw,5.56785747e+05,10500,326
Raw,4.47893096e+05,10500,326
Raw,1.16166462e+05,10500,326
Raw,4.72230927e+05,10519,326
Raw,4.06968899e+05,10524,326
Raw,4.99524192e+05,10532,326
Raw,7.19209889e+05,10538,326
Raw,3.84225567e+05,10540,326
Raw,5.08981198e+05,10548,326
Raw,3.99699172e+05,10548,326
